     2.11           OBSERVATION DATA    G (GPS)             RINEX VERSION / TYPE
teqc  2015Nov6                          20161009 21:24:42UTCPGM / RUN BY / DATE
Linux2.4.20-8|i386|gcc|Win32-MinGW32|=                      COMMENT
BIT 2 OF LLI FLAGS DATA COLLECTED UNDER A/S CONDITION       COMMENT
-Unknown-                                                   MARKER NAME
-Unknown-           -Unknown-                               OBSERVER / AGENCY
462404              LEICA GRX1200PRO    8.20/2.127          REC # / TYPE / VERS
103294              LEIAT504        NONE                    ANT # / TYPE
  5184921.8886   -52285.8261  3702000.7675                  APPROX POSITION XYZ
        0.1860        0.0000        0.0000                  ANTENNA: DELTA H/E/N
     1     1                                                WAVELENGTH FACT L1/2
     6    L1    L2    C1    P2    S1    S2                  # / TYPES OF OBSERV
    30.0000                                                 INTERVAL
SPIDER                                                      COMMENT
Made by Spider v4.0.0                                       COMMENT
Project creator:                                            COMMENT
                                                            COMMENT
 SNR is mapped to RINEX snr flag value [0-9]                COMMENT
  L1 & L2: min(max(int(snr_dBHz/6), 0), 9)                  COMMENT
  2013    12    12     1     0    0.0000000     GPS         TIME OF FIRST OBS
                                                            END OF HEADER
 13 12 12  1  0  0.0000000  0  7G02G25G15G12G24G29G14
 128111634.883 6  99827232.12245  24378833.780    24378831.440          40.500
        34.000
 111436520.798 8  86833672.93746  21205663.060    21205664.880          48.750
        41.250
 126142627.703 7  98292960.69345  24004145.120    24004145.240          43.750
        33.500
 107595816.329 8  83841013.06247  20474756.000    20474754.340          50.500
        45.250
 110719584.415 8  86275054.04947  21069230.140    21069232.060          49.500
        44.250
 118889822.485 7  92641427.11845  22623975.840    22623975.780          45.500
        34.000
 117508452.581 7  91565032.39946  22361114.440    22361113.200          46.000
        36.500
 13 12 12  1  0 30.0000000  0  7G02G25G15G12G24G29G14
 128056526.892 6  99784290.85044  24368346.980    24368344.680          41.250
        29.000
 111397301.446 8  86803112.41247  21198199.860    21198201.660          49.000
        42.000
 126249910.679 7  98376557.71946  24024560.640    24024560.620          42.750
        36.250
 107623407.937 8  83862513.01447  20480006.480    20480004.820          50.500
        45.250
 110758186.810 8  86305133.81747  21076575.900    21076577.860          49.500
        44.000
 118786380.901 7  92560823.32545  22604291.560    22604291.380          45.000
        34.000
 117439977.793 7  91511675.42345  22348084.140    22348082.880          46.000
        35.000
 13 12 12  1  1  0.0000000  0  7G02G25G15G12G24G29G14
 128001620.300 6  99741506.50145  24357898.620    24357896.140          41.750
        31.000
 111358368.100 8  86772774.74547  21190791.140    21190792.900          49.000
        42.000
 126357260.625 7  98460206.90545  24044988.760    24044988.880          42.250
        33.500
 107651271.830 8  83884225.13447  20485308.780    20485307.140          50.500
        45.000
 110797109.368 8  86335463.07247  21083982.620    21083984.620          49.500
        44.250
 118683169.813 7  92480399.12945  22584651.120    22584650.880          45.500
        33.500
 117371928.344 7  91458649.88745  22335134.720    22335133.540          45.750
        34.750
 13 12 12  1  1 30.0000000  0  7G02G25G15G12G24G29G14
 127946918.019 6  99698881.37045  24347489.260    24347486.520          41.000
        33.750
 111319720.808 8  86742659.98547  21183436.820    21183438.600          49.000
        42.000
 126464675.841 6  98543906.94045  24065429.180    24065429.540          41.500
        34.250
 107679407.064 8  83906148.68547  20490662.700    20490661.060          50.250
        45.250
 110836352.207 8  86366041.90047  21091450.300    21091452.320          49.500
        44.500
 118580192.734 7  92400157.31145  22565055.220    22565055.040          45.500
        34.750
 117304307.052 7  91405957.97646  22322266.740    22322265.680          46.000
        36.750
 13 12 12  1  2  0.0000000  0  7G02G25G15G12G24G29G14
 127892424.016 6  99656418.51245  24337119.440    24337116.820          40.750
        32.500
 111281360.463 8  86712768.81747  21176137.120    21176138.880          49.250
        42.500
 126572154.772 7  98627656.63545  24085881.680    24085882.420          42.500
        33.500
 107707813.645 8  83928283.68347  20496068.260    20496066.640          50.250
        45.000
 110875917.660 8  86396872.11147  21098979.360    21098981.420          49.500
        44.250
 118477453.007 7  92320100.40045  22545504.460    22545504.220          45.500
        35.500
 117237117.251 7  91353602.29145  22309480.860    22309479.960          45.750
        35.250
 13 12 12  1  2 30.0000000  0  7G02G25G15G12G24G29G14
 127838140.950 6  99614120.04845  24326789.600    24326787.420          40.750
        32.750
 111243286.570 8  86683100.85747  21168891.920    21168893.640          49.000
        42.500
 126679694.905 7  98711454.02745  24106345.880    24106346.880          42.750
        34.250
 107736489.309 8  83950628.35047  20501525.040    20501523.420          50.250
        44.750
 110915805.395 8  86427953.44447  21106569.740    21106571.840          49.500
        44.250
 118374953.154 7  92240230.42945  22525999.320    22525999.160          45.750
        34.750
 117170361.353 7  91301584.70646  22296777.560    22296776.760          45.750
        37.000
 13 12 12  1  3  0.0000000  0  7G02G25G15G12G24G29G14
 127784070.515 6  99571987.25845  24316500.200    24316498.140          41.000
        32.750
 111205498.035 8  86653655.25647  21161701.000    21161702.720          49.250
        42.250
 126787293.068 7  98795296.67645  24126821.160    24126822.220          43.500
        31.250
 107765432.723 8  83973181.65947  20507032.760    20507031.200          50.250
        44.500
 110956015.016 8  86459285.60447  21114221.400    21114223.460          49.500
        43.750
 118272695.235 7  92160548.96946  22506540.280    22506540.140          46.000
        36.250
 117104040.982 7  91249906.50546  22284157.200    22284156.460          45.750
        36.250
 13 12 12  1  3 30.0000000  0  7G02G25G15G12G24G29G14
 127730212.992 6  99530020.36945  24306251.420    24306249.200          41.750
        30.500
 111167992.025 8  86624429.80147  21154563.880    21154565.580          49.250
        42.500
 126894944.597 7  98879180.88845  24147306.660    24147307.700          42.750
        34.250
 107794639.261 8  83995940.00147  20512590.560    20512589.020          50.250
        44.750
 110996544.535 8  86490867.03547  21121933.940    21121935.980          49.500
        44.000
 118170679.484 7  92081056.21446  22487127.340    22487127.180          45.750
        36.750
 117038155.954 7  91198567.52046  22271619.720    22271618.960          46.000
        37.250
 13 12 12  1  4 30.0000000  0  7G02G25G15G12G24G29G14
 127623153.817 7  99446597.65845  24285878.840    24285876.500          42.750
        31.750
 111093833.290 8  86566643.78847  21140451.940    21140453.660          49.250
        42.500
 127110405.095 6  99047071.96044  24188307.560    24188308.340          41.750
        27.500
 107853844.898 8  84042074.24947  20523857.020    20523855.500          50.250
        45.000
 111078571.335 8  86554784.00847  21137543.160    21137545.140          49.500
        43.750
 117967392.249 7  91922650.66745  22448443.040    22448442.820          46.500
        35.250
 116907708.390 7  91096920.07446  22246796.500    22246795.620          46.250
        36.500
 13 12 12  1  5  0.0000000  0  7G02G25G15G12G24G29G14
 127569958.601 7  99405146.81245  24275756.140    24275753.780          42.000
        32.750
 111057180.939 8  86538083.52147  21133477.220    21133478.900          49.250
        42.250
 127218210.527 6  99131076.03345  24208822.360    24208823.000          40.500
        30.750
 107883842.401 8  84065448.92047  20529565.360    20529563.840          50.000
        44.500
 111120070.652 8  86587121.13447  21145440.260    21145442.180          49.500
        43.750
 117866127.059 7  91843742.75345  22429172.900    22429172.600          46.500
        35.750
 116843151.922 7  91046616.33246  22234511.920    22234510.960          46.500
        36.250
 13 12 12  1  5 30.0000000  0  7G02G25G15G12G24G29G14
 127516989.402 6  99363872.13045  24265676.280    24265674.000          41.750
        30.500
 111020812.412 8  86509744.40947  21126556.540    21126558.180          49.250
        42.500
 127326062.413 7  99215116.31045  24229345.960    24229346.540          42.250
        30.000
 107914100.406 8  84089026.59347  20535323.280    20535321.760          50.250
        44.750
 111161893.385 8  86619710.26947  21153398.860    21153400.780          49.500
        43.750
 117765117.368 7  91765033.93846  22409951.400    22409951.040          46.500
        37.250
 116779043.022 7  90996661.35546  22222312.500    22222311.480          46.750
        36.000
 13 12 12  1  6  0.0000000  0  7G02G25G15G12G24G29G14
 127464245.912 7  99322773.32744  24255639.540    24255637.320          42.250
        27.750
 110984724.457 8  86481623.93147  21119689.220    21119690.880          49.250
        42.750
 127433955.766 7  99299188.93244  24249877.500    24249877.940          42.000
        29.000
 107944615.430 8  84112804.53047  20541130.100    20541128.560          50.250
        44.750
 111204037.304 8  86652549.67147  21161418.580    21161420.480          49.250
        43.750
 117664363.041 7  91686524.09746  22390778.500    22390778.100          46.750
        36.500
 116715380.926 7  90947054.53046  22210198.120    22210196.960          46.750
        37.000
 13 12 12  1  6 30.0000000  0  7G02G25G15G12G24G29G14
 127411733.036 7  99281854.18845  24245646.840    24245644.400          42.250
        32.000
 110948918.958 8  86453723.55047  21112875.660    21112877.300          49.250
        42.500
 127541890.175 7  99383293.52945  24270416.820    24270417.340          42.750
        31.500
 107975387.854 8  84136783.04447  20546985.920    20546984.360          50.250
        44.750
 111246505.239 8  86685641.55547  21169499.960    21169501.860          49.250
        43.750
 117563868.914 7  91608217.00245  22371655.120    22371654.700          46.750
        35.750
 116652170.477 7  90897799.64445  22198169.600    22198168.360          46.500
        35.500
 13 12 12  1  7  0.0000000  0  7G02G25G15G12G24G29G14
 127359456.140 7  99241118.95945  24235698.900    24235696.380          42.250
        32.500
 110913398.576 8  86426045.32447  21106116.380    21106118.000          49.250
        42.500
 127649866.392 7  99467430.69045  24290964.140    24290964.780          43.250
        31.000
 108006419.243 8  84160963.35147  20552891.020    20552889.460          50.000
        44.750
 111289300.091 8  86718988.18047  21177643.540    21177645.480          49.250
        43.500
 117463640.316 7  91530116.83345  22352582.260    22352581.880          46.750
        35.750
 116589416.919 7  90848900.76646  22186227.920    22186226.740          46.500
        37.000
 13 12 12  1  7 30.0000000  0  7G02G25G15G12G24G29G14
 127307413.614 7  99200566.33945  24225795.540    24225793.080          42.750
        34.000
 110878158.471 8  86398585.51047  21099410.400    21099412.020          49.250
        42.250
 127757877.855 7  99551595.33945  24311518.100    24311518.940          42.250
        32.250
 108037703.599 8  84185340.76747  20558844.260    20558842.680          50.250
        45.000
 111332417.896 8  86752586.45647  21185848.600    21185850.560          49.250
        43.250
 117363675.839 7  91452222.44346  22333559.660    22333559.260          46.750
        38.500
 116527118.111 7  90800356.24246  22174372.800    22174371.640          46.500
        36.250
 13 12 12  1  8  0.0000000  0  7G02G25G15G12G24G29G14
 127255608.284 7  99160198.55044  24215937.340    24215934.920          42.500
        29.500
 110843198.617 8  86371344.08047  21092757.760    21092759.400          49.500
        42.500
 127865922.388 7  99635785.75345  24332078.340    24332079.460          42.500
        33.500
 108069240.404 8  84209914.89547  20564845.520    20564843.960          50.250
        44.750
 111375859.075 8  86786436.71747  21194115.200    21194117.160          49.250
        43.500
 117263978.436 7  91374536.19446  22314587.860    22314587.500          46.750
        37.000
 116465276.625 7  90752168.08045  22162604.700    22162603.620          46.500
        35.750
 13 12 12  1  8 30.0000000  0  7G02G25G15G12G24G29G14
 127204044.475 6  99120018.99945  24206125.000    24206122.600          41.250
        33.250
 110808520.459 8  86344322.14747  21086158.720    21086160.340          49.500
        42.250
 127973999.458 6  99720001.50645  24352644.880    24352646.120          41.750
        31.500
 108101030.357 8  84234686.28747  20570894.980    20570893.380          50.250
        44.750
 111419625.727 8  86820540.60047  21202443.680    21202445.680          49.000
        43.750
 117164552.350 7  91297061.34746  22295667.660    22295667.260          47.000
        37.500
 116403896.479 7  90704339.39446  22150924.380    22150923.320          46.500
        36.250
 13 12 12  1  9  0.0000000  0  7G02G25G15G12G24G29G14
 127152722.866 7  99080028.10945  24196358.760    24196356.460          42.000
        33.750
 110774121.664 8  86317517.89747  21079612.840    21079614.420          49.500
        42.250
 128082104.802 7  99804239.30445  24373216.800    24373218.160          42.500
        33.250
 108133069.817 8  84259652.09847  20576991.880    20576990.320          50.250
        44.500
 111463716.074 8  86854896.69847  21210833.740    21210835.800          49.000
        43.500
 117065398.307 7  91219798.50946  22276799.240    22276798.800          46.750
        38.000
 116342978.082 7  90656870.52246  22139331.960    22139330.960          46.500
        37.750
 13 12 12  1  9 30.0000000  0  7G02G25G15G12G24G29G14
 127101646.396 7  99040228.26844  24186639.300    24186636.760          42.250
        27.500
 110740002.225 8  86290931.33147  21073120.120    21073121.680          49.500
        42.250
 128190235.717 7  99888497.01445  24393793.600    24393795.080          42.750
        32.000
 108165357.383 8  84284811.23847  20583136.000    20583134.440          50.250
        44.750
 111508131.374 8  86889506.01447  21219285.680    21219287.740          49.000
        43.250
 116966519.197 7  91142749.87146  22257983.100    22257982.660          46.750
        38.000
 116282524.143 7  90609763.57345  22127827.920    22127826.960          46.500
        35.750
 13 12 12  1 10  0.0000000  0  7G02G25G15G12G24G29G14
 127050818.629 6  99000622.21645  24176967.120    24176964.600          41.750
        31.750
 110706162.542 8  86264562.75347  21066680.620    21066682.180          49.500
        42.500
 128298392.266 6  99972774.69545  24414375.240    24414376.740          41.500
        33.750
 108197892.577 8  84310163.33547  20589327.220    20589325.680          50.250
        44.500
 111552872.289 8  86924369.04647  21227799.600    21227801.680          49.000
        43.750
 116867918.725 7  91065918.37146  22239219.980    22239219.560          47.000
        38.000
 116222537.556 7  90563020.77046  22116412.780    22116411.840          46.250
        36.500
 13 12 12  1 10 30.0000000  0  7G02G25G15G12G24G29G14
 127000241.433 7  98961211.41145  24167342.560    24167339.940          42.500
        31.500
 110672601.815 8  86238411.53646  21060294.200    21060295.760          49.250
        41.750
 128406570.987 6 100057069.61845  24434961.080    24434962.520          41.000
        34.000
 108230675.004 8  84335708.07647  20595565.500    20595563.960          50.250
        45.000
 111597938.593 8  86959485.63247  21236375.420    21236377.540          49.000
        43.500
 116769598.919 7  90989305.56546  22220510.280    22220509.880          46.750
        38.000
 116163020.173 7  90516643.58646  22105086.960    22105085.960          46.500
        36.750
 13 12 12  1 11  0.0000000  0  7G02G25G15G12G24G29G14
 126949917.432 7  98921997.91845  24157766.200    24157763.580          42.250
        33.000
 110639319.710 8  86212477.43047  21053960.800    21053962.360          49.500
        42.500
 128514769.193 6 100141379.75545  24455550.640    24455551.940          40.750
        32.250
 108263702.487 8  84361443.77147  20601850.420    20601848.880          50.250
        44.500
 111643330.449 8  86994855.89547  21245013.220    21245015.360          49.000
        43.250
 116671562.328 7  90912913.44546  22201854.480    22201854.080          46.750
        38.250
 116103974.316 7  90470633.82546  22093850.920    22093849.880          46.500
        37.000
 13 12 12  1 11 30.0000000  0  7G02G25G15G12G24G29G14
 126899848.037 7  98882982.82645  24148238.380    24148235.680          42.250
        31.500
 110606314.456 8  86186759.06247  21047680.120    21047681.680          49.500
        42.500
 128622983.529 6 100225702.43844  24476143.200    24476144.220          40.500
        24.750
 108296972.151 8  84387368.18047  20608181.440    20608179.920          50.250
        44.500
 111689046.803 8  87030479.01647  21253712.780    21253714.920          49.250
        43.500
 116573810.515 7  90836743.22446  22183252.860    22183252.520          47.000
        37.000
 116045400.797 7  90424992.12646  22082704.800    22082703.740          46.750
        36.500
 13 12 12  1 12  0.0000000  0  7G02G25G15G12G24G29G14
 126850037.474 7  98844169.40845  24138759.760    24138757.220          42.500
        30.000
 110573587.569 8  86161257.60647  21041452.400    21041453.940          49.250
        42.500
 128731213.615 6 100310037.38945  24496738.720    24496739.760          40.500
        33.500
 108330484.384 8  84413481.59647  20614558.660    20614557.100          50.250
        44.750
 111735089.692 8  87066356.58447  21262474.500    21262476.600          49.250
        43.250
 116476347.842 7  90760798.31146  22164706.260    22164706.000          47.000
        37.500
 115987303.737 7  90379721.68746  22071649.360    22071648.300          46.750
        38.000
 13 12 12  1 12 30.0000000  0  7G02G25G15G12G24G29G14
 126800488.294 6  98805559.67645  24129330.820    24129328.380          41.500
        30.500
 110541138.752 8  86135972.82247  21035277.540    21035279.120          49.500
        42.500
 128839457.127 6 100394382.83045  24517336.780    24517337.780          41.000
        34.000
 108364238.644 8  84439783.60847  20620981.900    20620980.360          50.250
        44.500
 111781459.545 8  87102488.92247  21271298.440    21271300.480          49.250
        43.500
 116379176.716 7  90685080.57246  22146215.160    22146214.920          47.000
        38.500
 115929685.152 7  90334824.08346  22060684.960    22060683.840          46.750
        37.500
 13 12 12  1 13  0.0000000  0  7G02G25G15G12G24G29G14
 126751202.341 7  98767155.04645  24119951.940    24119949.640          42.250
        33.750
 110508966.655 8  86110903.67047  21029155.360    21029156.960          49.500
        42.250
 128947710.571 6 100478735.97144  24537936.740    24537937.760          40.500
        28.750
 108398232.018 8  84466271.94147  20627450.660    20627449.100          50.250
        44.500
 111828155.469 8  87138875.34747  21280184.380    21280186.400          49.000
        43.250
 116282298.965 7  90609591.43846  22127779.920    22127779.700          47.250
        37.750
 115872546.503 7  90290300.45446  22049811.800    22049810.780          46.750
        37.000
 13 12 12  1 13 30.0000000  0  7G02G25G15G12G24G29G14
 126702181.068 7  98728956.65545  24110623.480    24110621.140          42.000
        33.500
 110477069.941 8  86086049.09647  21023085.540    21023087.180          49.250
        42.250
 129055971.039 6 100563094.60945  24558538.000    24558539.220          40.500
        35.000
 108432463.040 8  84492945.45547  20633964.600    20633963.080          50.250
        44.500
 111875176.891 8  87175515.40347  21289132.260    21289134.300          49.000
        43.500
 116185716.119 7  90534332.08846  22109400.780    22109400.540          47.500
        38.500
 115815889.180 7  90246151.87245  22039030.200    22039029.320          46.750
        35.750
 13 12 12  1 14  0.0000000  0  7G02G25G15G12G24G29G14
 126653426.722 7  98690966.27145  24101345.820    24101343.620          42.500
        32.500
 110445447.891 8  86061408.53747  21017068.020    21017069.700          49.500
        42.250
 129164235.941 6 100647456.67845  24579140.240    24579141.420          40.750
        33.250
 108466929.331 8  84519802.29547  20640523.300    20640521.820          50.000
        44.750
 111922523.620 8  87212408.95847  21298142.020    21298144.100          49.000
        42.750
 116089431.008 7  90459304.75746  22091078.300    22091078.100          47.500
        37.500
 115759714.919 7  90202379.72546  22028340.520    22028339.760          46.500
        36.750
 13 12 12  1 14 30.0000000  0  7G02G25G15G12G24G29G14
 126604942.265 7  98653186.20445  24092119.620    24092117.280          42.750
        33.000
 110414100.243 8  86036981.80747  21011102.780    21011104.420          49.250
        42.750
 129272503.023 6 100731820.44945  24599742.980    24599744.280          41.000
        32.750
 108501630.293 8  84546841.99947  20647126.660    20647125.180          50.000
        44.500
 111970195.888 8  87249556.17047  21307213.760    21307215.840          49.000
        43.250
 115993445.722 7  90384511.04946  22072812.880    22072812.640          47.750
        38.000
 115704025.837 7  90158985.62446  22017743.100    22017742.480          46.500
        37.000
 13 12 12  1 15  0.0000000  0  7G02G25G15G12G24G29G14
 126556729.842 7  98615618.09145  24082945.220    24082942.700          42.250
        30.500
 110383026.843 8  86012768.76847  21005189.720    21005191.340          49.500
        42.250
 129380769.560 6 100816183.76345  24620345.720    24620347.160          41.000
        30.750
 108536564.250 8  84574063.26047  20653774.340    20653772.880          50.000
        44.500
 112018194.087 8  87286957.35447  21316347.560    21316349.600          49.250
        42.750
 115897762.964 7  90309953.06646  22054605.000    22054604.760          47.750
        37.500
 115648824.374 7  90115971.49846  22007238.480    22007237.960          46.250
        37.750
 13 12 12  1 15 30.0000000  0  7G02G25G15G12G24G29G14
 126508792.909 7  98578264.64345  24073823.160    24073820.580          42.000
        32.750
 110352228.055 8  85988769.71847  20999328.960    20999330.540          49.500
        42.500
 129489035.393 6 100900546.55644  24640948.300    24640949.840          40.750
        29.750
 108571731.449 8  84601466.26347  20660466.420    20660464.960          50.250
        44.000
 112066519.064 8  87324613.17247  21325543.540    21325545.520          49.000
        42.250
 115802386.401 7  90235633.69246  22036455.420    22036455.140          47.500
        38.250
 115594113.291 7  90073339.47746  21996827.300    21996826.760          46.750
        37.500
 13 12 12  1 16 30.0000000  0  7G02G25G15G12G24G29G14
 126413752.582 7  98504207.26145  24055737.540    24055735.000          42.750
        34.000
 110291449.665 8  85941409.93847  20987763.260    20987764.820          49.500
        42.750
 129705550.700 6 101069259.40145  24682150.120    24682151.740          40.500
        31.250
 108642757.103 8  84656810.91347  20673982.160    20673980.700          50.250
        44.500
 112164147.707 8  87400687.41947  21344121.680    21344123.600          49.000
        42.500
 115612558.891 7  90087716.18346  22000332.420    22000332.180          47.750
        38.750
 115486168.170 7  89989226.39246  21976286.180    21976285.380          47.250
        37.750
 13 12 12  1 17  0.0000000  0  7G02G25G15G12G24G29G14
 126366655.149 7  98467508.00245  24046775.080    24046772.600          42.750
        31.500
 110261470.097 8  85918049.23247  20982058.400    20982059.920          49.500
        43.000
 129813796.627 6 101153606.64945  24702748.820    24702750.320          39.250
        32.500
 108678613.765 8  84684751.16847  20680805.460    20680804.000          50.250
        44.250
 112213452.544 8  87439106.76847  21353504.120    21353505.980          49.000
        42.500
 115518114.014 7  90014122.78546  21982360.080    21982359.880          47.750
        39.250
 115432938.962 7  89947749.08546  21966157.200    21966156.100          47.500
        36.750
 13 12 12  1 17 30.0000000  0  7G02G25G15G12G24G29G14
 126319844.712 7  98431032.32245  24037867.240    24037864.740          42.500
        31.750
 110231765.171 8  85894902.54947  20976405.740    20976407.280          49.500
        42.500
 129922033.657 6 101237946.97744  24723345.700    24723347.300          39.250
        29.250
 108714699.820 8  84712870.16647  20687672.420    20687670.960          50.250
        44.500
 112263086.491 8  87477782.55847  21362949.160    21362951.000          49.000
        42.750
 115423987.293 7  89940777.30246  21964448.340    21964448.140          47.750
        39.000
 115380210.047 7  89906661.61846  21956123.380    21956122.080          47.500
        37.000
 13 12 12  1 18  0.0000000  0  7G02G25G15G12G24G29G14
 126273317.458 7  98394777.33645  24029013.360    24029011.000          43.000
        31.250
 110202327.755 8  85871964.31347  20970803.960    20970805.560          49.500
        43.000
 130030252.875 6 101322273.38945  24743939.340    24743940.840          40.000
        32.000
 108751007.370 8  84741161.75147  20694581.520    20694580.080          50.000
        44.250
 112313042.821 8  87516709.56347  21372455.560    21372457.400          49.250
        42.750
 115330174.271 8  89867676.26446  21946596.300    21946596.100          48.000
        39.750
 115327976.838 7  89865960.41946  21946183.880    21946182.460          47.500
        36.500
 13 12 12  1 18 30.0000000  0  7G02G25G15G12G24G29G14
 126227079.691 7  98358747.93145  24020214.680    24020212.360          42.750
        33.500
 110173161.578 8  85849237.42547  20965253.840    20965255.420          49.500
        42.750
 130138455.955 6 101406587.26645  24764530.080    24764531.180          41.250
        31.250
 108787539.594 8  84769628.40847  20701533.360    20701531.920          50.000
        44.250
 112363325.835 8  87555891.12447  21382024.100    21382025.980          49.000
        42.750
 115236681.551 7  89794824.80546  21928805.240    21928805.000          47.750
        39.250
 115276245.718 7  89825650.45946  21936339.840    21936338.380          47.500
        36.750
 13 12 12  1 19  0.0000000  0  7G02G25G15G12G24G29G14
 126181135.286 7  98322947.14245  24011471.760    24011469.520          42.250
        35.000
 110144267.598 8  85826722.64447  20959755.480    20959757.120          49.250
        42.500
 130246642.681 6 101490888.37245  24785117.700    24785118.740          41.500
        30.000
 108824296.381 8  84798270.05847  20708527.960    20708526.520          50.000
        44.250
 112413937.337 8  87595328.65847  21391655.160    21391657.040          49.000
        42.250
 115143513.112 8  89722226.03946  21911075.900    21911075.640          48.000
        39.000
 115225019.708 7  89785734.07946  21926591.860    21926590.440          47.500
        37.500
 13 12 12  1 19 30.0000000  0  7G02G25G15G12G24G29G14
 126135486.238 6  98287376.43245  24002784.960    24002782.720          41.500
        32.000
 110115645.073 8  85804419.37647  20954308.760    20954310.420          49.500
        43.000
 130354809.843 6 101575174.23545  24805701.460    24805702.720          41.000
        31.500
 108861276.378 8  84827085.63747  20715565.020    20715563.600          50.000
        44.000
 112464877.333 8  87635022.15547  21401348.740    21401350.560          49.000
        42.750
 115050671.302 8  89649881.79046  21893408.680    21893408.440          48.000
        39.250
 115174300.615 7  89746212.70246  21916940.300    21916938.940          47.500
        37.500
 13 12 12  1 20  0.0000000  0  7G02G25G15G12G24G29G14
 126090134.079 6  98252037.09645  23994154.580    23994152.340          41.500
        32.750
 110087292.633 8  85782326.57947  20948913.460    20948915.140          49.500
        43.250
 130462954.456 6 101659442.50045  24826280.860    24826282.360          40.750
        31.500
 108898477.389 8  84856073.42747  20722644.160    20722642.720          50.000
        44.000
 112516144.424 8  87674970.52547  21411104.540    21411106.360          49.000
        42.500
 114958157.509 8  89577793.13546  21875803.860    21875803.640          48.000
        39.500
 115124089.503 7  89707087.15046  21907385.400    21907384.080          47.250
        36.500
 13 12 12  1 20 30.0000000  0  7G02G25G15G12G24G29G14
 126045079.898 6  98216929.93445  23985580.900    23985578.760          41.500
        30.500
 110059208.344 8  85760442.72647  20943569.140    20943570.860          49.500
        43.250
 130571072.922 6 101743690.34844  24846855.340    24846857.000          40.750
        29.750
 108935896.694 8  84885231.32747  20729764.820    20729763.380          50.000
        44.250
 112567737.469 8  87715172.89047  21420922.400    21420924.220          49.000
        42.500
 114865972.573 8  89505960.73646  21858261.620    21858261.420          48.000
        39.750
 115074386.862 7  89668357.81546  21897927.200    21897925.960          47.250
        37.250
 13 12 12  1 21  0.0000000  0  7G02G25G15G12G24G29G14
 126000326.053 6  98182056.84345  23977064.400    23977062.320          41.750
        32.500
 110031391.983 8  85738767.65247  20938275.860    20938277.560          49.500
        43.000
 130679163.013 6 101827916.12144  24867424.380    24867426.100          41.000
        29.750
 108973532.496 8  84914557.92847  20736926.660    20736925.260          50.000
        44.250
 112619656.523 8  87755629.28347  21430802.280    21430804.100          49.000
        42.750
 114774119.351 8  89434386.82346  21840782.500    21840782.280          48.000
        39.500
 115025194.735 7  89630026.27846  21888566.200    21888565.000          47.500
        38.750
 13 12 12  1 21 30.0000000  0  7G02G25G15G12G24G29G14
 125955873.653 7  98147418.59445  23968605.520    23968603.160          42.250
        31.500
 110003841.618 8  85717299.84047  20933033.180    20933034.880          49.250
        42.750
 130787220.862 6 101912116.77844  24887987.300    24887988.920          41.750
        29.500
 109011383.313 8  84944052.06947  20744129.420    20744128.020          50.000
        43.750
 112671899.952 8  87796338.43947  21440743.860    21440745.720          49.000
        42.500
 114682598.689 8  89363072.02346  21823366.680    21823366.440          48.000
        39.750
 114976513.495 7  89592092.83146  21879302.460    21879301.300          47.500
        37.750
 13 12 12  1 22  0.0000000  0  6G02G25G12G24G29G14
 125911717.666 7  98113011.34444  23960203.060    23960200.600          42.000
        28.250
 109976549.269 8  85696033.08047  20927839.600    20927841.280          49.750
        43.250
 109049439.670 8  84973706.37047  20751371.280    20751369.940          50.000
        44.000
 112724460.480 8  87837294.68247  21450745.800    21450747.680          49.000
        42.250
 114591405.848 8  89292012.68946  21806013.280    21806013.000          48.250
        40.000
 114928337.482 7  89554553.07946  21870134.900    21870133.760          47.500
        38.000
 13 12 12  1 22 30.0000000  0  6G02G25G12G24G29G14
 125867885.717 6  98078856.60145  23951862.180    23951859.780          41.250
        31.750
 109949539.918 8  85674986.83447  20922699.940    20922701.560          49.750
        43.000
 109087726.435 8  85003540.21047  20758657.040    20758655.680          50.000
        43.750
 112777363.818 8  87878518.04447  21460812.980    21460814.880          48.750
        42.500
 114500568.443 8  89221230.30446  21788727.540    21788727.220          48.250
        39.750
 114880694.027 7  89517428.30146  21861068.680    21861067.560          47.750
        37.750
 13 12 12  1 23  0.0000000  0  6G02G25G12G24G29G14
 125824357.578 7  98044938.58945  23943579.120    23943576.680          42.000
        32.750
 109922790.779 8  85654143.36147  20917609.740    20917611.400          49.750
        43.000
 109126219.346 8  85033534.68247  20765981.980    20765980.640          50.000
        44.000
 112830587.259 8  87919990.83947  21470941.040    21470942.980          48.750
        42.250
 114410066.566 8  89150709.37346  21771505.620    21771505.300          48.500
        40.500
 114833562.772 7  89480702.64446  21852099.940    21852098.860          47.500
        38.000
 13 12 12  1 23 30.0000000  0  6G02G25G12G24G29G14
 125781143.787 7  98011265.49945  23935355.840    23935353.300          42.500
        30.750
 109896309.191 8  85633508.35447  20912570.520    20912572.100          49.750
        43.000
 109164925.205 8  85063695.09047  20773347.460    20773346.120          50.000
        43.750
 112884139.018 8  87961719.46847  21481131.580    21481133.580          48.500
        42.250
 114319910.376 8  89080457.81346  21754349.500    21754349.140          48.500
        40.750
 114786953.372 7  89444383.62846  21843230.480    21843229.440          47.750
        38.500
 13 12 12  1 24  0.0000000  0  6G02G25G12G24G29G14
 125738245.401 6  97977838.22245  23927192.400    23927189.720          40.750
        31.250
 109870093.569 8  85613080.60147  20907581.900    20907583.440          49.750
        43.000
 109203841.980 8  85094019.85147  20780753.040    20780751.720          50.000
        43.750
 112938017.780 8  88003702.90747  21491384.340    21491386.440          48.500
        42.500
 114230101.229 8  89010476.67046  21737259.400    21737259.020          48.250
        40.000
 114740866.356 7  89408471.65846  21834460.440    21834459.400          47.750
        37.750
 13 12 12  1 24 30.0000000  0  6G02G25G12G24G29G14
 125695662.495 6  97944656.72545  23919089.120    23919086.260          41.750
        32.000
 109844141.201 8  85592857.99347  20902643.340    20902644.860          50.000
        43.000
 109242965.503 8  85124505.71447  20788198.000    20788196.660          50.000
        43.750
 112992220.941 8  88045939.11347  21501698.820    21501700.960          48.500
        42.500
 114140639.095 8  88940765.92846  21720235.280    21720234.920          48.250
        40.250
 114695301.242 7  89372966.37646  21825789.700    21825788.680          47.500
        38.000
 13 12 12  1 25  0.0000000  0  6G02G25G12G24G29G14
 125653397.233 7  97911722.77045  23911046.400    23911043.460          42.000
        31.500
 109818451.516 8  85572840.06247  20897754.760    20897756.240          49.750
        43.250
 109282294.751 8  85155151.88347  20795682.120    20795680.720          50.000
        43.500
 113046748.763 8  88088428.32546  21512075.120    21512077.220          48.500
        41.500
 114051526.361 8  88871327.45046  21703277.620    21703277.280          48.250
        40.000
 114650259.702 7  89337869.07046  21817218.560    21817217.560          47.500
        39.000
 13 12 12  1 25 30.0000000  0  6G02G25G12G24G29G14
 125611455.851 6  97879041.18345  23903065.240    23903062.220          41.750
        31.250
 109793027.844 8  85553029.41547  20892916.780    20892918.280          49.750
        43.250
 109321832.637 8  85185960.62347  20803205.940    20803204.540          50.000
        43.750
 113101605.306 8  88131173.67146  21522513.960    21522516.100          48.250
        41.500
 113962769.246 8  88802166.07846  21686387.640    21686387.360          48.250
        40.500
 114605747.213 7  89303184.00846  21808748.060    21808747.080          47.500
        38.500
 13 12 12  1 26  0.0000000  0  6G02G25G12G24G29G14
 125569839.455 7  97846612.85045  23895145.900    23895142.980          42.250
        32.500
 109767868.838 8  85533424.99747  20888129.200    20888130.660          50.000
        43.000
 109361577.258 8  85216930.46247  20810769.120    20810767.680          50.000
        43.500
 113156788.990 8  88174173.93446  21533015.060    21533017.220          48.250
        41.750
 113874369.133 8  88733282.88846  21669565.600    21669565.340          48.250
        41.000
 114561764.805 7  89268911.99346  21800378.440    21800377.480          47.500
        37.750
 13 12 12  1 26 30.0000000  0  6G02G25G12G24G29G14
 125528548.147 7  97814437.81644  23887288.420    23887285.520          42.500
        29.500
 109742971.757 8  85514024.67247  20883391.440    20883392.920          49.750
        43.250
 109401524.758 8  85248058.37847  20818370.880    20818369.420          50.000
        43.500
 113212297.614 8  88217427.39746  21543578.000    21543580.140          48.250
        41.500
 113786326.322 8  88664678.11646  21652811.580    21652811.340          48.250
        41.000
 114518311.931 7  89235052.60746  21792109.540    21792108.660          47.500
        38.500
 13 12 12  1 27  0.0000000  0  6G02G25G12G24G29G14
 125487582.143 7  97782516.24545  23879492.960    23879490.060          42.250
        34.750
 109718333.700 8  85494826.18847  20878702.980    20878704.460          50.000
        43.000
 109441671.550 8  85279341.59547  20826010.620    20826009.120          50.250
        43.750
 113268128.819 8  88260932.21847  21554202.320    21554204.420          48.250
        42.000
 113698640.471 8  88596351.49446  21636125.540    21636125.240          48.500
        40.750
 114475387.816 7  89201605.24446  21783941.340    21783940.480          47.500
        38.500
 13 12 12  1 27 30.0000000  0  6G02G25G12G24G29G14
 125446946.966 7  97750852.48845  23871760.480    23871757.560          42.750
        32.500
 109693957.865 8  85475832.03147  20874064.400    20874065.900          49.750
        43.250
 109482020.325 8  85310782.19447  20833688.800    20833687.240          50.000
        43.750
 113324286.004 8  88304691.05347  21564888.700    21564890.780          48.000
        42.000
 113611317.481 8  88528307.61446  21619508.580    21619508.260          48.500
        41.000
 114432997.854 7  89168574.10546  21775874.840    21775873.940          47.750
        37.750
 13 12 12  1 28  0.0000000  0  6G02G25G12G24G29G14
 125406646.141 6  97719449.27445  23864091.480    23864088.620          41.750
        32.500
 109669845.209 8  85457042.95247  20869475.860    20869477.440          49.750
        43.500
 109522571.163 8  85342380.24647  20841405.400    20841403.800          50.000
        43.750
 113380770.854 8  88348705.21446  21575637.420    21575639.500          48.250
        41.750
 113524361.401 8  88460549.64146  21602961.400    21602961.080          48.500
        41.250
 114391145.036 7  89135961.51346  21767910.560    21767909.640          47.750
        38.000
 13 12 12  1 29  0.0000000  0  6G02G25G12G24G29G14
 125327051.159 7  97657427.20845  23848945.020    23848942.220          42.750
        32.500
 109622400.749 8  85420073.25847  20860447.440    20860449.100          49.750
        43.500
 109604267.356 8  85406039.62147  20856951.700    20856950.120          50.000
        43.500
 113494716.069 8  88437493.67046  21597320.480    21597322.600          48.000
        41.750
 113351551.927 8  88325892.93346  21570076.860    21570076.540          48.500
        41.750
 114309050.362 7  89071991.63046  21752288.540    21752287.460          47.750
        38.750
 13 12 12  1 29 30.0000000  0  6G02G25G12G24G29G14
 125287761.411 7  97626811.83445  23841468.420    23841465.500          43.000
        30.750
 109599068.307 8  85401892.14547  20856007.420    20856009.060          50.000
        43.500
 109645410.928 8  85438099.53947  20864781.080    20864779.460          50.250
        43.750
 113552176.492 8  88482268.01646  21608254.880    21608257.040          48.250
        41.000
 113265703.292 8  88258997.90946  21553740.380    21553740.100          48.500
        41.250
 114268812.201 7  89040637.21246  21744631.480    21744630.360          47.750
        38.500
 13 12 12  1 30  0.0000000  0  6G02G25G12G24G29G14
 125248812.228 7  97596461.80145  23834056.640    23834053.520          43.500
        33.250
 109575993.975 8  85383912.15147  20851616.540    20851618.140          49.750
        43.500
 109686748.703 8  85470310.79247  20872647.420    20872645.800          50.000
        43.750
 113609960.637 8  88527294.61246  21619250.860    21619253.060          48.250
        41.750
 113180227.544 8  88192393.43646  21537474.900    21537474.600          48.750
        41.500
 114229114.399 7  89009703.86246  21737077.220    21737076.120          47.750
        38.000
 13 12 12  1 30 30.0000000  0  6G02G25G12G24G29G14
 125210206.756 7  97566379.62845  23826710.300    23826707.120          43.000
        32.750
 109553178.521 8  85366133.87847  20847274.900    20847276.500          49.750
        43.750
 109728281.248 8  85502673.80847  20880550.840    20880549.180          50.250
        43.500
 113668069.663 8  88572574.36846  21630308.680    21630310.880          48.500
        41.250
 113095127.949 8  88126082.08246  21521280.980    21521280.660          48.750
        41.000
 114189959.939 7  88979193.89346  21729626.360    21729625.280          47.750
        38.250
 13 12 12  1 31  0.0000000  0  6G02G25G12G24G29G14
 125171948.148 7  97536567.73645  23819429.840    23819426.900          42.500
        34.500
 109530622.356 8  85348557.65147  20842982.620    20842984.180          50.000
        43.250
 109770007.971 8  85535188.14447  20888491.180    20888489.500          50.000
        43.500
 113726504.753 8  88618108.19346  21641428.540    21641430.720          48.250
        41.750
 113010407.875 8  88060066.46046  21505159.300    21505158.980          48.750
        41.750
 114151350.949 7  88949108.95846  21722279.300    21722278.240          47.750
        38.250
 13 12 12  1 31 30.0000000  0  6G02G25G12G24G29G14
 125134036.783 7  97507026.43145  23812215.440    23812212.680          43.000
        33.250
 109508323.357 8  85331181.81847  20838739.240    20838740.820          49.750
        43.250
 109811925.839 8  85567851.41447  20896467.880    20896466.240          50.000
        43.500
 113785263.888 8  88663894.52946  21652610.060    21652612.220          48.250
        41.750
 112926067.604 8  87994346.77746  21489109.900    21489109.560          49.000
        41.250
 114113287.503 7  88919449.12546  21715036.060    21715034.980          47.750
        38.000
 13 12 12  1 32  0.0000000  0  6G02G25G12G24G29G14
 125096472.547 7  97477755.59345  23805067.200    23805064.540          42.750
        34.000
 109486278.588 8  85314004.07447  20834544.240    20834545.840          49.750
        43.500
 109854031.551 8  85600661.06147  20904480.340    20904478.720          50.000
        43.750
 113844344.099 8  88709931.05246  21663852.700    21663854.780          48.250
        41.500
 112842107.177 8  87928923.08046  21473132.720    21473132.440          48.750
        41.750
 114075768.796 7  88890213.76346  21707896.520    21707895.420          47.750
        38.250
 13 12 12  1 32 30.0000000  0  6G02G25G12G24G29G14
 125059262.268 7  97448760.57545  23797986.280    23797983.580          42.750
        33.250
 109464492.267 8  85297027.72447  20830398.420    20830400.020          49.750
        43.250
 109896328.927 8  85633620.04747  20912529.260    20912527.640          50.000
        43.750
 113903750.602 8  88756221.83347  21675157.420    21675159.440          48.000
        42.250
 112758533.670 8  87863800.88146  21457229.200    21457228.880          49.000
        41.250
 114038801.096 7  88861407.75946  21700861.820    21700860.720          47.750
        38.000
 13 12 12  1 33  0.0000000  0  6G02G25G12G24G29G14
 125022404.603 7  97420040.30645  23790972.420    23790969.600          43.000
        31.500
 109442960.387 8  85280249.63647  20826301.020    20826302.620          49.750
        43.500
 109938812.840 8  85666724.39147  20920613.680    20920612.040          50.000
        43.500
 113963479.080 8  88802763.49446  21686523.360    21686525.400          48.000
        41.250
 112675345.416 8  87798978.86946  21441398.960    21441398.640          49.000
        41.500
 114002381.895 7  88833029.15346  21693931.460    21693930.420          47.750
        37.750
 13 12 12  1 33 30.0000000  0  6G02G25G12G24G29G14
 124985903.584 7  97391597.99045  23784026.440    23784023.600          42.500
        31.250
 109421684.609 8  85263671.11847  20822252.360    20822253.980          49.750
        43.500
 109981484.391 8  85699974.95047  20928733.780    20928732.180          50.000
        43.500
 114023531.557 8  88849557.62646  21697950.980    21697953.040          48.250
        41.750
 112592546.932 8  87734460.58046  21425642.920    21425642.600          49.250
        41.500
 113966514.714 7  88805080.70046  21687106.160    21687105.140          47.750
        39.000
 13 12 12  1 34  0.0000000  0  6G02G25G12G24G29G14
 124949760.385 7  97363434.46745  23777148.500    23777145.720          42.250
        31.750
 109400663.474 8  85247291.01647  20818252.160    20818253.780          49.750
        43.750
 110024342.127 8  85733370.57047  20936889.340    20936887.720          50.000
        43.000
 114083906.676 8  88896603.16946  21709439.980    21709442.080          48.250
        41.500
 112510139.258 8  87670246.81446  21409961.260    21409960.880          49.250
        41.500
 113931200.245 8  88777562.92646  21680386.040    21680384.960          48.000
        37.500
 13 12 12  1 34 30.0000000  0  6G02G25G12G24G29G14
 124913974.889 7  97335549.68345  23770338.720    23770335.960          42.750
        32.750
 109379894.100 8  85231107.09747  20814299.860    20814301.500          49.750
        43.750
 110067382.007 8  85766908.13747  20945079.520    20945077.920          49.750
        43.500
 114144602.603 8  88943898.68646  21720990.000    21720992.120          48.000
        41.500
 112428122.172 8  87606337.40347  21394353.940    21394353.500          49.250
        42.000
 113896437.552 8  88750475.10346  21673770.920    21673769.860          48.000
        37.250
 13 12 12  1 35  0.0000000  0  6G02G25G12G24G29G14
 124878552.469 7  97307947.77544  23763598.040    23763595.300          42.250
        29.750
 109359379.408 8  85215121.62547  20810396.000    20810397.660          49.750
        43.500
 110110606.306 8  85800589.40347  20953304.820    20953303.240          50.000
        43.250
 114205622.094 8  88991446.33346  21732601.640    21732603.740          48.000
        41.750
 112346501.132 8  87542736.59646  21378822.000    21378821.500          49.500
        41.750
 113862231.179 8  88723820.78646  21667261.700    21667260.660          48.000
        39.000
 13 12 12  1 35 30.0000000  0  6G02G25G12G24G29G14
 124843495.102 7  97280630.38344  23756926.820    23756924.180          42.500
        29.750
 109339118.842 8  85199334.17547  20806540.520    20806542.140          49.750
        43.000
 110154014.425 8  85834413.90547  20961565.120    20961563.520          50.000
        43.000
 114266964.670 8  89039245.73546  21744274.740    21744276.860          48.000
        41.750
 112265278.655 8  87479446.36347  21363365.880    21363365.380          49.500
        42.000
 113828582.488 8  88697601.02746  21660858.600    21660857.520          48.000
        37.750
 13 12 12  1 36  0.0000000  0  6G02G25G12G24G29G14
 124808801.358 7  97253596.32245  23750324.860    23750322.120          42.750
        30.750
 109319108.395 8  85183741.61747  20802732.640    20802734.260          49.750
        43.250
 110197601.390 8  85868377.77647  20969859.420    20969857.820          50.000
        42.750
 114328626.891 8  89087294.21446  21756008.640    21756010.820          48.000
        41.500
 112184453.009 8  87416465.35047  21347985.260    21347984.800          49.250
        42.250
 113795489.572 8  88671814.34546  21654561.260    21654560.120          48.000
        38.500
 13 12 12  1 36 30.0000000  0  6G02G25G12G24G29G14
 124774476.699 7  97226849.83045  23743793.120    23743790.360          43.000
        32.500
 109299351.077 8  85168346.30447  20798972.920    20798974.580          49.750
        43.250
 110241369.195 8  85902482.55147  20978188.160    20978186.540          50.000
        42.750
 114390611.550 7  89135593.94546  21767803.920    21767806.120          47.750
        41.250
 112104029.699 8  87353797.84247  21332681.180    21332680.780          49.250
        42.000
 113762956.759 8  88646464.09346  21648370.540    21648369.340          48.250
        39.000
 13 12 12  1 37  0.0000000  0  6G02G25G12G24G29G14
 124740521.101 7  97200390.91045  23737331.560    23737328.620          43.500
        30.250
 109279843.842 8  85153145.85147  20795260.840    20795262.460          49.750
        43.750
 110285314.761 8  85936725.84747  20986550.720    20986549.080          50.000
        43.000
 114452915.963 7  89184142.82846  21779660.040    21779662.280          47.750
        41.500
 112024008.563 8  87291443.72447  21317453.620    21317453.300          49.250
        42.500
 113730983.073 8  88621549.53546  21642286.180    21642284.960          48.000
        38.250
 13 12 12  1 37 30.0000000  0  6G02G25G12G24G29G14
 124706939.645 7  97174223.52545  23730941.220    23730938.060          44.000
        30.250
 109260589.917 8  85138142.79547  20791596.940    20791598.580          49.750
        43.500
 110329440.826 8  85971109.78147  20994947.620    20994946.000          50.000
        42.500
 114515543.486 7  89232943.49146  21791577.680    21791579.880          47.750
        41.000
 111944395.230 8  87229407.36947  21302303.660    21302303.360          49.500
        42.000
 113699573.345 8  88597074.42046  21636309.080    21636307.920          48.000
        39.500
 13 12 12  1 38  0.0000000  0  6G02G25G12G24G29G14
 124673728.528 7  97148344.75345  23724621.420    23724618.120          44.250
        31.750
 109241582.835 8  85123332.08547  20787980.020    20787981.680          49.750
        43.500
 110373740.034 8  86005628.64347  21003377.480    21003375.860          50.000
        43.000
 114578488.351 7  89281991.43446  21803555.680    21803557.860          47.500
        40.500
 111865185.639 8  87167685.62646  21287230.560    21287230.240          49.250
        41.750
 113668722.845 8  88573035.07646  21630438.440    21630437.280          48.250
        39.250
 13 12 12  1 38 30.0000000  0  6G02G25G12G24G29G14
 124640892.199 7  97122757.99845  23718373.020    23718369.680          44.250
        32.750
 109222824.358 8  85108715.08247  20784410.440    20784412.040          50.000
        43.500
 110418213.790 8  86040283.50847  21011840.540    21011838.920          49.750
        43.000
 114641751.779 7  89331287.60546  21815594.280    21815596.480          47.500
        40.750
 111786384.383 8  87106282.06647  21272235.160    21272234.840          49.500
        42.750
 113638435.270 8  88549434.36946  21624674.920    21624673.740          48.250
        39.000
 13 12 12  1 39  0.0000000  0  6G02G25G12G24G29G14
 124608433.690 7  97097465.65145  23712196.540    23712193.100          44.000
        33.500
 109204315.303 8  85094292.45047  20780888.320    20780889.920          49.750
        43.500
 110462862.327 8  86075074.57747  21020336.860    21020335.240          50.000
        42.750
 114705335.340 7  89380833.22746  21827693.780    21827696.020          47.250
        41.250
 111707994.824 8  87045199.30847  21257318.120    21257317.760          49.500
        42.750
 113608712.881 8  88526274.05846  21619018.940    21619017.800          48.000
        39.250
 13 12 12  1 39 30.0000000  0  6G02G25G12G24G29G14
 124576355.682 7  97072469.81445  23706092.440    23706088.900          44.250
        32.500
 109186055.939 8  85080064.37047  20777413.720    20777415.300          50.000
        43.250
 110507684.826 8  86110001.19247  21028866.300    21028864.700          50.000
        42.750
 114769239.409 7  89430628.60246  21839854.300    21839856.560          47.500
        40.750
 111630019.735 8  86984439.51147  21242479.940    21242479.600          49.500
        42.250
 113579557.448 8  88503555.53346  21613470.820    21613469.740          48.000
        38.750
 13 12 12  1 40  0.0000000  0  6G02G25G12G24G29G14
 124544659.964 7  97047771.87545  23700061.120    23700057.520          44.500
        34.250
 109168045.498 8  85066030.25647  20773986.460    20773988.040          49.750
        43.500
 110552680.784 8  86145062.97947  21037428.720    21037427.160          50.000
        42.750
 114833462.937 7  89480672.89946  21852075.640    21852077.920          47.500
        41.000
 111552460.677 8  86924003.89347  21227720.940    21227720.600          49.500
        42.500
 113550969.889 8  88481279.51746  21608030.720    21608029.760          48.000
        39.000
 13 12 12  1 41  0.0000000  0  6G02G25G12G24G29G14
 124482423.623 7  96999276.02745  23688217.920    23688214.480          44.250
        34.250
 109132770.492 8  85038543.25047  20767273.840    20767275.440          49.750
        43.500
 110643189.557 8  86215589.27847  21054651.980    21054650.420          49.750
        42.000
 114962869.339 7  89581509.05246  21876700.920    21876703.180          47.500
        41.250
 111398599.374 8  86804111.98347  21198442.080    21198441.780          49.500
        42.750
 113495504.624 7  88438059.82446  21597475.960    21597475.120          47.750
        39.750
 13 12 12  1 41 30.0000000  0  6G02G25G12G24G29G14
 124451885.448 7  96975480.04845  23682406.600    23682403.160          44.500
        33.750
 109115503.656 8  85025088.58047  20763988.060    20763989.680          49.750
        44.000
 110688698.354 8  86251050.66547  21063312.000    21063310.460          49.750
        42.750
 115028049.885 7  89632299.08246  21889104.380    21889106.600          47.500
        40.500
 111322300.245 8  86744658.12647  21183922.860    21183922.540          49.750
        42.750
 113468627.472 7  88417116.58746  21592361.380    21592360.620          47.750
        39.250
 13 12 12  1 42  0.0000000  0  6G02G25G12G24G29G14
 124421733.788 7  96951985.25545  23676668.920    23676665.360          44.500
        33.750
 109098480.303 8  85011823.62147  20760748.600    20760750.260          49.750
        44.000
 110734373.033 8  86286641.32247  21072003.600    21072002.060          49.750
        42.750
 115093545.810 7  89683334.86146  21901567.900    21901570.020          47.500
        40.750
 111246421.750 8  86685532.03147  21169483.680    21169483.320          49.750
        42.750
 113442319.458 8  88396616.83446  21587355.120    21587354.400          48.000
        39.500
 13 12 12  1 42 30.0000000  0  6G02G25G12G24G29G14
 124391972.452 7  96928794.59745  23671005.540    23671002.080          44.250
        33.250
 109081701.639 8  84998749.33547  20757555.700    20757557.380          49.750
        44.000
 110780214.626 8  86322362.04047  21080726.960    21080725.460          49.750
        42.500
 115159357.535 7  89734616.72546  21914091.480    21914093.560          47.500
        40.250
 111170967.310 8  86626736.36547  21155125.180    21155124.820          49.750
        43.000
 113416582.909 8  88376562.37446  21582457.620    21582456.920          48.000
        38.750
 13 12 12  1 43  0.0000000  0  6G02G25G12G24G29G14
 124362604.862 7  96905910.77346  23665417.080    23665413.760          44.000
        36.000
 109065169.279 8  84985866.97747  20754409.680    20754411.380          49.750
        44.000
 110826223.460 8  86358213.07947  21089482.140    21089480.660          49.750
        42.500
 115225487.393 7  89786146.48246  21926675.620    21926677.660          47.500
        40.000
 111095941.053 8  86568274.35747  21140848.140    21140847.760          49.500
        42.750
 113391420.793 8  88356955.52646  21577669.420    21577668.660          48.000
        39.000
 13 12 12  1 43 30.0000000  0  6G02G25G12G24G29G14
 124333630.851 7  96883333.62245  23659903.500    23659900.340          44.000
        33.000
 109048880.642 8  84973174.52947  20751310.040    20751311.740          49.750
        43.250
 110872396.140 8  86394191.78747  21098268.480    21098267.040          49.750
        42.000
 115291932.492 7  89837921.88246  21939319.680    21939321.740          47.500
        40.500
 111021342.837 8  86510145.88347  21126652.560    21126652.160          49.750
        43.000
 113366832.075 8  88337795.47946  21572990.340    21572989.520          48.000
        39.250
 13 12 12  1 44  0.0000000  0  6G02G25G12G24G29G14
 124305052.160 7  96861064.51445  23654465.160    23654461.980          44.250
        34.750
 109032835.054 8  84960671.47347  20748256.660    20748258.340          49.750
        43.750
 110918732.408 8  86430297.97247  21107085.980    21107084.580          49.500
        42.750
 115358692.374 7  89889942.56346  21952023.680    21952025.700          47.500
        40.250
 110947174.394 8  86452352.29747  21112538.760    21112538.340          49.750
        42.750
 113342817.892 8  88319083.12746  21568420.640    21568419.720          48.250
        39.750
 13 12 12  1 44 30.0000000  0  6G02G25G12G24G29G14
 124276871.544 7  96839105.61145  23649102.480    23649099.540          44.000
        34.750
 109017032.994 8  84948358.17947  20745249.580    20745251.300          49.750
        43.500
 110965231.605 8  86466531.11047  21115934.440    21115933.100          49.500
        42.250
 115425767.949 7  89942209.23246  21964787.740    21964789.780          47.250
        40.000
 110873438.440 8  86394895.71847  21098507.280    21098506.860          49.750
        43.000
 113319379.803 8  88300819.67746  21563960.620    21563959.600          48.500
        38.750
 13 12 12  1 45  0.0000000  0  7G31G02G25G12G24G29G14
 129376295.877 6 100812692.95344  24619491.340    24619490.940          39.750
        28.750
 124249095.295 7  96817461.79245  23643816.640    23643813.980          43.750
        32.500
 109001478.486 8  84936237.78347  20742289.620    20742291.320          49.750
        44.000
 111011897.302 8  86502894.00047  21124814.580    21124813.320          49.500
        42.250
 115493162.680 7  89994724.60846  21977612.500    21977614.580          47.250
        39.500
 110800141.397 8  86337781.14347  21084559.320    21084558.880          49.750
        43.000
 113296523.171 8  88283009.30946  21559611.180    21559610.060          48.250
        39.000
 13 12 12  1 45 30.0000000  0  7G31G02G25G12G24G29G14
 129284960.744 6 100741522.70744  24602110.700    24602109.360          39.750
        27.500
 124221730.572 7  96796138.64445  23638609.180    23638606.440          43.750
        31.750
 108986176.779 8  84924314.37947  20739377.780    20739379.480          49.750
        43.750
 111058735.000 8  86539390.89947  21133727.440    21133726.220          49.500
        42.500
 115560882.241 7  90047493.08946  21990499.100    21990501.220          47.500
        39.250
 110727290.998 8  86281014.60647  21070696.340    21070695.920          49.750
        43.500
 113274255.027 8  88265657.50846  21555373.700    21555372.500          48.250
        39.250
 13 12 12  1 46  0.0000000  0  7G31G02G25G12G24G29G14
 129193585.288 6 100670321.07045  24584722.180    24584720.840          40.000
        30.000
 124194752.487 7  96775116.74945  23633475.280    23633472.540          43.500
        32.750
 108971100.361 8  84912566.51747  20736508.800    20736510.500          49.750
        43.250
 111105716.504 8  86575999.85947  21142667.680    21142666.500          49.500
        42.250
 115628898.833 7  90100493.02446  22003442.240    22003444.320          47.500
        40.000
 110654862.008 8  86224576.44547  21056913.560    21056913.160          49.750
        43.750
 113252548.829 8  88248743.58646  21551243.120    21551241.920          48.250
        39.250
 13 12 12  1 46 30.0000000  0  7G31G02G25G12G24G29G14
 129102188.655 6 100599102.91444  24567329.680    24567328.540          39.750
        25.000
 124168180.791 7  96754411.55245  23628418.780    23628416.160          44.250
        33.250
 108956266.701 8  84901007.82547  20733686.040    20733687.700          49.750
        43.500
 111152858.182 8  86612733.63247  21151638.400    21151637.260          49.250
        42.250
 115697230.356 7  90153738.35846  22016445.340    22016447.380          47.500
        38.750
 110582873.832 8  86168481.77447  21043214.640    21043214.260          49.750
        43.500
 113231423.290 8  88232282.12646  21547223.000    21547221.840          48.000
        39.000
 13 12 12  1 47  0.0000000  0  7G31G02G25G12G24G29G14
 129010770.579 6 100527868.09145  24549933.240    24549932.500          39.000
        32.250
 124142015.888 7  96734023.32945  23623439.740    23623437.300          44.500
        33.500
 108941674.067 8  84889636.95447  20730909.180    20730910.800          50.000
        43.250
 111200158.281 8  86649590.84547  21160639.280    21160638.180          49.250
        42.250
 115765874.921 7  90207227.63046  22029507.980    22029509.980          47.500
        40.000
 110511327.393 8  86112731.31547  21029599.800    21029599.420          49.500
        43.000
 113210877.961 8  88216272.77146  21543313.320    21543312.220          48.000
        39.250
 13 12 12  1 47 30.0000000  0  7G31G02G25G12G24G29G14
 128919331.151 6 100456616.58945  24532532.840    24532532.400          38.000
        31.750
 124116257.998 7  96713952.23945  23618538.280    23618535.680          43.750
        32.000
 108927320.521 8  84878452.37647  20728177.820    20728179.420          49.750
        43.500
 111247614.236 8  86686569.50847  21169669.820    21169668.740          49.500
        42.000
 115834830.328 7  90260959.11346  22042629.760    22042631.720          47.250
        39.250
 110440223.095 8  86057325.38347  21016069.080    21016068.720          49.750
        43.250
 113190912.513 8  88200715.26746  21539513.980    21539513.040          48.000
        40.000
 13 12 12  1 48  0.0000000  0  7G31G02G25G12G24G29G14
 128827871.644 6 100385349.47145  24515128.780    24515128.420          38.750
        33.000
 124090908.827 7  96694199.65245  23613714.540    23613711.700          44.500
        31.750
 108913205.666 8  84867453.79147  20725491.900    20725493.440          50.000
        43.750
 111295225.204 8  86723668.95347  21178729.880    21178728.800          49.250
        42.000
 115904096.572 7  90314932.80246  22055810.680    22055812.640          47.250
        39.000
 110369562.714 8  86002265.35647  21002622.840    21002622.460          49.750
        43.750
 113171527.806 8  88185610.28646  21535825.140    21535824.360          48.000
        40.000
 13 12 12  1 48 30.0000000  0  7G31G02G25G12G24G29G14
 128736392.786 6 100314067.28445  24497721.160    24497720.700          40.000
        31.250
 124065969.873 7  96674766.70445  23608968.960    23608965.900          44.750
        33.000
 108899328.565 8  84856640.46547  20722851.220    20722852.720          50.000
        43.500
 111342989.669 8  86760888.01947  21187819.160    21187818.120          49.500
        42.000
 115973672.353 7  90369147.67846  22069050.480    22069052.420          47.000
        39.000
 110299347.565 8  85947552.26547  20989261.340    20989260.920          49.750
        44.000
 113152723.734 8  88170957.74846  21532246.820    21532246.120          48.000
        39.500
 13 12 12  1 49  0.0000000  0  7G31G02G25G12G24G29G14
 128644897.066 6 100242771.95544  24480310.380    24480309.680          40.000
        27.000
 124041443.504 7  96655655.24745  23604302.000    23604298.740          45.000
        34.750
 108885689.859 8  84846012.89847  20720255.920    20720257.320          50.000
        43.750
 111390908.709 8  86798227.52447  21196937.860    21196936.840          49.250
        42.250
 116043558.576 7  90423604.46946  22082349.360    22082351.360          47.000
        39.000
 110229580.382 8  85893188.24147  20975985.100    20975984.660          49.750
        43.500
 113134502.227 8  88156759.15546  21528779.400    21528778.740          48.250
        39.500
 13 12 12  1 49 30.0000000  0  7G31G02G25G12G24G29G14
 128553387.573 6 100171465.90245  24462896.820    24462896.080          40.750
        30.500
 124017333.440 7  96636868.19945  23599714.120    23599710.840          43.500
        34.250
 108872290.880 8  84835572.13347  20717706.220    20717707.600          50.000
        43.500
 111438982.406 8  86835687.54447  21206085.980    21206084.960          49.250
        42.000
 116113756.677 7  90478304.27646  22095707.620    22095709.660          47.000
        39.250
 110160264.625 8  85839175.97747  20962794.760    20962794.300          50.000
        44.000
 113116865.711 8  88143016.40046  21525423.320    21525422.620          48.250
        39.500
 13 12 12  1 50  0.0000000  0  7G31G02G25G12G24G29G14
 128461866.585 6 100100150.87545  24445480.900    24445480.220          40.500
        33.750
 123993642.051 7  96618407.37245  23595205.620    23595202.400          44.000
        33.250
 108859132.019 8  84825318.47147  20715202.200    20715203.560          50.000
        43.750
 111487210.896 8  86873268.18847  21215263.600    21215262.500          49.500
        42.000
 116184266.042 7  90533246.63046  22109125.120    22109127.180          47.000
        39.250
 110091403.022 8  85785517.59947  20949690.820    20949690.380          50.000
        44.000
 113099815.895 8  88129730.82046  21522178.900    21522178.140          48.250
        39.250
 13 12 12  1 50 30.0000000  0  7G31G02G25G12G24G29G14
 128370330.602 6 100028824.17145  24428062.020    24428061.580          39.500
        30.750
 123970366.356 7  96600270.47945  23590776.240    23590773.160          43.750
        32.750
 108846208.145 8  84815247.91347  20712742.880    20712744.220          50.000
        43.750
 111535588.356 8  86910964.91047  21224469.560    21224468.460          49.250
        42.250
 116255082.243 7  90588428.08346  22122601.040    22122603.100          47.000
        39.250
 110022992.681 8  85732210.85447  20936672.740    20936672.320          49.750
        43.750
 113083348.532 8  88116899.10246  21519045.340    21519044.500          48.500
        39.500
 13 12 12  1 51  0.0000000  0  7G31G02G25G12G24G29G14
 128278785.038 6  99957490.00145  24410641.160    24410640.940          39.000
        30.000
 123947512.033 7  96582461.92045  23586427.100    23586424.180          43.750
        33.000
 108833522.912 8  84805363.32247  20710328.940    20710330.340          50.000
        43.750
 111584118.672 8  86948780.72846  21233704.620    21233703.480          49.500
        41.750
 116326208.736 7  90643851.31446  22136135.940    22136138.020          46.750
        39.250
 109955039.307 8  85679260.18247  20923741.600    20923741.220          50.000
        43.750
 113067468.461 8  88104525.01746  21516023.520    21516022.620          48.500
        39.250
 13 12 12  1 51 30.0000000  0  7G31G02G25G12G24G29G14
 128187227.496 6  99886146.49245  24393218.060    24393217.800          39.500
        30.750
 123925077.141 7  96564980.18245  23582157.880    23582155.020          44.250
        33.500
 108821072.198 8  84795661.45547  20707959.640    20707961.060          50.000
        43.750
 111632797.043 8  86986711.92447  21242967.840    21242966.660          49.500
        42.250
 116397640.971 7  90699512.78046  22149729.040    22149731.160          46.750
        39.000
 109887540.836 8  85626663.98247  20910897.060    20910896.680          50.000
        43.500
 113052172.469 8  88092606.06046  21513112.820    21513111.840          48.500
        39.750
 13 12 12  1 52  0.0000000  0  7G31G02G25G12G24G29G14
 128095657.893 6  99814793.60445  24375792.840    24375792.700          40.000
        32.500
 123903061.685 7  96547825.27945  23577968.460    23577965.560          43.750
        33.500
 108808854.026 8  84786140.81147  20705634.560    20705636.060          50.000
        43.750
 111681621.081 8  87024756.62047  21252258.780    21252257.580          49.250
        42.000
 116469377.387 7  90755411.27746  22163380.020    22163382.120          46.750
        38.500
 109820497.060 8  85574422.09147  20898139.100    20898138.620          50.000
        43.500
 113037459.841 8  88081141.66646  21510313.120    21510312.040          48.500
        39.000
 13 12 12  1 53  0.0000000  0  7G31G02G25G12G24G29G14
 127912495.524 6  99672069.74145  24340938.460    24340938.100          40.750
        32.750
 123860301.995 7  96514506.02145  23569831.640    23569828.480          44.250
        32.500
 108785120.207 8  84767646.92947  20701118.120    20701119.680          49.750
        44.000
 111779708.667 8  87101188.49746  21270924.260    21270923.040          49.500
        41.750
 116613766.202 7  90867922.02446  22190856.320    22190858.400          46.750
        38.750
 109687788.727 8  85471013.02547  20872885.540    20872885.040          50.000
        43.750
 113009793.454 8  88059583.42446  21505048.360    21505047.280          48.250
        39.000
 13 12 12  1 53 30.0000000  0  7G31G02G25G12G24G29G14
 127820906.325 6  99600701.54545  24323509.820    24323509.320          40.750
        32.250
 123839561.975 7  96498344.96545  23565884.960    23565881.760          44.250
        34.750
 108773604.887 8  84758673.94847  20698926.780    20698928.400          49.750
        44.000
 111828972.207 8  87139575.66646  21280298.820    21280297.560          49.500
        41.750
 116686418.613 7  90924534.28046  22204681.660    22204683.680          46.750
        39.250
 109622128.412 8  85419849.15647  20860390.740    20860390.260          50.000
        44.000
 112996841.638 8  88049491.08846  21502583.660    21502582.600          48.250
        39.250
 13 12 12  1 54  0.0000000  0  7G31G02G25G12G24G29G14
 127729314.278 6  99529331.13345  24306080.500    24306079.880          40.750
        31.250
 123819251.271 7  96482518.45945  23562019.960    23562016.700          44.250
        34.250
 108762324.042 8  84749883.69847  20696780.060    20696781.740          49.750
        43.250
 111878381.619 8  87178076.49246  21289701.160    21289699.840          49.500
        41.500
 116759376.149 7  90981384.30846  22218565.040    22218567.080          46.750
        39.250
 109556933.383 8  85369047.85347  20847984.480    20847984.020          50.000
        43.750
 112984478.794 8  88039857.69746  21500231.080    21500230.020          48.250
        38.500
 13 12 12  1 54 30.0000000  0  7G31G02G25G12G24G29G14
 127637720.360 6  99457959.24145  24288650.760    24288650.000          41.500
        33.250
 123799370.952 7  96467027.29045  23558236.880    23558233.580          44.500
        34.000
 108751276.954 8  84741275.58547  20694677.840    20694679.560          49.750
        43.750
 111927936.236 8  87216690.46646  21299131.140    21299129.740          49.500
        41.750
 116832638.311 7  91038471.68746  22232506.340    22232508.400          46.750
        37.750
 109492204.718 8  85318609.94047  20835667.000    20835666.540          50.000
        43.750
 112972704.966 8  88030683.27546  21497990.600    21497989.560          48.250
        39.000
 13 12 12  1 55  0.0000000  0  7G31G02G25G12G24G29G14
 127546124.299 7  99386585.69245  24271220.520    24271219.940          42.250
        33.000
 123779920.867 7  96451871.37045  23554535.680    23554532.240          44.000
        34.250
 108740461.384 8  84732847.86647  20692619.680    20692621.420          49.750
        43.750
 111977632.741 8  87255415.00846  21308588.100    21308586.620          49.500
        41.000
 116906202.481 7  91095794.39646  22246505.080    22246507.200          46.250
        38.750
 109427942.334 8  85268535.36847  20823438.260    20823437.800          50.000
        43.750
 112961518.882 8  88021966.83446  21495861.980    21495860.920          48.250
        39.750
 13 12 12  1 55 30.0000000  0  7G31G02G25G12G24G29G14
 127454528.156 7  99315212.07645  24253790.260    24253789.820          42.250
        32.500
 123760902.949 7  96437052.21945  23550916.720    23550913.240          44.000
        33.750
 108729877.443 8  84724600.64447  20690605.620    20690607.340          49.750
        43.750
 112027471.397 8  87294250.31446  21318072.100    21318070.620          49.500
        41.500
 116980068.710 7  91153352.49046  22260561.320    22260563.480          46.500
        39.000
 109364148.439 8  85218825.84547  20811298.700    20811298.180          50.000
        44.250
 112950921.896 8  88013709.43146  21493845.500    21493844.420          48.500
        38.500
 13 12 12  1 56  0.0000000  0  7G31G02G25G12G24G29G14
 127362933.471 7  99243839.64645  24236360.300    24236359.780          42.500
        33.000
 123742318.503 7  96422570.81845  23547380.160    23547376.720          44.000
        34.500
 108719524.471 8  84716533.39347  20688635.520    20688637.260          49.750
        44.000
 112077451.275 8  87333195.66546  21327582.940    21327581.520          49.500
        41.750
 117054236.176 7  91211145.30946  22274674.900    22274677.120          46.250
        38.000
 109300824.429 8  85169482.46547  20799248.560    20799248.020          50.000
        43.750
 112940913.775 8  88005910.88846  21491941.020    21491939.960          48.250
        39.250
 13 12 12  1 56 30.0000000  0  7G31G02G25G12G24G29G14
 127271341.150 7  99172469.01945  24218930.900    24218930.380          42.750
        34.750
 123724168.404 7  96408427.88845  23543926.260    23543922.940          44.000
        33.750
 108709401.730 8  84708645.54747  20686709.240    20686710.960          49.750
        43.750
 112127571.084 8  87372250.05046  21337120.400    21337119.020          49.500
        41.750
 117128703.478 7  91269171.75646  22288845.580    22288847.800          46.250
        38.250
 109237971.417 8  85120506.10047  20787288.040    20787287.500          50.000
        44.250
 112931494.198 8  87998570.94946  21490148.560    21490147.500          48.250
        39.750
 13 12 12  1 57  0.0000000  0  7G31G02G25G12G24G29G14
 127179752.094 7  99101100.92545  24201502.160    24201501.520          42.250
        32.250
 123706454.029 7  96394624.48945  23540555.220    23540552.140          44.250
        34.250
 108699508.417 8  84700936.47847  20684826.580    20684828.320          50.000
        43.500
 112177829.697 8  87411412.59546  21346684.240    21346682.860          49.250
        41.500
 117203469.769 7  91327431.19446  22303073.160    22303075.400          46.250
        38.750
 109175589.866 8  85071897.10147  20775417.260    20775416.700          50.000
        44.250
 112922663.450 8  87991689.83646  21488468.140    21488467.100          48.500
        40.000
 13 12 12  1 57 30.0000000  0  7G31G02G25G12G24G29G14
 127088170.147 6  99029738.38845  24184074.780    24184074.000          41.500
        31.750
 123689178.935 7  96381163.39445  23537267.860    23537264.800          44.000
        31.250
 108689846.277 8  84693407.54447  20682987.960    20682989.660          49.750
        43.250
 112228228.587 8  87450684.43946  21356274.820    21356273.420          49.250
        41.500
 117278536.510 7  91385924.74546  22317357.920    22317360.180          46.500
        38.250
 109113684.502 8  85023659.16647  20763637.040    20763636.500          50.000
        44.000
 112914423.783 8  87985269.30446  21486900.160    21486899.180          48.500
        39.750
 13 12 12  1 58  0.0000000  0  7G31G02G25G12G24G29G14
 126996594.273 6  98958380.56144  24166648.520    24166647.780          41.500
        29.750
 123672341.880 7  96368043.60545  23534063.880    23534060.680          44.250
        34.000
 108680412.403 8  84686056.47847  20681192.760    20681194.420          50.000
        43.750
 112278764.371 8  87490062.97446  21365891.440    21365890.100          49.250
        41.500
 117353900.750 7  91444650.12146  22331699.300    22331701.460          46.250
        38.250
 109052254.068 8  84975791.31147  20751947.160    20751946.680          50.000
        44.250
 112906773.728 8  87979308.21946  21485444.420    21485443.460          48.500
        39.750
 13 12 12  1 58 30.0000000  0  7G31G02G25G12G24G29G14
 126905028.961 6  98887031.01145  24149224.120    24149223.700          41.000
        32.500
 123655947.628 7  96355268.86345  23530944.180    23530940.960          44.000
        33.250
 108671209.825 8  84678885.63747  20679441.600    20679443.220          50.000
        43.750
 112329439.648 8  87529550.19346  21375534.620    21375533.280          49.250
        41.750
 117429565.176 7  91503609.39746  22346097.780    22346099.860          46.250
        38.250
 108991303.050 8  84928297.02047  20740348.500    20740348.080          50.000
        44.500
 112899716.039 8  87973808.71346  21484101.400    21484100.420          48.250
        39.000
 13 12 12  1 59  0.0000000  0  7G31G02G25G12G24G29G14
 126813473.431 6  98815689.09745  24131801.480    24131801.400          40.500
        30.750
 123639995.216 7  96342838.43045  23527908.480    23527905.400          44.500
        31.750
 108662235.682 8  84671892.79147  20677733.900    20677735.460          50.000
        43.750
 112380251.421 8  87569143.77646  21385203.780    21385202.440          49.250
        41.500
 117505526.696 7  91562800.18546  22360552.800    22360554.820          46.000
        38.250
 108930830.556 8  84881175.60047  20728840.980    20728840.520          50.250
        44.250
 112893248.759 8  87968769.26746  21482870.720    21482869.780          48.500
        39.250
 13 12 12  1 59 30.0000000  0  7G31G02G25G12G24G29G14
 126721928.679 6  98744355.51245  24114380.840    24114380.960          40.000
        32.500
 123624484.711 7  96330752.31045  23524957.000    23524954.000          44.250
        35.250
 108653488.671 8  84665076.93947  20676069.420    20676070.960          50.000
        43.750
 112431198.155 8  87608842.51146  21394898.620    21394897.300          49.250
        41.500
 117581783.585 7  91622221.12346  22375064.020    22375066.000          46.000
        38.500
 108870836.990 8  84834427.37547  20717424.620    20717424.140          50.250
        44.500
 112887371.328 8  87964189.43646  21481752.300    21481751.340          48.500
        38.750
