     2.11           OBSERVATION DATA    G (GPS)             RINEX VERSION / TYPE
teqc  2015Nov6      RinexTools-CRAAG    20161009 21:18:18UTCPGM / RUN BY / DATE
Linux2.4.20-8|i386|gcc|Win32-MinGW32|=                      COMMENT
BIT 2 OF LLI FLAGS DATA COLLECTED UNDER A/S CONDITION       COMMENT
ORAN                                                        MARKER NAME
ORAN                                                        MARKER NUMBER
-Unknown-           C.R.A.A.G.                              OBSERVER / AGENCY
462404              LEICA GRX1200PRO    8.20/2.127          REC # / TYPE / VERS
103294              LEIAT504        NONE                    ANT # / TYPE
  5184921.8886   -52285.8261  3702000.7675                  APPROX POSITION XYZ
        0.1860        0.0000        0.0000                  ANTENNA: DELTA H/E/N
     1     1                                                WAVELENGTH FACT L1/2
     4    C1    L1    P2    L2                              # / TYPES OF OBSERV
    30.0000                                                 INTERVAL
SPIDER                                                      COMMENT
Made by Spider v4.0.0                                       COMMENT
Project creator:                                            COMMENT
                                                            COMMENT
 SNR is mapped to RINEX snr flag value [0-9]                COMMENT
  L1 & L2: min(max(int(snr_dBHz/6), 0), 9)                  COMMENT
teqc edited: all GLONASS satellites excluded                COMMENT
  2013    12    12     1     0    0.0000000     GPS         TIME OF FIRST OBS
                                                            END OF HEADER
 13 12 12  1  0  0.0000000  0  7G02G25G15G12G24G29G14
  24378833.780   128111634.883 6  24378831.440    99827232.12245
  21205663.060   111436520.798 8  21205664.880    86833672.93746
  24004145.120   126142627.703 7  24004145.240    98292960.69345
  20474756.000   107595816.329 8  20474754.340    83841013.06247
  21069230.140   110719584.415 8  21069232.060    86275054.04947
  22623975.840   118889822.485 7  22623975.780    92641427.11845
  22361114.440   117508452.581 7  22361113.200    91565032.39946
 13 12 12  1  0 30.0000000  0  7G02G25G15G12G24G29G14
  24368346.980   128056526.892 6  24368344.680    99784290.85044
  21198199.860   111397301.446 8  21198201.660    86803112.41247
  24024560.640   126249910.679 7  24024560.620    98376557.71946
  20480006.480   107623407.937 8  20480004.820    83862513.01447
  21076575.900   110758186.810 8  21076577.860    86305133.81747
  22604291.560   118786380.901 7  22604291.380    92560823.32545
  22348084.140   117439977.793 7  22348082.880    91511675.42345
 13 12 12  1  1  0.0000000  0  7G02G25G15G12G24G29G14
  24357898.620   128001620.300 6  24357896.140    99741506.50145
  21190791.140   111358368.100 8  21190792.900    86772774.74547
  24044988.760   126357260.625 7  24044988.880    98460206.90545
  20485308.780   107651271.830 8  20485307.140    83884225.13447
  21083982.620   110797109.368 8  21083984.620    86335463.07247
  22584651.120   118683169.813 7  22584650.880    92480399.12945
  22335134.720   117371928.344 7  22335133.540    91458649.88745
 13 12 12  1  1 30.0000000  0  7G02G25G15G12G24G29G14
  24347489.260   127946918.019 6  24347486.520    99698881.37045
  21183436.820   111319720.808 8  21183438.600    86742659.98547
  24065429.180   126464675.841 6  24065429.540    98543906.94045
  20490662.700   107679407.064 8  20490661.060    83906148.68547
  21091450.300   110836352.207 8  21091452.320    86366041.90047
  22565055.220   118580192.734 7  22565055.040    92400157.31145
  22322266.740   117304307.052 7  22322265.680    91405957.97646
 13 12 12  1  2  0.0000000  0  7G02G25G15G12G24G29G14
  24337119.440   127892424.016 6  24337116.820    99656418.51245
  21176137.120   111281360.463 8  21176138.880    86712768.81747
  24085881.680   126572154.772 7  24085882.420    98627656.63545
  20496068.260   107707813.645 8  20496066.640    83928283.68347
  21098979.360   110875917.660 8  21098981.420    86396872.11147
  22545504.460   118477453.007 7  22545504.220    92320100.40045
  22309480.860   117237117.251 7  22309479.960    91353602.29145
 13 12 12  1  2 30.0000000  0  7G02G25G15G12G24G29G14
  24326789.600   127838140.950 6  24326787.420    99614120.04845
  21168891.920   111243286.570 8  21168893.640    86683100.85747
  24106345.880   126679694.905 7  24106346.880    98711454.02745
  20501525.040   107736489.309 8  20501523.420    83950628.35047
  21106569.740   110915805.395 8  21106571.840    86427953.44447
  22525999.320   118374953.154 7  22525999.160    92240230.42945
  22296777.560   117170361.353 7  22296776.760    91301584.70646
 13 12 12  1  3  0.0000000  0  7G02G25G15G12G24G29G14
  24316500.200   127784070.515 6  24316498.140    99571987.25845
  21161701.000   111205498.035 8  21161702.720    86653655.25647
  24126821.160   126787293.068 7  24126822.220    98795296.67645
  20507032.760   107765432.723 8  20507031.200    83973181.65947
  21114221.400   110956015.016 8  21114223.460    86459285.60447
  22506540.280   118272695.235 7  22506540.140    92160548.96946
  22284157.200   117104040.982 7  22284156.460    91249906.50546
 13 12 12  1  3 30.0000000  0  7G02G25G15G12G24G29G14
  24306251.420   127730212.992 6  24306249.200    99530020.36945
  21154563.880   111167992.025 8  21154565.580    86624429.80147
  24147306.660   126894944.597 7  24147307.700    98879180.88845
  20512590.560   107794639.261 8  20512589.020    83995940.00147
  21121933.940   110996544.535 8  21121935.980    86490867.03547
  22487127.340   118170679.484 7  22487127.180    92081056.21446
  22271619.720   117038155.954 7  22271618.960    91198567.52046
 13 12 12  1  4 30.0000000  0  7G02G25G15G12G24G29G14
  24285878.840   127623153.817 7  24285876.500    99446597.65845
  21140451.940   111093833.290 8  21140453.660    86566643.78847
  24188307.560   127110405.095 6  24188308.340    99047071.96044
  20523857.020   107853844.898 8  20523855.500    84042074.24947
  21137543.160   111078571.335 8  21137545.140    86554784.00847
  22448443.040   117967392.249 7  22448442.820    91922650.66745
  22246796.500   116907708.390 7  22246795.620    91096920.07446
 13 12 12  1  5  0.0000000  0  7G02G25G15G12G24G29G14
  24275756.140   127569958.601 7  24275753.780    99405146.81245
  21133477.220   111057180.939 8  21133478.900    86538083.52147
  24208822.360   127218210.527 6  24208823.000    99131076.03345
  20529565.360   107883842.401 8  20529563.840    84065448.92047
  21145440.260   111120070.652 8  21145442.180    86587121.13447
  22429172.900   117866127.059 7  22429172.600    91843742.75345
  22234511.920   116843151.922 7  22234510.960    91046616.33246
 13 12 12  1  5 30.0000000  0  7G02G25G15G12G24G29G14
  24265676.280   127516989.402 6  24265674.000    99363872.13045
  21126556.540   111020812.412 8  21126558.180    86509744.40947
  24229345.960   127326062.413 7  24229346.540    99215116.31045
  20535323.280   107914100.406 8  20535321.760    84089026.59347
  21153398.860   111161893.385 8  21153400.780    86619710.26947
  22409951.400   117765117.368 7  22409951.040    91765033.93846
  22222312.500   116779043.022 7  22222311.480    90996661.35546
 13 12 12  1  6  0.0000000  0  7G02G25G15G12G24G29G14
  24255639.540   127464245.912 7  24255637.320    99322773.32744
  21119689.220   110984724.457 8  21119690.880    86481623.93147
  24249877.500   127433955.766 7  24249877.940    99299188.93244
  20541130.100   107944615.430 8  20541128.560    84112804.53047
  21161418.580   111204037.304 8  21161420.480    86652549.67147
  22390778.500   117664363.041 7  22390778.100    91686524.09746
  22210198.120   116715380.926 7  22210196.960    90947054.53046
 13 12 12  1  6 30.0000000  0  7G02G25G15G12G24G29G14
  24245646.840   127411733.036 7  24245644.400    99281854.18845
  21112875.660   110948918.958 8  21112877.300    86453723.55047
  24270416.820   127541890.175 7  24270417.340    99383293.52945
  20546985.920   107975387.854 8  20546984.360    84136783.04447
  21169499.960   111246505.239 8  21169501.860    86685641.55547
  22371655.120   117563868.914 7  22371654.700    91608217.00245
  22198169.600   116652170.477 7  22198168.360    90897799.64445
 13 12 12  1  7  0.0000000  0  7G02G25G15G12G24G29G14
  24235698.900   127359456.140 7  24235696.380    99241118.95945
  21106116.380   110913398.576 8  21106118.000    86426045.32447
  24290964.140   127649866.392 7  24290964.780    99467430.69045
  20552891.020   108006419.243 8  20552889.460    84160963.35147
  21177643.540   111289300.091 8  21177645.480    86718988.18047
  22352582.260   117463640.316 7  22352581.880    91530116.83345
  22186227.920   116589416.919 7  22186226.740    90848900.76646
 13 12 12  1  7 30.0000000  0  7G02G25G15G12G24G29G14
  24225795.540   127307413.614 7  24225793.080    99200566.33945
  21099410.400   110878158.471 8  21099412.020    86398585.51047
  24311518.100   127757877.855 7  24311518.940    99551595.33945
  20558844.260   108037703.599 8  20558842.680    84185340.76747
  21185848.600   111332417.896 8  21185850.560    86752586.45647
  22333559.660   117363675.839 7  22333559.260    91452222.44346
  22174372.800   116527118.111 7  22174371.640    90800356.24246
 13 12 12  1  8  0.0000000  0  7G02G25G15G12G24G29G14
  24215937.340   127255608.284 7  24215934.920    99160198.55044
  21092757.760   110843198.617 8  21092759.400    86371344.08047
  24332078.340   127865922.388 7  24332079.460    99635785.75345
  20564845.520   108069240.404 8  20564843.960    84209914.89547
  21194115.200   111375859.075 8  21194117.160    86786436.71747
  22314587.860   117263978.436 7  22314587.500    91374536.19446
  22162604.700   116465276.625 7  22162603.620    90752168.08045
 13 12 12  1  8 30.0000000  0  7G02G25G15G12G24G29G14
  24206125.000   127204044.475 6  24206122.600    99120018.99945
  21086158.720   110808520.459 8  21086160.340    86344322.14747
  24352644.880   127973999.458 6  24352646.120    99720001.50645
  20570894.980   108101030.357 8  20570893.380    84234686.28747
  21202443.680   111419625.727 8  21202445.680    86820540.60047
  22295667.660   117164552.350 7  22295667.260    91297061.34746
  22150924.380   116403896.479 7  22150923.320    90704339.39446
 13 12 12  1  9  0.0000000  0  7G02G25G15G12G24G29G14
  24196358.760   127152722.866 7  24196356.460    99080028.10945
  21079612.840   110774121.664 8  21079614.420    86317517.89747
  24373216.800   128082104.802 7  24373218.160    99804239.30445
  20576991.880   108133069.817 8  20576990.320    84259652.09847
  21210833.740   111463716.074 8  21210835.800    86854896.69847
  22276799.240   117065398.307 7  22276798.800    91219798.50946
  22139331.960   116342978.082 7  22139330.960    90656870.52246
 13 12 12  1  9 30.0000000  0  7G02G25G15G12G24G29G14
  24186639.300   127101646.396 7  24186636.760    99040228.26844
  21073120.120   110740002.225 8  21073121.680    86290931.33147
  24393793.600   128190235.717 7  24393795.080    99888497.01445
  20583136.000   108165357.383 8  20583134.440    84284811.23847
  21219285.680   111508131.374 8  21219287.740    86889506.01447
  22257983.100   116966519.197 7  22257982.660    91142749.87146
  22127827.920   116282524.143 7  22127826.960    90609763.57345
 13 12 12  1 10  0.0000000  0  7G02G25G15G12G24G29G14
  24176967.120   127050818.629 6  24176964.600    99000622.21645
  21066680.620   110706162.542 8  21066682.180    86264562.75347
  24414375.240   128298392.266 6  24414376.740    99972774.69545
  20589327.220   108197892.577 8  20589325.680    84310163.33547
  21227799.600   111552872.289 8  21227801.680    86924369.04647
  22239219.980   116867918.725 7  22239219.560    91065918.37146
  22116412.780   116222537.556 7  22116411.840    90563020.77046
 13 12 12  1 10 30.0000000  0  7G02G25G15G12G24G29G14
  24167342.560   127000241.433 7  24167339.940    98961211.41145
  21060294.200   110672601.815 8  21060295.760    86238411.53646
  24434961.080   128406570.987 6  24434962.520   100057069.61845
  20595565.500   108230675.004 8  20595563.960    84335708.07647
  21236375.420   111597938.593 8  21236377.540    86959485.63247
  22220510.280   116769598.919 7  22220509.880    90989305.56546
  22105086.960   116163020.173 7  22105085.960    90516643.58646
 13 12 12  1 11  0.0000000  0  7G02G25G15G12G24G29G14
  24157766.200   126949917.432 7  24157763.580    98921997.91845
  21053960.800   110639319.710 8  21053962.360    86212477.43047
  24455550.640   128514769.193 6  24455551.940   100141379.75545
  20601850.420   108263702.487 8  20601848.880    84361443.77147
  21245013.220   111643330.449 8  21245015.360    86994855.89547
  22201854.480   116671562.328 7  22201854.080    90912913.44546
  22093850.920   116103974.316 7  22093849.880    90470633.82546
 13 12 12  1 11 30.0000000  0  7G02G25G15G12G24G29G14
  24148238.380   126899848.037 7  24148235.680    98882982.82645
  21047680.120   110606314.456 8  21047681.680    86186759.06247
  24476143.200   128622983.529 6  24476144.220   100225702.43844
  20608181.440   108296972.151 8  20608179.920    84387368.18047
  21253712.780   111689046.803 8  21253714.920    87030479.01647
  22183252.860   116573810.515 7  22183252.520    90836743.22446
  22082704.800   116045400.797 7  22082703.740    90424992.12646
 13 12 12  1 12  0.0000000  0  7G02G25G15G12G24G29G14
  24138759.760   126850037.474 7  24138757.220    98844169.40845
  21041452.400   110573587.569 8  21041453.940    86161257.60647
  24496738.720   128731213.615 6  24496739.760   100310037.38945
  20614558.660   108330484.384 8  20614557.100    84413481.59647
  21262474.500   111735089.692 8  21262476.600    87066356.58447
  22164706.260   116476347.842 7  22164706.000    90760798.31146
  22071649.360   115987303.737 7  22071648.300    90379721.68746
 13 12 12  1 12 30.0000000  0  7G02G25G15G12G24G29G14
  24129330.820   126800488.294 6  24129328.380    98805559.67645
  21035277.540   110541138.752 8  21035279.120    86135972.82247
  24517336.780   128839457.127 6  24517337.780   100394382.83045
  20620981.900   108364238.644 8  20620980.360    84439783.60847
  21271298.440   111781459.545 8  21271300.480    87102488.92247
  22146215.160   116379176.716 7  22146214.920    90685080.57246
  22060684.960   115929685.152 7  22060683.840    90334824.08346
 13 12 12  1 13  0.0000000  0  7G02G25G15G12G24G29G14
  24119951.940   126751202.341 7  24119949.640    98767155.04645
  21029155.360   110508966.655 8  21029156.960    86110903.67047
  24537936.740   128947710.571 6  24537937.760   100478735.97144
  20627450.660   108398232.018 8  20627449.100    84466271.94147
  21280184.380   111828155.469 8  21280186.400    87138875.34747
  22127779.920   116282298.965 7  22127779.700    90609591.43846
  22049811.800   115872546.503 7  22049810.780    90290300.45446
 13 12 12  1 13 30.0000000  0  7G02G25G15G12G24G29G14
  24110623.480   126702181.068 7  24110621.140    98728956.65545
  21023085.540   110477069.941 8  21023087.180    86086049.09647
  24558538.000   129055971.039 6  24558539.220   100563094.60945
  20633964.600   108432463.040 8  20633963.080    84492945.45547
  21289132.260   111875176.891 8  21289134.300    87175515.40347
  22109400.780   116185716.119 7  22109400.540    90534332.08846
  22039030.200   115815889.180 7  22039029.320    90246151.87245
 13 12 12  1 14  0.0000000  0  7G02G25G15G12G24G29G14
  24101345.820   126653426.722 7  24101343.620    98690966.27145
  21017068.020   110445447.891 8  21017069.700    86061408.53747
  24579140.240   129164235.941 6  24579141.420   100647456.67845
  20640523.300   108466929.331 8  20640521.820    84519802.29547
  21298142.020   111922523.620 8  21298144.100    87212408.95847
  22091078.300   116089431.008 7  22091078.100    90459304.75746
  22028340.520   115759714.919 7  22028339.760    90202379.72546
 13 12 12  1 14 30.0000000  0  7G02G25G15G12G24G29G14
  24092119.620   126604942.265 7  24092117.280    98653186.20445
  21011102.780   110414100.243 8  21011104.420    86036981.80747
  24599742.980   129272503.023 6  24599744.280   100731820.44945
  20647126.660   108501630.293 8  20647125.180    84546841.99947
  21307213.760   111970195.888 8  21307215.840    87249556.17047
  22072812.880   115993445.722 7  22072812.640    90384511.04946
  22017743.100   115704025.837 7  22017742.480    90158985.62446
 13 12 12  1 15  0.0000000  0  7G02G25G15G12G24G29G14
  24082945.220   126556729.842 7  24082942.700    98615618.09145
  21005189.720   110383026.843 8  21005191.340    86012768.76847
  24620345.720   129380769.560 6  24620347.160   100816183.76345
  20653774.340   108536564.250 8  20653772.880    84574063.26047
  21316347.560   112018194.087 8  21316349.600    87286957.35447
  22054605.000   115897762.964 7  22054604.760    90309953.06646
  22007238.480   115648824.374 7  22007237.960    90115971.49846
 13 12 12  1 15 30.0000000  0  7G02G25G15G12G24G29G14
  24073823.160   126508792.909 7  24073820.580    98578264.64345
  20999328.960   110352228.055 8  20999330.540    85988769.71847
  24640948.300   129489035.393 6  24640949.840   100900546.55644
  20660466.420   108571731.449 8  20660464.960    84601466.26347
  21325543.540   112066519.064 8  21325545.520    87324613.17247
  22036455.420   115802386.401 7  22036455.140    90235633.69246
  21996827.300   115594113.291 7  21996826.760    90073339.47746
 13 12 12  1 16 30.0000000  0  7G02G25G15G12G24G29G14
  24055737.540   126413752.582 7  24055735.000    98504207.26145
  20987763.260   110291449.665 8  20987764.820    85941409.93847
  24682150.120   129705550.700 6  24682151.740   101069259.40145
  20673982.160   108642757.103 8  20673980.700    84656810.91347
  21344121.680   112164147.707 8  21344123.600    87400687.41947
  22000332.420   115612558.891 7  22000332.180    90087716.18346
  21976286.180   115486168.170 7  21976285.380    89989226.39246
 13 12 12  1 17  0.0000000  0  7G02G25G15G12G24G29G14
  24046775.080   126366655.149 7  24046772.600    98467508.00245
  20982058.400   110261470.097 8  20982059.920    85918049.23247
  24702748.820   129813796.627 6  24702750.320   101153606.64945
  20680805.460   108678613.765 8  20680804.000    84684751.16847
  21353504.120   112213452.544 8  21353505.980    87439106.76847
  21982360.080   115518114.014 7  21982359.880    90014122.78546
  21966157.200   115432938.962 7  21966156.100    89947749.08546
 13 12 12  1 17 30.0000000  0  7G02G25G15G12G24G29G14
  24037867.240   126319844.712 7  24037864.740    98431032.32245
  20976405.740   110231765.171 8  20976407.280    85894902.54947
  24723345.700   129922033.657 6  24723347.300   101237946.97744
  20687672.420   108714699.820 8  20687670.960    84712870.16647
  21362949.160   112263086.491 8  21362951.000    87477782.55847
  21964448.340   115423987.293 7  21964448.140    89940777.30246
  21956123.380   115380210.047 7  21956122.080    89906661.61846
 13 12 12  1 18  0.0000000  0  7G02G25G15G12G24G29G14
  24029013.360   126273317.458 7  24029011.000    98394777.33645
  20970803.960   110202327.755 8  20970805.560    85871964.31347
  24743939.340   130030252.875 6  24743940.840   101322273.38945
  20694581.520   108751007.370 8  20694580.080    84741161.75147
  21372455.560   112313042.821 8  21372457.400    87516709.56347
  21946596.300   115330174.271 8  21946596.100    89867676.26446
  21946183.880   115327976.838 7  21946182.460    89865960.41946
 13 12 12  1 18 30.0000000  0  7G02G25G15G12G24G29G14
  24020214.680   126227079.691 7  24020212.360    98358747.93145
  20965253.840   110173161.578 8  20965255.420    85849237.42547
  24764530.080   130138455.955 6  24764531.180   101406587.26645
  20701533.360   108787539.594 8  20701531.920    84769628.40847
  21382024.100   112363325.835 8  21382025.980    87555891.12447
  21928805.240   115236681.551 7  21928805.000    89794824.80546
  21936339.840   115276245.718 7  21936338.380    89825650.45946
 13 12 12  1 19  0.0000000  0  7G02G25G15G12G24G29G14
  24011471.760   126181135.286 7  24011469.520    98322947.14245
  20959755.480   110144267.598 8  20959757.120    85826722.64447
  24785117.700   130246642.681 6  24785118.740   101490888.37245
  20708527.960   108824296.381 8  20708526.520    84798270.05847
  21391655.160   112413937.337 8  21391657.040    87595328.65847
  21911075.900   115143513.112 8  21911075.640    89722226.03946
  21926591.860   115225019.708 7  21926590.440    89785734.07946
 13 12 12  1 19 30.0000000  0  7G02G25G15G12G24G29G14
  24002784.960   126135486.238 6  24002782.720    98287376.43245
  20954308.760   110115645.073 8  20954310.420    85804419.37647
  24805701.460   130354809.843 6  24805702.720   101575174.23545
  20715565.020   108861276.378 8  20715563.600    84827085.63747
  21401348.740   112464877.333 8  21401350.560    87635022.15547
  21893408.680   115050671.302 8  21893408.440    89649881.79046
  21916940.300   115174300.615 7  21916938.940    89746212.70246
 13 12 12  1 20  0.0000000  0  7G02G25G15G12G24G29G14
  23994154.580   126090134.079 6  23994152.340    98252037.09645
  20948913.460   110087292.633 8  20948915.140    85782326.57947
  24826280.860   130462954.456 6  24826282.360   101659442.50045
  20722644.160   108898477.389 8  20722642.720    84856073.42747
  21411104.540   112516144.424 8  21411106.360    87674970.52547
  21875803.860   114958157.509 8  21875803.640    89577793.13546
  21907385.400   115124089.503 7  21907384.080    89707087.15046
 13 12 12  1 20 30.0000000  0  7G02G25G15G12G24G29G14
  23985580.900   126045079.898 6  23985578.760    98216929.93445
  20943569.140   110059208.344 8  20943570.860    85760442.72647
  24846855.340   130571072.922 6  24846857.000   101743690.34844
  20729764.820   108935896.694 8  20729763.380    84885231.32747
  21420922.400   112567737.469 8  21420924.220    87715172.89047
  21858261.620   114865972.573 8  21858261.420    89505960.73646
  21897927.200   115074386.862 7  21897925.960    89668357.81546
 13 12 12  1 21  0.0000000  0  7G02G25G15G12G24G29G14
  23977064.400   126000326.053 6  23977062.320    98182056.84345
  20938275.860   110031391.983 8  20938277.560    85738767.65247
  24867424.380   130679163.013 6  24867426.100   101827916.12144
  20736926.660   108973532.496 8  20736925.260    84914557.92847
  21430802.280   112619656.523 8  21430804.100    87755629.28347
  21840782.500   114774119.351 8  21840782.280    89434386.82346
  21888566.200   115025194.735 7  21888565.000    89630026.27846
 13 12 12  1 21 30.0000000  0  7G02G25G15G12G24G29G14
  23968605.520   125955873.653 7  23968603.160    98147418.59445
  20933033.180   110003841.618 8  20933034.880    85717299.84047
  24887987.300   130787220.862 6  24887988.920   101912116.77844
  20744129.420   109011383.313 8  20744128.020    84944052.06947
  21440743.860   112671899.952 8  21440745.720    87796338.43947
  21823366.680   114682598.689 8  21823366.440    89363072.02346
  21879302.460   114976513.495 7  21879301.300    89592092.83146
 13 12 12  1 22  0.0000000  0  6G02G25G12G24G29G14
  23960203.060   125911717.666 7  23960200.600    98113011.34444
  20927839.600   109976549.269 8  20927841.280    85696033.08047
  20751371.280   109049439.670 8  20751369.940    84973706.37047
  21450745.800   112724460.480 8  21450747.680    87837294.68247
  21806013.280   114591405.848 8  21806013.000    89292012.68946
  21870134.900   114928337.482 7  21870133.760    89554553.07946
 13 12 12  1 22 30.0000000  0  6G02G25G12G24G29G14
  23951862.180   125867885.717 6  23951859.780    98078856.60145
  20922699.940   109949539.918 8  20922701.560    85674986.83447
  20758657.040   109087726.435 8  20758655.680    85003540.21047
  21460812.980   112777363.818 8  21460814.880    87878518.04447
  21788727.540   114500568.443 8  21788727.220    89221230.30446
  21861068.680   114880694.027 7  21861067.560    89517428.30146
 13 12 12  1 23  0.0000000  0  6G02G25G12G24G29G14
  23943579.120   125824357.578 7  23943576.680    98044938.58945
  20917609.740   109922790.779 8  20917611.400    85654143.36147
  20765981.980   109126219.346 8  20765980.640    85033534.68247
  21470941.040   112830587.259 8  21470942.980    87919990.83947
  21771505.620   114410066.566 8  21771505.300    89150709.37346
  21852099.940   114833562.772 7  21852098.860    89480702.64446
 13 12 12  1 23 30.0000000  0  6G02G25G12G24G29G14
  23935355.840   125781143.787 7  23935353.300    98011265.49945
  20912570.520   109896309.191 8  20912572.100    85633508.35447
  20773347.460   109164925.205 8  20773346.120    85063695.09047
  21481131.580   112884139.018 8  21481133.580    87961719.46847
  21754349.500   114319910.376 8  21754349.140    89080457.81346
  21843230.480   114786953.372 7  21843229.440    89444383.62846
 13 12 12  1 24  0.0000000  0  6G02G25G12G24G29G14
  23927192.400   125738245.401 6  23927189.720    97977838.22245
  20907581.900   109870093.569 8  20907583.440    85613080.60147
  20780753.040   109203841.980 8  20780751.720    85094019.85147
  21491384.340   112938017.780 8  21491386.440    88003702.90747
  21737259.400   114230101.229 8  21737259.020    89010476.67046
  21834460.440   114740866.356 7  21834459.400    89408471.65846
 13 12 12  1 24 30.0000000  0  6G02G25G12G24G29G14
  23919089.120   125695662.495 6  23919086.260    97944656.72545
  20902643.340   109844141.201 8  20902644.860    85592857.99347
  20788198.000   109242965.503 8  20788196.660    85124505.71447
  21501698.820   112992220.941 8  21501700.960    88045939.11347
  21720235.280   114140639.095 8  21720234.920    88940765.92846
  21825789.700   114695301.242 7  21825788.680    89372966.37646
 13 12 12  1 25  0.0000000  0  6G02G25G12G24G29G14
  23911046.400   125653397.233 7  23911043.460    97911722.77045
  20897754.760   109818451.516 8  20897756.240    85572840.06247
  20795682.120   109282294.751 8  20795680.720    85155151.88347
  21512075.120   113046748.763 8  21512077.220    88088428.32546
  21703277.620   114051526.361 8  21703277.280    88871327.45046
  21817218.560   114650259.702 7  21817217.560    89337869.07046
 13 12 12  1 25 30.0000000  0  6G02G25G12G24G29G14
  23903065.240   125611455.851 6  23903062.220    97879041.18345
  20892916.780   109793027.844 8  20892918.280    85553029.41547
  20803205.940   109321832.637 8  20803204.540    85185960.62347
  21522513.960   113101605.306 8  21522516.100    88131173.67146
  21686387.640   113962769.246 8  21686387.360    88802166.07846
  21808748.060   114605747.213 7  21808747.080    89303184.00846
 13 12 12  1 26  0.0000000  0  6G02G25G12G24G29G14
  23895145.900   125569839.455 7  23895142.980    97846612.85045
  20888129.200   109767868.838 8  20888130.660    85533424.99747
  20810769.120   109361577.258 8  20810767.680    85216930.46247
  21533015.060   113156788.990 8  21533017.220    88174173.93446
  21669565.600   113874369.133 8  21669565.340    88733282.88846
  21800378.440   114561764.805 7  21800377.480    89268911.99346
 13 12 12  1 26 30.0000000  0  6G02G25G12G24G29G14
  23887288.420   125528548.147 7  23887285.520    97814437.81644
  20883391.440   109742971.757 8  20883392.920    85514024.67247
  20818370.880   109401524.758 8  20818369.420    85248058.37847
  21543578.000   113212297.614 8  21543580.140    88217427.39746
  21652811.580   113786326.322 8  21652811.340    88664678.11646
  21792109.540   114518311.931 7  21792108.660    89235052.60746
 13 12 12  1 27  0.0000000  0  6G02G25G12G24G29G14
  23879492.960   125487582.143 7  23879490.060    97782516.24545
  20878702.980   109718333.700 8  20878704.460    85494826.18847
  20826010.620   109441671.550 8  20826009.120    85279341.59547
  21554202.320   113268128.819 8  21554204.420    88260932.21847
  21636125.540   113698640.471 8  21636125.240    88596351.49446
  21783941.340   114475387.816 7  21783940.480    89201605.24446
 13 12 12  1 27 30.0000000  0  6G02G25G12G24G29G14
  23871760.480   125446946.966 7  23871757.560    97750852.48845
  20874064.400   109693957.865 8  20874065.900    85475832.03147
  20833688.800   109482020.325 8  20833687.240    85310782.19447
  21564888.700   113324286.004 8  21564890.780    88304691.05347
  21619508.580   113611317.481 8  21619508.260    88528307.61446
  21775874.840   114432997.854 7  21775873.940    89168574.10546
 13 12 12  1 28  0.0000000  0  6G02G25G12G24G29G14
  23864091.480   125406646.141 6  23864088.620    97719449.27445
  20869475.860   109669845.209 8  20869477.440    85457042.95247
  20841405.400   109522571.163 8  20841403.800    85342380.24647
  21575637.420   113380770.854 8  21575639.500    88348705.21446
  21602961.400   113524361.401 8  21602961.080    88460549.64146
  21767910.560   114391145.036 7  21767909.640    89135961.51346
 13 12 12  1 29  0.0000000  0  6G02G25G12G24G29G14
  23848945.020   125327051.159 7  23848942.220    97657427.20845
  20860447.440   109622400.749 8  20860449.100    85420073.25847
  20856951.700   109604267.356 8  20856950.120    85406039.62147
  21597320.480   113494716.069 8  21597322.600    88437493.67046
  21570076.860   113351551.927 8  21570076.540    88325892.93346
  21752288.540   114309050.362 7  21752287.460    89071991.63046
 13 12 12  1 29 30.0000000  0  6G02G25G12G24G29G14
  23841468.420   125287761.411 7  23841465.500    97626811.83445
  20856007.420   109599068.307 8  20856009.060    85401892.14547
  20864781.080   109645410.928 8  20864779.460    85438099.53947
  21608254.880   113552176.492 8  21608257.040    88482268.01646
  21553740.380   113265703.292 8  21553740.100    88258997.90946
  21744631.480   114268812.201 7  21744630.360    89040637.21246
 13 12 12  1 30  0.0000000  0  6G02G25G12G24G29G14
  23834056.640   125248812.228 7  23834053.520    97596461.80145
  20851616.540   109575993.975 8  20851618.140    85383912.15147
  20872647.420   109686748.703 8  20872645.800    85470310.79247
  21619250.860   113609960.637 8  21619253.060    88527294.61246
  21537474.900   113180227.544 8  21537474.600    88192393.43646
  21737077.220   114229114.399 7  21737076.120    89009703.86246
 13 12 12  1 30 30.0000000  0  6G02G25G12G24G29G14
  23826710.300   125210206.756 7  23826707.120    97566379.62845
  20847274.900   109553178.521 8  20847276.500    85366133.87847
  20880550.840   109728281.248 8  20880549.180    85502673.80847
  21630308.680   113668069.663 8  21630310.880    88572574.36846
  21521280.980   113095127.949 8  21521280.660    88126082.08246
  21729626.360   114189959.939 7  21729625.280    88979193.89346
 13 12 12  1 31  0.0000000  0  6G02G25G12G24G29G14
  23819429.840   125171948.148 7  23819426.900    97536567.73645
  20842982.620   109530622.356 8  20842984.180    85348557.65147
  20888491.180   109770007.971 8  20888489.500    85535188.14447
  21641428.540   113726504.753 8  21641430.720    88618108.19346
  21505159.300   113010407.875 8  21505158.980    88060066.46046
  21722279.300   114151350.949 7  21722278.240    88949108.95846
 13 12 12  1 31 30.0000000  0  6G02G25G12G24G29G14
  23812215.440   125134036.783 7  23812212.680    97507026.43145
  20838739.240   109508323.357 8  20838740.820    85331181.81847
  20896467.880   109811925.839 8  20896466.240    85567851.41447
  21652610.060   113785263.888 8  21652612.220    88663894.52946
  21489109.900   112926067.604 8  21489109.560    87994346.77746
  21715036.060   114113287.503 7  21715034.980    88919449.12546
 13 12 12  1 32  0.0000000  0  6G02G25G12G24G29G14
  23805067.200   125096472.547 7  23805064.540    97477755.59345
  20834544.240   109486278.588 8  20834545.840    85314004.07447
  20904480.340   109854031.551 8  20904478.720    85600661.06147
  21663852.700   113844344.099 8  21663854.780    88709931.05246
  21473132.720   112842107.177 8  21473132.440    87928923.08046
  21707896.520   114075768.796 7  21707895.420    88890213.76346
 13 12 12  1 32 30.0000000  0  6G02G25G12G24G29G14
  23797986.280   125059262.268 7  23797983.580    97448760.57545
  20830398.420   109464492.267 8  20830400.020    85297027.72447
  20912529.260   109896328.927 8  20912527.640    85633620.04747
  21675157.420   113903750.602 8  21675159.440    88756221.83347
  21457229.200   112758533.670 8  21457228.880    87863800.88146
  21700861.820   114038801.096 7  21700860.720    88861407.75946
 13 12 12  1 33  0.0000000  0  6G02G25G12G24G29G14
  23790972.420   125022404.603 7  23790969.600    97420040.30645
  20826301.020   109442960.387 8  20826302.620    85280249.63647
  20920613.680   109938812.840 8  20920612.040    85666724.39147
  21686523.360   113963479.080 8  21686525.400    88802763.49446
  21441398.960   112675345.416 8  21441398.640    87798978.86946
  21693931.460   114002381.895 7  21693930.420    88833029.15346
 13 12 12  1 33 30.0000000  0  6G02G25G12G24G29G14
  23784026.440   124985903.584 7  23784023.600    97391597.99045
  20822252.360   109421684.609 8  20822253.980    85263671.11847
  20928733.780   109981484.391 8  20928732.180    85699974.95047
  21697950.980   114023531.557 8  21697953.040    88849557.62646
  21425642.920   112592546.932 8  21425642.600    87734460.58046
  21687106.160   113966514.714 7  21687105.140    88805080.70046
 13 12 12  1 34  0.0000000  0  6G02G25G12G24G29G14
  23777148.500   124949760.385 7  23777145.720    97363434.46745
  20818252.160   109400663.474 8  20818253.780    85247291.01647
  20936889.340   110024342.127 8  20936887.720    85733370.57047
  21709439.980   114083906.676 8  21709442.080    88896603.16946
  21409961.260   112510139.258 8  21409960.880    87670246.81446
  21680386.040   113931200.245 8  21680384.960    88777562.92646
 13 12 12  1 34 30.0000000  0  6G02G25G12G24G29G14
  23770338.720   124913974.889 7  23770335.960    97335549.68345
  20814299.860   109379894.100 8  20814301.500    85231107.09747
  20945079.520   110067382.007 8  20945077.920    85766908.13747
  21720990.000   114144602.603 8  21720992.120    88943898.68646
  21394353.940   112428122.172 8  21394353.500    87606337.40347
  21673770.920   113896437.552 8  21673769.860    88750475.10346
 13 12 12  1 35  0.0000000  0  6G02G25G12G24G29G14
  23763598.040   124878552.469 7  23763595.300    97307947.77544
  20810396.000   109359379.408 8  20810397.660    85215121.62547
  20953304.820   110110606.306 8  20953303.240    85800589.40347
  21732601.640   114205622.094 8  21732603.740    88991446.33346
  21378822.000   112346501.132 8  21378821.500    87542736.59646
  21667261.700   113862231.179 8  21667260.660    88723820.78646
 13 12 12  1 35 30.0000000  0  6G02G25G12G24G29G14
  23756926.820   124843495.102 7  23756924.180    97280630.38344
  20806540.520   109339118.842 8  20806542.140    85199334.17547
  20961565.120   110154014.425 8  20961563.520    85834413.90547
  21744274.740   114266964.670 8  21744276.860    89039245.73546
  21363365.880   112265278.655 8  21363365.380    87479446.36347
  21660858.600   113828582.488 8  21660857.520    88697601.02746
 13 12 12  1 36  0.0000000  0  6G02G25G12G24G29G14
  23750324.860   124808801.358 7  23750322.120    97253596.32245
  20802732.640   109319108.395 8  20802734.260    85183741.61747
  20969859.420   110197601.390 8  20969857.820    85868377.77647
  21756008.640   114328626.891 8  21756010.820    89087294.21446
  21347985.260   112184453.009 8  21347984.800    87416465.35047
  21654561.260   113795489.572 8  21654560.120    88671814.34546
 13 12 12  1 36 30.0000000  0  6G02G25G12G24G29G14
  23743793.120   124774476.699 7  23743790.360    97226849.83045
  20798972.920   109299351.077 8  20798974.580    85168346.30447
  20978188.160   110241369.195 8  20978186.540    85902482.55147
  21767803.920   114390611.550 7  21767806.120    89135593.94546
  21332681.180   112104029.699 8  21332680.780    87353797.84247
  21648370.540   113762956.759 8  21648369.340    88646464.09346
 13 12 12  1 37  0.0000000  0  6G02G25G12G24G29G14
  23737331.560   124740521.101 7  23737328.620    97200390.91045
  20795260.840   109279843.842 8  20795262.460    85153145.85147
  20986550.720   110285314.761 8  20986549.080    85936725.84747
  21779660.040   114452915.963 7  21779662.280    89184142.82846
  21317453.620   112024008.563 8  21317453.300    87291443.72447
  21642286.180   113730983.073 8  21642284.960    88621549.53546
 13 12 12  1 37 30.0000000  0  6G02G25G12G24G29G14
  23730941.220   124706939.645 7  23730938.060    97174223.52545
  20791596.940   109260589.917 8  20791598.580    85138142.79547
  20994947.620   110329440.826 8  20994946.000    85971109.78147
  21791577.680   114515543.486 7  21791579.880    89232943.49146
  21302303.660   111944395.230 8  21302303.360    87229407.36947
  21636309.080   113699573.345 8  21636307.920    88597074.42046
 13 12 12  1 38  0.0000000  0  6G02G25G12G24G29G14
  23724621.420   124673728.528 7  23724618.120    97148344.75345
  20787980.020   109241582.835 8  20787981.680    85123332.08547
  21003377.480   110373740.034 8  21003375.860    86005628.64347
  21803555.680   114578488.351 7  21803557.860    89281991.43446
  21287230.560   111865185.639 8  21287230.240    87167685.62646
  21630438.440   113668722.845 8  21630437.280    88573035.07646
 13 12 12  1 38 30.0000000  0  6G02G25G12G24G29G14
  23718373.020   124640892.199 7  23718369.680    97122757.99845
  20784410.440   109222824.358 8  20784412.040    85108715.08247
  21011840.540   110418213.790 8  21011838.920    86040283.50847
  21815594.280   114641751.779 7  21815596.480    89331287.60546
  21272235.160   111786384.383 8  21272234.840    87106282.06647
  21624674.920   113638435.270 8  21624673.740    88549434.36946
 13 12 12  1 39  0.0000000  0  6G02G25G12G24G29G14
  23712196.540   124608433.690 7  23712193.100    97097465.65145
  20780888.320   109204315.303 8  20780889.920    85094292.45047
  21020336.860   110462862.327 8  21020335.240    86075074.57747
  21827693.780   114705335.340 7  21827696.020    89380833.22746
  21257318.120   111707994.824 8  21257317.760    87045199.30847
  21619018.940   113608712.881 8  21619017.800    88526274.05846
 13 12 12  1 39 30.0000000  0  6G02G25G12G24G29G14
  23706092.440   124576355.682 7  23706088.900    97072469.81445
  20777413.720   109186055.939 8  20777415.300    85080064.37047
  21028866.300   110507684.826 8  21028864.700    86110001.19247
  21839854.300   114769239.409 7  21839856.560    89430628.60246
  21242479.940   111630019.735 8  21242479.600    86984439.51147
  21613470.820   113579557.448 8  21613469.740    88503555.53346
 13 12 12  1 40  0.0000000  0  6G02G25G12G24G29G14
  23700061.120   124544659.964 7  23700057.520    97047771.87545
  20773986.460   109168045.498 8  20773988.040    85066030.25647
  21037428.720   110552680.784 8  21037427.160    86145062.97947
  21852075.640   114833462.937 7  21852077.920    89480672.89946
  21227720.940   111552460.677 8  21227720.600    86924003.89347
  21608030.720   113550969.889 8  21608029.760    88481279.51746
 13 12 12  1 41  0.0000000  0  6G02G25G12G24G29G14
  23688217.920   124482423.623 7  23688214.480    96999276.02745
  20767273.840   109132770.492 8  20767275.440    85038543.25047
  21054651.980   110643189.557 8  21054650.420    86215589.27847
  21876700.920   114962869.339 7  21876703.180    89581509.05246
  21198442.080   111398599.374 8  21198441.780    86804111.98347
  21597475.960   113495504.624 7  21597475.120    88438059.82446
 13 12 12  1 41 30.0000000  0  6G02G25G12G24G29G14
  23682406.600   124451885.448 7  23682403.160    96975480.04845
  20763988.060   109115503.656 8  20763989.680    85025088.58047
  21063312.000   110688698.354 8  21063310.460    86251050.66547
  21889104.380   115028049.885 7  21889106.600    89632299.08246
  21183922.860   111322300.245 8  21183922.540    86744658.12647
  21592361.380   113468627.472 7  21592360.620    88417116.58746
 13 12 12  1 42  0.0000000  0  6G02G25G12G24G29G14
  23676668.920   124421733.788 7  23676665.360    96951985.25545
  20760748.600   109098480.303 8  20760750.260    85011823.62147
  21072003.600   110734373.033 8  21072002.060    86286641.32247
  21901567.900   115093545.810 7  21901570.020    89683334.86146
  21169483.680   111246421.750 8  21169483.320    86685532.03147
  21587355.120   113442319.458 8  21587354.400    88396616.83446
 13 12 12  1 42 30.0000000  0  6G02G25G12G24G29G14
  23671005.540   124391972.452 7  23671002.080    96928794.59745
  20757555.700   109081701.639 8  20757557.380    84998749.33547
  21080726.960   110780214.626 8  21080725.460    86322362.04047
  21914091.480   115159357.535 7  21914093.560    89734616.72546
  21155125.180   111170967.310 8  21155124.820    86626736.36547
  21582457.620   113416582.909 8  21582456.920    88376562.37446
 13 12 12  1 43  0.0000000  0  6G02G25G12G24G29G14
  23665417.080   124362604.862 7  23665413.760    96905910.77346
  20754409.680   109065169.279 8  20754411.380    84985866.97747
  21089482.140   110826223.460 8  21089480.660    86358213.07947
  21926675.620   115225487.393 7  21926677.660    89786146.48246
  21140848.140   111095941.053 8  21140847.760    86568274.35747
  21577669.420   113391420.793 8  21577668.660    88356955.52646
 13 12 12  1 43 30.0000000  0  6G02G25G12G24G29G14
  23659903.500   124333630.851 7  23659900.340    96883333.62245
  20751310.040   109048880.642 8  20751311.740    84973174.52947
  21098268.480   110872396.140 8  21098267.040    86394191.78747
  21939319.680   115291932.492 7  21939321.740    89837921.88246
  21126652.560   111021342.837 8  21126652.160    86510145.88347
  21572990.340   113366832.075 8  21572989.520    88337795.47946
 13 12 12  1 44  0.0000000  0  6G02G25G12G24G29G14
  23654465.160   124305052.160 7  23654461.980    96861064.51445
  20748256.660   109032835.054 8  20748258.340    84960671.47347
  21107085.980   110918732.408 8  21107084.580    86430297.97247
  21952023.680   115358692.374 7  21952025.700    89889942.56346
  21112538.760   110947174.394 8  21112538.340    86452352.29747
  21568420.640   113342817.892 8  21568419.720    88319083.12746
 13 12 12  1 44 30.0000000  0  6G02G25G12G24G29G14
  23649102.480   124276871.544 7  23649099.540    96839105.61145
  20745249.580   109017032.994 8  20745251.300    84948358.17947
  21115934.440   110965231.605 8  21115933.100    86466531.11047
  21964787.740   115425767.949 7  21964789.780    89942209.23246
  21098507.280   110873438.440 8  21098506.860    86394895.71847
  21563960.620   113319379.803 8  21563959.600    88300819.67746
 13 12 12  1 45  0.0000000  0  7G31G02G25G12G24G29G14
  24619491.340   129376295.877 6  24619490.940   100812692.95344
  23643816.640   124249095.295 7  23643813.980    96817461.79245
  20742289.620   109001478.486 8  20742291.320    84936237.78347
  21124814.580   111011897.302 8  21124813.320    86502894.00047
  21977612.500   115493162.680 7  21977614.580    89994724.60846
  21084559.320   110800141.397 8  21084558.880    86337781.14347
  21559611.180   113296523.171 8  21559610.060    88283009.30946
 13 12 12  1 45 30.0000000  0  7G31G02G25G12G24G29G14
  24602110.700   129284960.744 6  24602109.360   100741522.70744
  23638609.180   124221730.572 7  23638606.440    96796138.64445
  20739377.780   108986176.779 8  20739379.480    84924314.37947
  21133727.440   111058735.000 8  21133726.220    86539390.89947
  21990499.100   115560882.241 7  21990501.220    90047493.08946
  21070696.340   110727290.998 8  21070695.920    86281014.60647
  21555373.700   113274255.027 8  21555372.500    88265657.50846
 13 12 12  1 46  0.0000000  0  7G31G02G25G12G24G29G14
  24584722.180   129193585.288 6  24584720.840   100670321.07045
  23633475.280   124194752.487 7  23633472.540    96775116.74945
  20736508.800   108971100.361 8  20736510.500    84912566.51747
  21142667.680   111105716.504 8  21142666.500    86575999.85947
  22003442.240   115628898.833 7  22003444.320    90100493.02446
  21056913.560   110654862.008 8  21056913.160    86224576.44547
  21551243.120   113252548.829 8  21551241.920    88248743.58646
 13 12 12  1 46 30.0000000  0  7G31G02G25G12G24G29G14
  24567329.680   129102188.655 6  24567328.540   100599102.91444
  23628418.780   124168180.791 7  23628416.160    96754411.55245
  20733686.040   108956266.701 8  20733687.700    84901007.82547
  21151638.400   111152858.182 8  21151637.260    86612733.63247
  22016445.340   115697230.356 7  22016447.380    90153738.35846
  21043214.640   110582873.832 8  21043214.260    86168481.77447
  21547223.000   113231423.290 8  21547221.840    88232282.12646
 13 12 12  1 47  0.0000000  0  7G31G02G25G12G24G29G14
  24549933.240   129010770.579 6  24549932.500   100527868.09145
  23623439.740   124142015.888 7  23623437.300    96734023.32945
  20730909.180   108941674.067 8  20730910.800    84889636.95447
  21160639.280   111200158.281 8  21160638.180    86649590.84547
  22029507.980   115765874.921 7  22029509.980    90207227.63046
  21029599.800   110511327.393 8  21029599.420    86112731.31547
  21543313.320   113210877.961 8  21543312.220    88216272.77146
 13 12 12  1 47 30.0000000  0  7G31G02G25G12G24G29G14
  24532532.840   128919331.151 6  24532532.400   100456616.58945
  23618538.280   124116257.998 7  23618535.680    96713952.23945
  20728177.820   108927320.521 8  20728179.420    84878452.37647
  21169669.820   111247614.236 8  21169668.740    86686569.50847
  22042629.760   115834830.328 7  22042631.720    90260959.11346
  21016069.080   110440223.095 8  21016068.720    86057325.38347
  21539513.980   113190912.513 8  21539513.040    88200715.26746
 13 12 12  1 48  0.0000000  0  7G31G02G25G12G24G29G14
  24515128.780   128827871.644 6  24515128.420   100385349.47145
  23613714.540   124090908.827 7  23613711.700    96694199.65245
  20725491.900   108913205.666 8  20725493.440    84867453.79147
  21178729.880   111295225.204 8  21178728.800    86723668.95347
  22055810.680   115904096.572 7  22055812.640    90314932.80246
  21002622.840   110369562.714 8  21002622.460    86002265.35647
  21535825.140   113171527.806 8  21535824.360    88185610.28646
 13 12 12  1 48 30.0000000  0  7G31G02G25G12G24G29G14
  24497721.160   128736392.786 6  24497720.700   100314067.28445
  23608968.960   124065969.873 7  23608965.900    96674766.70445
  20722851.220   108899328.565 8  20722852.720    84856640.46547
  21187819.160   111342989.669 8  21187818.120    86760888.01947
  22069050.480   115973672.353 7  22069052.420    90369147.67846
  20989261.340   110299347.565 8  20989260.920    85947552.26547
  21532246.820   113152723.734 8  21532246.120    88170957.74846
 13 12 12  1 49  0.0000000  0  7G31G02G25G12G24G29G14
  24480310.380   128644897.066 6  24480309.680   100242771.95544
  23604302.000   124041443.504 7  23604298.740    96655655.24745
  20720255.920   108885689.859 8  20720257.320    84846012.89847
  21196937.860   111390908.709 8  21196936.840    86798227.52447
  22082349.360   116043558.576 7  22082351.360    90423604.46946
  20975985.100   110229580.382 8  20975984.660    85893188.24147
  21528779.400   113134502.227 8  21528778.740    88156759.15546
 13 12 12  1 49 30.0000000  0  7G31G02G25G12G24G29G14
  24462896.820   128553387.573 6  24462896.080   100171465.90245
  23599714.120   124017333.440 7  23599710.840    96636868.19945
  20717706.220   108872290.880 8  20717707.600    84835572.13347
  21206085.980   111438982.406 8  21206084.960    86835687.54447
  22095707.620   116113756.677 7  22095709.660    90478304.27646
  20962794.760   110160264.625 8  20962794.300    85839175.97747
  21525423.320   113116865.711 8  21525422.620    88143016.40046
 13 12 12  1 50  0.0000000  0  7G31G02G25G12G24G29G14
  24445480.900   128461866.585 6  24445480.220   100100150.87545
  23595205.620   123993642.051 7  23595202.400    96618407.37245
  20715202.200   108859132.019 8  20715203.560    84825318.47147
  21215263.600   111487210.896 8  21215262.500    86873268.18847
  22109125.120   116184266.042 7  22109127.180    90533246.63046
  20949690.820   110091403.022 8  20949690.380    85785517.59947
  21522178.900   113099815.895 8  21522178.140    88129730.82046
 13 12 12  1 50 30.0000000  0  7G31G02G25G12G24G29G14
  24428062.020   128370330.602 6  24428061.580   100028824.17145
  23590776.240   123970366.356 7  23590773.160    96600270.47945
  20712742.880   108846208.145 8  20712744.220    84815247.91347
  21224469.560   111535588.356 8  21224468.460    86910964.91047
  22122601.040   116255082.243 7  22122603.100    90588428.08346
  20936672.740   110022992.681 8  20936672.320    85732210.85447
  21519045.340   113083348.532 8  21519044.500    88116899.10246
 13 12 12  1 51  0.0000000  0  7G31G02G25G12G24G29G14
  24410641.160   128278785.038 6  24410640.940    99957490.00145
  23586427.100   123947512.033 7  23586424.180    96582461.92045
  20710328.940   108833522.912 8  20710330.340    84805363.32247
  21233704.620   111584118.672 8  21233703.480    86948780.72846
  22136135.940   116326208.736 7  22136138.020    90643851.31446
  20923741.600   109955039.307 8  20923741.220    85679260.18247
  21516023.520   113067468.461 8  21516022.620    88104525.01746
 13 12 12  1 51 30.0000000  0  7G31G02G25G12G24G29G14
  24393218.060   128187227.496 6  24393217.800    99886146.49245
  23582157.880   123925077.141 7  23582155.020    96564980.18245
  20707959.640   108821072.198 8  20707961.060    84795661.45547
  21242967.840   111632797.043 8  21242966.660    86986711.92447
  22149729.040   116397640.971 7  22149731.160    90699512.78046
  20910897.060   109887540.836 8  20910896.680    85626663.98247
  21513112.820   113052172.469 8  21513111.840    88092606.06046
 13 12 12  1 52  0.0000000  0  7G31G02G25G12G24G29G14
  24375792.840   128095657.893 6  24375792.700    99814793.60445
  23577968.460   123903061.685 7  23577965.560    96547825.27945
  20705634.560   108808854.026 8  20705636.060    84786140.81147
  21252258.780   111681621.081 8  21252257.580    87024756.62047
  22163380.020   116469377.387 7  22163382.120    90755411.27746
  20898139.100   109820497.060 8  20898138.620    85574422.09147
  21510313.120   113037459.841 8  21510312.040    88081141.66646
 13 12 12  1 53  0.0000000  0  7G31G02G25G12G24G29G14
  24340938.460   127912495.524 6  24340938.100    99672069.74145
  23569831.640   123860301.995 7  23569828.480    96514506.02145
  20701118.120   108785120.207 8  20701119.680    84767646.92947
  21270924.260   111779708.667 8  21270923.040    87101188.49746
  22190856.320   116613766.202 7  22190858.400    90867922.02446
  20872885.540   109687788.727 8  20872885.040    85471013.02547
  21505048.360   113009793.454 8  21505047.280    88059583.42446
 13 12 12  1 53 30.0000000  0  7G31G02G25G12G24G29G14
  24323509.820   127820906.325 6  24323509.320    99600701.54545
  23565884.960   123839561.975 7  23565881.760    96498344.96545
  20698926.780   108773604.887 8  20698928.400    84758673.94847
  21280298.820   111828972.207 8  21280297.560    87139575.66646
  22204681.660   116686418.613 7  22204683.680    90924534.28046
  20860390.740   109622128.412 8  20860390.260    85419849.15647
  21502583.660   112996841.638 8  21502582.600    88049491.08846
 13 12 12  1 54  0.0000000  0  7G31G02G25G12G24G29G14
  24306080.500   127729314.278 6  24306079.880    99529331.13345
  23562019.960   123819251.271 7  23562016.700    96482518.45945
  20696780.060   108762324.042 8  20696781.740    84749883.69847
  21289701.160   111878381.619 8  21289699.840    87178076.49246
  22218565.040   116759376.149 7  22218567.080    90981384.30846
  20847984.480   109556933.383 8  20847984.020    85369047.85347
  21500231.080   112984478.794 8  21500230.020    88039857.69746
 13 12 12  1 54 30.0000000  0  7G31G02G25G12G24G29G14
  24288650.760   127637720.360 6  24288650.000    99457959.24145
  23558236.880   123799370.952 7  23558233.580    96467027.29045
  20694677.840   108751276.954 8  20694679.560    84741275.58547
  21299131.140   111927936.236 8  21299129.740    87216690.46646
  22232506.340   116832638.311 7  22232508.400    91038471.68746
  20835667.000   109492204.718 8  20835666.540    85318609.94047
  21497990.600   112972704.966 8  21497989.560    88030683.27546
 13 12 12  1 55  0.0000000  0  7G31G02G25G12G24G29G14
  24271220.520   127546124.299 7  24271219.940    99386585.69245
  23554535.680   123779920.867 7  23554532.240    96451871.37045
  20692619.680   108740461.384 8  20692621.420    84732847.86647
  21308588.100   111977632.741 8  21308586.620    87255415.00846
  22246505.080   116906202.481 7  22246507.200    91095794.39646
  20823438.260   109427942.334 8  20823437.800    85268535.36847
  21495861.980   112961518.882 8  21495860.920    88021966.83446
 13 12 12  1 55 30.0000000  0  7G31G02G25G12G24G29G14
  24253790.260   127454528.156 7  24253789.820    99315212.07645
  23550916.720   123760902.949 7  23550913.240    96437052.21945
  20690605.620   108729877.443 8  20690607.340    84724600.64447
  21318072.100   112027471.397 8  21318070.620    87294250.31446
  22260561.320   116980068.710 7  22260563.480    91153352.49046
  20811298.700   109364148.439 8  20811298.180    85218825.84547
  21493845.500   112950921.896 8  21493844.420    88013709.43146
 13 12 12  1 56  0.0000000  0  7G31G02G25G12G24G29G14
  24236360.300   127362933.471 7  24236359.780    99243839.64645
  23547380.160   123742318.503 7  23547376.720    96422570.81845
  20688635.520   108719524.471 8  20688637.260    84716533.39347
  21327582.940   112077451.275 8  21327581.520    87333195.66546
  22274674.900   117054236.176 7  22274677.120    91211145.30946
  20799248.560   109300824.429 8  20799248.020    85169482.46547
  21491941.020   112940913.775 8  21491939.960    88005910.88846
 13 12 12  1 56 30.0000000  0  7G31G02G25G12G24G29G14
  24218930.900   127271341.150 7  24218930.380    99172469.01945
  23543926.260   123724168.404 7  23543922.940    96408427.88845
  20686709.240   108709401.730 8  20686710.960    84708645.54747
  21337120.400   112127571.084 8  21337119.020    87372250.05046
  22288845.580   117128703.478 7  22288847.800    91269171.75646
  20787288.040   109237971.417 8  20787287.500    85120506.10047
  21490148.560   112931494.198 8  21490147.500    87998570.94946
 13 12 12  1 57  0.0000000  0  7G31G02G25G12G24G29G14
  24201502.160   127179752.094 7  24201501.520    99101100.92545
  23540555.220   123706454.029 7  23540552.140    96394624.48945
  20684826.580   108699508.417 8  20684828.320    84700936.47847
  21346684.240   112177829.697 8  21346682.860    87411412.59546
  22303073.160   117203469.769 7  22303075.400    91327431.19446
  20775417.260   109175589.866 8  20775416.700    85071897.10147
  21488468.140   112922663.450 8  21488467.100    87991689.83646
 13 12 12  1 57 30.0000000  0  7G31G02G25G12G24G29G14
  24184074.780   127088170.147 6  24184074.000    99029738.38845
  23537267.860   123689178.935 7  23537264.800    96381163.39445
  20682987.960   108689846.277 8  20682989.660    84693407.54447
  21356274.820   112228228.587 8  21356273.420    87450684.43946
  22317357.920   117278536.510 7  22317360.180    91385924.74546
  20763637.040   109113684.502 8  20763636.500    85023659.16647
  21486900.160   112914423.783 8  21486899.180    87985269.30446
 13 12 12  1 58  0.0000000  0  7G31G02G25G12G24G29G14
  24166648.520   126996594.273 6  24166647.780    98958380.56144
  23534063.880   123672341.880 7  23534060.680    96368043.60545
  20681192.760   108680412.403 8  20681194.420    84686056.47847
  21365891.440   112278764.371 8  21365890.100    87490062.97446
  22331699.300   117353900.750 7  22331701.460    91444650.12146
  20751947.160   109052254.068 8  20751946.680    84975791.31147
  21485444.420   112906773.728 8  21485443.460    87979308.21946
 13 12 12  1 58 30.0000000  0  7G31G02G25G12G24G29G14
  24149224.120   126905028.961 6  24149223.700    98887031.01145
  23530944.180   123655947.628 7  23530940.960    96355268.86345
  20679441.600   108671209.825 8  20679443.220    84678885.63747
  21375534.620   112329439.648 8  21375533.280    87529550.19346
  22346097.780   117429565.176 7  22346099.860    91503609.39746
  20740348.500   108991303.050 8  20740348.080    84928297.02047
  21484101.400   112899716.039 8  21484100.420    87973808.71346
 13 12 12  1 59  0.0000000  0  7G31G02G25G12G24G29G14
  24131801.480   126813473.431 6  24131801.400    98815689.09745
  23527908.480   123639995.216 7  23527905.400    96342838.43045
  20677733.900   108662235.682 8  20677735.460    84671892.79147
  21385203.780   112380251.421 8  21385202.440    87569143.77646
  22360552.800   117505526.696 7  22360554.820    91562800.18546
  20728840.980   108930830.556 8  20728840.520    84881175.60047
  21482870.720   112893248.759 8  21482869.780    87968769.26746
 13 12 12  1 59 30.0000000  0  7G31G02G25G12G24G29G14
  24114380.840   126721928.679 6  24114380.960    98744355.51245
  23524957.000   123624484.711 7  23524954.000    96330752.31045
  20676069.420   108653488.671 8  20676070.960    84665076.93947
  21394898.620   112431198.155 8  21394897.300    87608842.51146
  22375064.020   117581783.585 7  22375066.000    91622221.12346
  20717424.620   108870836.990 8  20717424.140    84834427.37547
  21481752.300   112887371.328 8  21481751.340    87964189.43646
