     2.11           OBSERVATION DATA    G (GPS)             RINEX VERSION / TYPE
teqc  2015Nov6      RinexTools-CRAAG    20161009 23:07:02UTCPGM / RUN BY / DATE
Linux2.4.20-8|i386|gcc|Win32-MinGW32|=                      COMMENT
BIT 2 OF LLI FLAGS DATA COLLECTED UNDER A/S CONDITION       COMMENT
ABZH                                                        MARKER NAME
ABZH                                                        MARKER NUMBER
-Unknown-           C.R.A.A.G.                              OBSERVER / AGENCY
462405              LEICA GRX1200PRO    8.20/2.127          REC # / TYPE / VERS
                    LEIAT504        NONE                    ANT # / TYPE
  5106715.6603   270605.8996  3799527.8127                  APPROX POSITION XYZ
        0.0770        0.0000        0.0000                  ANTENNA: DELTA H/E/N
     1     1                                                WAVELENGTH FACT L1/2
     4    C1    L1    P2    L2                              # / TYPES OF OBSERV
    30.0000                                                 INTERVAL
SPIDER                                                      COMMENT
Made by Spider v4.0.0                                       COMMENT
Project creator:                                            COMMENT
                                                            COMMENT
 SNR is mapped to RINEX snr flag value [0-9]                COMMENT
  L1 & L2: min(max(int(snr_dBHz/6), 0), 9)                  COMMENT
teqc edited: all GLONASS satellites excluded                COMMENT
  2014     1    10     0     0    0.0000000     GPS         TIME OF FIRST OBS
                                                            END OF HEADER
 14  1 10  0  0  0.0000000  0  7G02G31G25G14G24G12G29
  23192018.320   121874876.563 7  23192015.640    94967421.32446
  24385632.520   128147359.912 6  24385631.740    99855086.17645
  20721765.060   108893676.565 8  20721766.600    84852258.45848
  21670519.980   113879354.000 7  21670519.300    88737146.69147
  22232125.660   116830665.164 7  22232128.220    91036920.56847
  21155988.480   111175600.830 8  21155987.680    86630386.06547
  20933761.760   110007747.912 8  20933761.360    85720356.03648
 14  1 10  0  0 30.0000000  0  7G02G31G25G14G24G12G29
  23188501.380   121856395.100 7  23188498.780    94953020.21146
  24367631.800   128052766.112 6  24367630.880    99781376.75045
  20718639.260   108877250.580 8  20718640.860    84839458.98548
  21670317.120   113878287.264 7  21670316.320    88736315.46847
  22247020.100   116908935.998 7  22247022.740    91097910.82047
  21164470.460   111220174.004 8  21164469.640    86665118.40247
  20921151.840   109941482.414 8  20921151.460    85668720.59448
 14  1 10  0  1  0.0000000  0  7G02G31G25G14G24G12G29
  23185071.080   121838369.253 7  23185068.660    94938974.11146
  24349634.160   127958188.325 7  24349633.040    99707679.81645
  20715557.040   108861053.906 8  20715558.760    84826838.20448
  21670226.380   113877810.233 7  21670225.540    88735943.75047
  22261973.480   116987516.291 7  22261976.180    91159142.20547
  21172983.280   111264909.509 8  21172982.400    86699977.23747
  20908627.920   109875669.123 8  20908627.640    85617437.52248
 14  1 10  0  1 30.0000000  0  7G02G31G25G14G24G12G29
  23181727.360   121820798.761 7  23181725.060    94925282.83546
  24331639.600   127863626.807 7  24331638.360    99633995.54346
  20712518.120   108845084.828 8  20712519.980    84814394.77148
  21670247.580   113877921.527 7  21670246.720    88736030.46647
  22276985.440   117066404.048 7  22276988.100    91220613.18747
  21181526.780   111309806.054 8  21181525.820    86734961.55447
  20896190.060   109810308.358 8  20896189.900    85566507.05548
 14  1 10  0  2  0.0000000  0  7G02G31G25G14G24G12G29
  23178470.540   121803684.041 7  23178468.140    94911946.71846
  24313648.300   127769082.216 7  24313647.080    99560324.45846
  20709522.340   108829342.148 8  20709524.300    84802127.74948
  21670380.560   113878620.405 7  21670379.760    88736575.03847
  22292055.320   117145596.928 7  22292057.980    91282321.91847
  21190100.540   111354861.362 8  21190099.520    86770069.57647
  20883838.360   109745400.396 8  20883838.280    85515929.42748
 14  1 10  0  2 30.0000000  0  7G02G31G25G14G24G12G29
  23175300.880   121787027.365 7  23175298.300    94898967.51046
  24295660.680   127674557.203 7  24295659.560    99486668.64446
  20706569.840   108813826.669 8  20706571.760    84790037.76848
  21670625.480   113879907.045 7  21670624.640    88737577.61047
  22307183.340   117225095.112 7  22307185.920    91344268.55147
  21198704.620   111400075.832 8  21198703.520    86805301.62847
  20871573.320   109680947.304 8  20871573.240    85465706.25148
 14  1 10  0  3  0.0000000  0  7G02G31G25G14G24G12G29
  23172218.620   121770829.769 7  23172215.900    94886346.02446
  24277677.020   127580052.965 7  24277675.960    99413028.99746
  20703660.520   108798537.873 8  20703662.380    84778124.41948
  21670982.120   113881781.146 7  21670981.280    88739037.93647
  22322369.240   117304897.455 7  22322371.740    91406452.18347
  21207338.780   111445448.635 8  21207337.600    86840657.05447
  20859395.160   109616950.397 8  20859395.040    85415838.54148
 14  1 10  0  3 30.0000000  0  7G02G31G25G14G24G12G29
  23169223.780   121755092.099 7  23169221.080    94874082.90846
  24259697.560   127485570.906 7  24259696.480    99339406.64246
  20700794.280   108783475.426 8  20700796.160    84766387.45048
  21671450.500   113884242.318 7  21671449.700    88740955.72947
  22337612.700   117385002.420 7  22337615.100    91468871.63647
  21216003.000   111490979.209 8  21216001.620    86876135.41047
  20847304.060   109553410.922 8  20847303.820    85366327.27048
 14  1 10  0  4  0.0000000  0  7G02G31G25G14G24G12G29
  23166316.540   121739814.723 7  23166313.960    94862178.46846
  24241722.480   127391111.594 7  24241721.360    99265802.00945
  20697970.780   108768637.754 8  20697972.640    84754825.62448
  21672030.200   113887288.738 7  21672029.480    88743329.55447
  22352913.400   117465408.341 7  22352915.780    91531525.61147
  21224696.800   111536665.213 8  21224695.420    86911734.88447
  20835299.960   109490328.762 8  20835299.700    85317172.34848
 14  1 10  0  4 30.0000000  0  7G02G31G25G14G24G12G29
  23163497.180   121724998.894 7  23163494.700    94850633.69046
  24223752.060   127296676.880 6  24223751.020    99192216.53946
  20695190.060   108754025.038 8  20695191.840    84743439.08648
  21672721.340   113890920.837 7  21672720.680    88746159.75147
  22368271.160   117546114.146 7  22368273.620    91594413.23947
  21233420.120   111582506.582 8  21233418.840    86947455.42947
  20823383.080   109427705.377 8  20823382.920    85268374.91648
 14  1 10  0  5  0.0000000  0  7G02G31G25G14G24G12G29
  23160765.900   121710646.489 7  23160763.640    94839450.00446
  24205786.940   127202270.034 6  24205786.020    99118652.79346
  20692452.340   108739638.337 8  20692454.060    84732228.66848
  21673523.960   113895139.165 7  21673523.300    88749446.76047
  22383686.080   117627120.118 7  22383688.560    91657534.76347
  21242173.160   111628503.876 8  21242171.920    86983297.47247
  20811554.060   109365543.696 8  20811554.040    85219937.24948
 14  1 10  0  5 30.0000000  0  7G02G31G25G14G24G12G29
  23158123.120   121696758.647 7  23158120.800    94828628.30946
  24187827.200   127107891.305 6  24187826.360    99045110.93146
  20689757.440   108725476.718 8  20689759.200    84721193.63848
  21674438.040   113899942.945 7  21674437.380    88753189.95347
  22399157.840   117708424.690 7  22399160.340    91720888.96647
  21250955.780   111674656.537 8  21250954.580    87019260.57947
  20799812.900   109303843.873 8  20799813.000    85171859.46848
 14  1 10  0  6  0.0000000  0  7G02G31G25G14G24G12G29
  23155568.620   121683334.498 7  23155566.200    94818167.95646
  24169873.020   127013540.858 7  24169872.160    98971591.12046
  20687105.000   108711538.168 8  20687106.820    84710332.43048
  21675463.100   113905329.771 7  21675462.340    88757387.48247
  22414685.840   117790025.091 7  22414688.400    91784473.68047
  21259767.260   111720961.332 8  21259766.220    87055342.23147
  20788159.600   109242605.457 8  20788159.740    85124141.23148
 14  1 10  0  6 30.0000000  0  7G02G31G25G14G24G12G29
  23153103.080   121670377.352 7  23153100.460    94808071.50046
  24151925.100   126919222.972 7  24151924.080    98898096.67246
  20684495.480   108697824.995 8  20684497.340    84699646.84348
  21676599.540   113911301.680 7  21676598.720    88762040.90347
  22430270.320   117871922.467 7  22430273.000    91848289.80947
  21268608.140   111767420.673 8  21268607.120    87091544.30447
  20776594.960   109181832.522 8  20776595.000    85076785.70548
 14  1 10  0  7  0.0000000  0  7G02G31G25G14G24G12G29
  23150726.400   121657887.885 7  23150723.880    94798339.45046
  24133983.460   126824938.400 6  24133982.380    98824628.18646
  20681928.680   108684336.181 8  20681930.560    84689136.08348
  21677847.060   113917857.555 7  21677846.340    88767149.36147
  22445910.980   117954115.121 7  22445913.780    91912336.02147
  21277478.020   111814032.669 8  21277477.020    87127865.33647
  20765118.940   109121524.926 8  20765118.760    85029792.77948
 14  1 10  0  7 30.0000000  0  7G02G31G25G14G24G12G29
  23148439.160   121645868.930 7  23148436.740    94788974.05446
  24116048.740   126730690.644 6  24116047.600    98751188.39346
  20679404.840   108671073.323 8  20679406.700    84678801.38648
  21679205.980   113924998.707 7  21679205.300    88772713.88947
  22461607.980   118036603.546 7  22461610.880    91976612.70647
  21286377.180   111860798.383 8  21286376.200    87164306.14647
  20753732.060   109061685.737 8  20753731.700    84983164.85648
 14  1 10  0  8  0.0000000  0  7G02G31G25G14G24G12G29
  23146240.940   121634318.210 7  23146238.780    94779973.49346
  24098120.740   126636478.145 7  24098119.620    98677776.06946
  20676923.280   108658032.931 8  20676925.140    84668640.04648
  21680675.580   113932721.197 7  21680674.860    88778731.39747
  22477360.500   118119383.514 7  22477363.420    92041116.57947
  21295305.060   111907714.862 8  21295304.080    87200864.43347
  20742433.860   109002313.017 8  20742433.400    84936900.40948
 14  1 10  0  8 30.0000000  0  7G02G31G25G14G24G12G29
  23144131.940   121623236.354 7  23144130.060    94771338.29146
  24080199.800   126542302.342 7  24080198.600    98604392.34446
  20674483.920   108645214.489 8  20674485.820    84658651.64948
  21682255.600   113941024.313 7  21682254.920    88785201.35447
  22493168.360   118202453.782 7  22493171.180    92105846.64447
  21304261.460   111954780.975 8  21304260.440    87237539.31647
  20731224.500   108943407.740 8  20731224.120    84891000.20348
 14  1 10  0  9  0.0000000  0  7G02G31G25G14G24G12G29
  23142113.000   121612627.315 7  23142111.160    94763071.54046
  24062286.720   126448168.032 7  24062285.480    98531040.95746
  20672087.420   108632620.801 8  20672089.320    84648838.38648
  21683946.500   113949910.418 7  21683945.920    88792125.57747
  22509031.820   118285816.472 7  22509034.600    92170804.57447
  21313246.720   112001998.764 8  21313245.620    87274332.39247
  20720104.740   108884973.629 8  20720104.500    84845467.14548
 14  1 10  0  9 30.0000000  0  7G02G31G25G14G24G12G29
  23140184.340   121602492.170 7  23140182.360    94755174.01846
  24044381.760   126354076.620 7  24044380.460    98457722.98746
  20669733.680   108620251.659 8  20669735.600    84639200.09848
  21685748.200   113959378.799 7  21685747.720    88799503.53047
  22524950.580   118369469.932 7  22524953.360    92235989.08147
  21322260.840   112049367.611 8  21322259.640    87311243.17447
  20709074.880   108827011.773 8  20709074.700    84800302.06448
 14  1 10  0 10  0.0000000  0  7G02G31G25G14G24G12G29
  23138345.720   121592829.650 7  23138343.500    94747644.80246
  24026484.880   126260027.691 7  24026483.540    98384438.10846
  20667422.200   108608104.834 8  20667424.180    84629735.03348
  21687660.320   113969427.081 7  21687659.900    88807333.35047
  22540924.120   118453411.272 7  22540926.880    92301397.90447
  21331303.320   112096885.234 8  21331302.000    87348269.88147
  20698134.780   108769521.386 8  20698134.580    84755504.37048
 14  1 10  0 10 30.0000000  0  7G02G31G25G14G24G12G29
  23136597.220   121583640.587 7  23136594.880    94740484.51446
  24008596.440   126166022.955 7  24008595.120    98311187.68946
  20665152.920   108596179.905 8  20665154.960    84620442.88548
  21689682.620   113980054.226 7  21689682.260    88815614.24047
  22556952.240   118537639.307 7  22556954.900    92367030.11847
  21340373.960   112144551.091 8  21340372.560    87385412.09747
  20687284.600   108712503.510 8  20687284.460    84711074.87848
 14  1 10  0 11  0.0000000  0  7G02G31G25G14G24G12G29
  23134939.240   121574927.470 7  23134936.860    94733695.09446
  23990716.980   126072065.680 7  23990715.640    98237974.25846
  20662926.180   108584478.071 8  20662928.160    84611324.57548
  21691815.160   113991260.837 7  21691814.820    88824346.66647
  22573035.020   118622154.108 7  22573037.420    92432885.79746
  21349472.760   112192365.590 8  21349471.340    87422670.14647
  20676524.820   108655960.327 8  20676524.660    84667015.26348
 14  1 10  0 11 30.0000000  0  7G02G31G25G14G24G12G29
  23133372.020   121566691.936 7  23133369.760    94727277.79546
  23972846.860   125978158.115 7  23972845.580    98164799.53846
  20660741.960   108572999.909 8  20660743.940    84602380.54948
  21694057.980   114003046.880 7  21694057.640    88833530.59447
  22589172.120   118706954.847 7  22589174.400    92498964.30347
  21358599.840   112240329.108 8  21358598.460    87460044.30447
  20665855.720   108599893.562 8  20665855.540    84623326.89248
 14  1 10  0 12  0.0000000  0  7G02G31G25G14G24G12G29
  23131895.940   121558934.660 7  23131893.600    94721233.15746
  23954986.500   125884302.290 7  23954985.360    98091665.14646
  20658600.220   108561745.376 8  20658602.300    84593610.78648
  21696411.000   114015412.076 7  21696410.660    88843165.81347
  22605363.480   118792041.249 7  22605365.900    92565265.39047
  21367755.260   112288441.193 8  21367753.960    87497534.23247
  20655277.460   108544304.357 8  20655277.260    84580010.63748
 14  1 10  0 12 30.0000000  0  7G02G31G25G14G24G12G29
  23130510.520   121551653.743 7  23130508.000    94715559.73546
  23937135.720   125790496.833 7  23937134.740    98018570.01946
  20656500.500   108550711.205 8  20656502.600    84585012.73948
  21698873.560   114028352.648 7  21698873.140    88853249.37447
  22621608.340   118877408.704 7  22621610.840    92631785.47446
  21376938.260   112336698.334 8  21376937.020    87535137.19147
  20644789.660   108489190.649 8  20644789.440    84537064.90448
 14  1 10  0 13  0.0000000  0  7G02G31G25G14G24G12G29
  23129216.220   121544851.297 7  23129213.540    94710259.14846
  23919295.320   125696745.235 7  23919294.380    97945516.83446
  20654443.120   108539899.016 8  20654445.080    84576587.64748
  21701445.760   114041869.224 7  21701445.180    88863781.75547
  22637906.780   118963057.571 7  22637909.240    92698524.82847
  21386148.960   112385101.664 8  21386147.860    87572854.08247
  20634392.900   108434555.270 8  20634392.640    84494491.89848
 14  1 10  0 13 30.0000000  0  7G02G31G25G14G24G12G29
  23128013.080   121538528.057 7  23128010.320    94705331.96946
  23901465.400   125603048.596 7  23901464.520    97872506.49746
  20652427.820   108529308.065 8  20652429.660    84568334.96448
  21704127.340   114055960.636 7  21704126.680    88874762.06747
  22654258.500   119048986.382 7  22654260.920    92765482.32346
  21395387.380   112433650.409 8  21395386.460    87610684.27547
  20624087.220   108380398.703 8  20624086.920    84452291.98448
 14  1 10  0 14  0.0000000  0  7G02G31G25G14G24G12G29
  23126901.080   121532684.250 7  23126898.280    94700778.36346
  23883646.300   125509408.530 7  23883645.340    97799540.22646
  20650454.440   108518937.799 8  20650456.240    84560254.24148
  21706918.060   114070625.688 7  21706917.340    88886189.35547
  22670663.300   119135194.051 7  22670665.740    92832657.12646
  21404653.240   112482343.442 8  21404652.520    87648626.89747
  20613872.700   108326721.332 8  20613872.380    84410465.46948
 14  1 10  0 14 30.0000000  0  7G02G31G25G14G24G12G29
  23125880.840   121527323.644 7  23125878.100    94696601.27346
  23865838.760   125415829.428 7  23865837.780    97726621.47646
  20648523.500   108508790.801 8  20648525.380    84552347.48848
  21709818.240   114085866.139 7  21709817.500    88898065.02447
  22687121.320   119221681.383 7  22687123.660    92900049.84246
  21413947.140   112531183.019 8  21413946.320    87686683.69447
  20603750.100   108273527.028 8  20603749.840    84369015.36848
 14  1 10  0 15  0.0000000  0  7G02G31G25G14G24G12G29
  23124952.200   121522444.792 7  23124949.580    94692799.58146
  23848042.820   125322311.004 6  23848041.700    97653749.96846
  20646634.640   108498864.759 8  20646636.540    84544612.90948
  21712827.360   114101679.119 7  21712826.600    88910386.82647
  22703631.900   119308445.179 7  22703634.160    92967657.97446
  21423268.460   112580166.389 8  21423267.440    87724852.54847
  20593719.180   108220814.227 8  20593718.960    84327940.46948
 14  1 10  0 15 30.0000000  0  7G02G31G25G14G24G12G29
  23124115.840   121518049.667 7  23124113.120    94689374.82946
  23830258.800   125228856.625 7  23830257.820    97580928.42046
  20644788.080   108489160.976 8  20644789.960    84537051.52648
  21715945.500   114118065.121 7  21715944.740    88923155.13147
  22720195.200   119395485.835 7  22720197.480    93035481.85347
  21432617.420   112629294.539 8  21432616.140    87763134.21547
  20583780.380   108168585.394 8  20583780.220    84287242.68548
 14  1 10  0 16  0.0000000  0  7G02G31G25G14G24G12G29
  23123371.140   121514136.143 7  23123368.400    94686325.31746
  23812486.840   125135465.165 6  23812485.960    97508155.82446
  20642983.240   108479676.457 8  20642985.140    84529660.99248
  21719171.920   114135020.322 7  21719171.260    88936366.97247
  22736810.420   119482799.350 7  22736812.680    93103518.33646
  21441993.380   112678564.574 8  21441991.940    87801526.43447
  20573933.340   108116838.539 8  20573933.160    84246920.47748
 14  1 10  0 16 30.0000000  0  7G02G31G25G14G24G12G29
  23122719.060   121510709.400 7  23122716.400    94683655.13846
  23794727.900   125042142.564 7  23794727.220    97435436.95146
  20641220.920   108470415.377 8  20641222.840    84522444.56348
  21722507.320   114152548.080 7  21722506.720    88950024.96447
  22753478.020   119570388.794 7  22753480.440    93171769.84946
  21451396.860   112727980.122 8  21451395.380    87840032.05147
  20564179.040   108065578.890 8  20564178.780    84206977.90148
 14  1 10  0 17  0.0000000  0  7G02G31G25G14G24G12G29
  23122158.420   121507762.875 7  23122155.640    94681359.15746
  23776981.320   124948883.743 7  23776980.600    97362767.75546
  20639499.700   108461370.397 8  20639501.560    84515396.52748
  21725950.160   114170640.314 7  21725949.620    88964122.80847
  22770196.480   119658245.314 7  22770199.100    93240229.47446
  21460826.500   112777533.049 8  21460824.940    87878644.71047
  20554516.140   108014799.986 8  20554515.820    84167409.93248
 14  1 10  0 17 30.0000000  0  7G02G31G25G14G24G12G29
  23121690.000   121505301.004 7  23121687.080    94679440.82246
  23759248.100   124855694.352 7  23759247.200    97290152.65346
  20637820.280   108452545.119 8  20637822.100    84508519.69748
  21729500.920   114189299.720 7  21729500.340    88978662.59147
  22786966.340   119746371.631 7  22786968.940    93308899.31447
  21470283.080   112827227.392 8  21470281.540    87917367.56047
  20544945.580   107964506.344 8  20544945.180    84128220.09748
 14  1 10  0 18  0.0000000  0  7G02G31G25G14G24G12G29
  23121314.180   121503325.665 7  23121311.140    94677901.61146
  23741528.700   124762577.302 7  23741527.500    97217593.91946
  20636182.920   108443940.513 8  20636184.680    84501814.81448
  21733159.620   114208526.242 7  21733158.960    88993644.28847
  22803787.620   119834768.065 7  22803790.080    93377779.65247
  21479766.600   112877063.633 8  21479765.120    87956200.98347
  20535467.680   107914699.958 8  20535467.260    84089409.93748
 14  1 10  0 18 30.0000000  0  7G02G31G25G14G24G12G29
  23121030.840   121501836.249 7  23121027.720    94676741.03546
  23723823.140   124669533.144 7  23723821.640    97145091.99846
  20634587.280   108435555.474 8  20634589.060    84495281.00748
  21736925.840   114228317.862 7  21736925.220    89009066.33147
  22820659.780   119923431.496 7  22820662.140    93446868.02646
  21489276.640   112927039.856 8  21489275.260    87995143.48247
  20526082.440   107865380.444 8  20526082.060    84050979.15948
 14  1 10  0 19  0.0000000  0  7G02G31G25G14G24G12G29
  23120839.800   121500832.337 7  23120836.700    94675958.76846
  23706131.740   124576563.355 7  23706129.900    97072648.01746
  20633033.140   108427388.923 8  20633035.040    84488917.46248
  21740799.300   114248672.858 7  21740798.740    89024927.35747
  22837582.500   120012360.202 7  22837584.680    93516163.10546
  21498813.100   112977154.762 8  21498811.820    88034194.06447
  20516789.840   107816547.793 8  20516789.520    84012927.74948
 14  1 10  0 19 30.0000000  0  7G02G31G25G14G24G12G29
  23120741.820   121500317.643 7  23120738.820    94675557.70846
  23688455.280   124483672.164 7  23688453.220    97000265.27346
  20631521.100   108419443.624 8  20631523.120    84482726.32948
  21744780.240   114269592.918 7  21744779.740    89041228.69447
  22854556.020   120101555.971 7  22854558.020    93585666.30846
  21508376.480   113027411.459 8  21508375.420    88073355.12147
  20507590.600   107768205.763 8  20507590.360    83975258.63948
 14  1 10  0 20  0.0000000  0  7G02G31G25G14G24G12G29
  23120737.320   121500294.248 7  23120734.300    94675539.49446
  23670794.340   124390863.342 7  23670792.320    96927946.70945
  20630051.600   108411721.040 8  20630053.600    84476708.72248
  21748868.720   114291078.188 7  21748868.240    89057970.45147
  22871580.240   120191018.672 7  22871582.240    93655377.47946
  21517967.040   113077810.739 8  21517966.300    88112627.27447
  20498485.140   107720356.568 8  20498484.980    83937973.55848
 14  1 10  0 20 30.0000000  0  7G02G31G25G14G24G12G29
  23120825.280   121500756.846 7  23120822.180    94675899.97746
  23653148.160   124298132.479 7  23653146.260    96855688.90146
  20628623.320   108404215.159 8  20628625.240    84470859.98348
  21753063.520   114313122.158 7  21753063.020    89075147.55847
  22888654.000   120280741.269 7  22888655.980    93725291.17046
  21527583.520   113128346.082 8  21527583.060    88152005.47647
  20489472.500   107672994.925 8  20489472.380    83901068.39648
 14  1 10  0 21  0.0000000  0  7G02G31G25G14G24G12G29
  23121006.760   121501711.108 7  23121003.720    94676643.57246
  23635518.180   124205487.158 7  23635516.480    96783497.75446
  20627237.200   108396931.073 8  20627239.080    84465184.06748
  21757365.360   114335728.377 7  21757364.840    89092762.77347
  22905777.940   120370727.637 7  22905779.740    93795410.40646
  21537226.880   113179022.331 8  21537226.520    88191493.45847
  20480553.800   107626126.517 8  20480553.600    83864547.57548
 14  1 10  0 21 30.0000000  0  7G02G31G25G14G24G12G29
  23121281.640   121503156.180 7  23121278.860    94677769.60846
  23617904.560   124112928.100 7  23617903.220    96711373.85446
  20625893.000   108389867.386 8  20625894.940    84459679.90148
  21761773.640   114358894.142 7  21761773.080    89110814.02347
  22922951.360   120460974.944 7  22922953.300    93865732.97546
  21546896.880   113229837.993 8  21546896.360    88231090.06747
  20471728.980   107579751.147 8  20471728.620    83828410.93148
 14  1 10  0 22  0.0000000  0  7G02G31G25G14G24G12G29
  23121649.640   121505090.251 7  23121647.020    94679276.67446
  23600307.260   124020454.274 7  23600306.220    96639316.34846
  20624590.220   108383021.470 8  20624592.260    84454345.42648
  21766287.800   114382616.150 7  21766287.180    89129298.69047
  22940173.760   120551479.992 7  22940175.860    93936256.36446
  21556593.040   113280790.307 8  21556592.120    88270793.16347
  20462997.480   107533866.603 8  20462997.060    83792656.75748
 14  1 10  0 22 30.0000000  0  7G02G31G25G14G24G12G29
  23122110.840   121507513.526 7  23122108.220    94681164.94946
  23582726.640   123928067.829 7  23582725.800    96567326.93046
  20623328.900   108376393.451 8  20623330.980    84449180.74248
  21770907.640   114406893.190 7  21770907.000    89148215.86047
  22957444.880   120642241.018 7  22957446.980    94006979.24246
  21566314.960   113331878.493 8  21566313.760    88310602.12347
  20454359.500   107488473.903 8  20454359.140    83757285.82848
 14  1 10  0 23  0.0000000  0  7G02G31G25G14G24G12G29
  23122665.720   121510429.017 7  23122662.920    94683436.78746
  23565163.440   123835773.124 7  23565162.800    96495409.01946
  20622109.480   108369985.401 8  20622111.500    84444187.45248
  21775633.240   114431726.330 7  21775632.640    89167566.35046
  22974764.980   120733258.903 7  22974766.960    94077902.27246
  21576063.120   113383105.022 8  21576061.760    88350518.88147
  20445815.560   107443575.626 8  20445815.300    83722300.15448
 14  1 10  0 23 30.0000000  0  7G02G31G25G14G24G12G29
  23123313.860   121513834.945 7  23123310.920    94686090.77346
  23547617.760   123743569.779 7  23547617.160    96423562.28246
  20620931.540   108363795.074 8  20620933.480    84439363.81248
  21780463.940   114457111.901 7  21780463.360    89187347.28847
  22992133.400   120824530.545 7  22992135.420    94149023.01646
  21585837.000   113434466.898 8  21585835.520    88390541.10947
  20437365.460   107399170.358 8  20437365.300    83687698.65548
 14  1 10  0 24  0.0000000  0  7G02G31G25G14G24G12G29
  23124055.440   121517732.634 7  23124052.500    94689127.93746
  23530090.040   123651460.747 7  23530089.440    96351789.02646
  20619795.200   108357823.168 8  20619797.080    84434710.38548
  21785399.720   114483049.484 7  21785399.080    89207558.37447
  23009549.980   120916055.112 7  23009551.980    94220340.84646
  21595636.620   113485964.517 8  21595635.160    88430669.12647
  20429009.500   107355259.534 8  20429009.360    83653482.43048
 14  1 10  0 24 30.0000000  0  7G02G31G25G14G24G12G29
  23124890.600   121522121.695 7  23124887.840    94692547.99946
  23512580.540   123559447.578 7  23512579.980    96280090.49646
  20618700.360   108352069.324 8  20618702.160    84430226.86248
  21790440.240   114509537.456 7  21790439.640    89228198.34647
  23027014.460   121007831.032 7  23027016.240    94291854.55746
  21605461.900   113537597.385 8  21605460.460    88470902.52947
  20420747.660   107311843.130 8  20420747.460    83619651.47048
 14  1 10  0 25  0.0000000  0  7G02G31G25G14G24G12G29
  23125819.640   121527004.114 7  23125817.140    94696352.48146
  23495089.960   123467533.489 7  23495089.360    96208469.15146
  20617647.220   108346534.713 8  20617648.900    84425914.17848
  21795585.520   114536575.825 7  21795584.900    89249267.19647
  23044526.640   121099858.249 7  23044528.500    94363564.04946
  21615313.100   113589366.439 8  21615311.600    88511242.03847
  20412580.280   107268923.109 8  20412580.020    83586207.31048
 14  1 10  0 25 30.0000000  0  7G02G31G25G14G24G12G29
  23126842.440   121532379.392 7  23126840.060    94700541.03146
  23477618.580   123375719.685 7  23477617.820    96136925.92246
  20616635.600   108341218.527 8  20616637.280    84421771.69648
  21800835.080   114564162.533 7  21800834.540    89270763.32447
  23062086.020   121192134.375 7  23062088.280    94435467.50646
  21625190.020   113641270.613 8  21625188.580    88551686.83147
  20404507.340   107226499.431 8  20404507.000    83553149.90148
 14  1 10  0 26  0.0000000  0  7G02G31G25G14G24G12G29
  23127959.200   121538248.689 7  23127956.960    94705114.51546
  23460166.680   123284008.801 7  23460165.780    96065462.92246
  20615665.620   108336121.450 8  20615667.380    84417799.94548
  21806188.760   114592296.598 7  21806188.240    89292685.94347
  23079692.720   121284659.080 7  23079695.140    94507564.68546
  21635092.680   113693309.924 8  21635091.360    88592236.94747
  20396529.060   107184573.213 8  20396528.660    83520480.12648
 14  1 10  0 26 30.0000000  0  7G02G31G25G14G24G12G29
  23129169.820   121544610.934 7  23129167.580    94710072.10446
  23442734.520   123192401.790 7  23442733.520    95994080.85346
  20614737.120   108331242.297 8  20614738.980    84413998.01248
  21811646.100   114620975.384 7  21811645.660    89315033.04547
  23097346.140   121377429.262 6  23097348.740    94579853.13246
  21645020.940   113745483.563 8  21645019.720    88632891.72147
  20388645.220   107143143.667 8  20388644.840    83488197.36948
 14  1 10  0 27  0.0000000  0  7G02G31G25G14G24G12G29
  23130474.260   121551465.616 7  23130471.980    94715413.43146
  23425322.320   123100899.670 7  23425321.180    95922780.51446
  20613849.920   108326579.959 8  20613851.800    84410365.01948
  21817206.640   114650196.602 7  21817206.220    89337802.80347
  23115046.000   121470443.250 7  23115048.860    94652331.54846
  21654974.420   113797789.533 8  21654973.380    88673649.60247
  20380855.760   107102210.225 8  20380855.440    83456301.18148
 14  1 10  0 27 30.0000000  0  7G02G31G25G14G24G12G29
  23131872.640   121558814.115 7  23131870.340    94721139.54346
  23407930.680   123009505.812 7  23407929.240    95851564.52646
  20613004.260   108322135.709 8  20613006.080    84406901.96848
  21822870.480   114679960.130 7  21822870.040    89360995.15447
  23132792.300   121563700.612 7  23132795.320    94724999.61046
  21664953.360   113850229.303 8  21664952.600    88714511.76947
  20373161.060   107061774.776 8  20373160.820    83424793.04348
 14  1 10  0 28  0.0000000  0  7G02G31G25G14G24G12G29
  23133365.020   121566657.316 7  23133362.860    94727251.13846
  23390560.060   122918222.330 7  23390558.360    95780434.53246
  20612200.080   108317909.699 8  20612201.860    84403608.97148
  21828637.260   114710264.398 7  21828636.800    89384608.86047
  23150584.780   121657199.893 7  23150587.760    94797856.17446
  21674957.660   113902802.070 8  21674957.140    88755477.55847
  20365561.240   107021837.828 8  20365561.040    83393673.34648
 14  1 10  0 28 30.0000000  0  7G02G31G25G14G24G12G29
  23134951.260   121574993.996 7  23134949.240    94733747.25446
  23373210.680   122827050.436 7  23373208.780    95709391.50646
  20611437.180   108313900.872 8  20611439.000    84400485.21348
  21834506.560   114741107.192 7  21834506.000    89408642.20147
  23168422.880   121750938.874 7  23168425.780    94870899.53046
  21684987.220   113955507.259 8  21684986.820    88796546.53447
  20358056.260   106982398.945 8  20358056.080    83362941.75248
 14  1 10  0 29  0.0000000  0  7G02G31G25G14G24G12G29
  23136631.980   121583826.615 7  23136629.980    94740629.84146
  23355883.180   122735993.738 7  23355881.260    95638438.23946
  20610716.000   108310111.195 8  20610717.860    84397532.21048
  21840478.360   114772488.790 7  21840477.740    89433095.37847
  23186306.660   121844918.010 7  23186309.280    94944130.01846
  21695042.340   114008346.426 8  21695041.840    88837719.90047
  20350646.560   106943460.249 8  20350646.340    83332599.92148
 14  1 10  0 29 30.0000000  0  7G02G31G25G14G24G12G29
  23138406.960   121593154.259 7  23138404.900    94747898.16146
  23338577.960   122645053.988 7  23338576.040    95567576.09946
  20610036.420   108306540.067 8  20610038.320    84394749.51948
  21846552.260   114804407.276 7  21846551.540    89457966.92447
  23204235.720   121939135.365 7  23204238.160    95017546.13446
  21705122.780   114061318.623 8  21705122.160    88878996.92947
  20343332.060   106905021.719 8  20343331.760    83302647.81848
 14  1 10  0 30  0.0000000  0  7G02G31G25G14G24G12G29
  23140276.200   121602976.727 7  23140274.220    94755552.04347
  23321295.080   122554232.361 7  23321293.320    95496806.03046
  20609398.280   108303186.653 8  20609400.200    84392136.46548
  21852727.760   114836859.939 7  21852727.080    89483254.69547
  23222209.660   122033588.889 7  23222212.040    95091146.24846
  21715228.120   114114422.128 8  21715227.460    88920376.27547
  20336112.660   106867082.891 8  20336112.340    83273085.10148
 14  1 10  0 30 30.0000000  0  7G02G31G25G14G24G12G29
  23142239.560   121613294.284 7  23142237.820    94763591.69846
  23304035.140   122463531.208 7  23304033.480    95426129.81146
  20608801.600   108300050.966 8  20608803.520    84389693.07248
  21859004.620   114869845.248 7  21859003.900    89508957.51446
  23240228.260   122128277.140 7  23240230.540    95164929.29046
  21725358.480   114167657.111 8  21725357.640    88961858.08147
  20328988.320   106829644.218 8  20328988.040    83243912.10948
 14  1 10  0 31  0.0000000  0  7G02G31G25G14G24G12G29
  23144297.020   121624106.452 7  23144295.340    94772016.77046
  23286798.340   122372951.846 7  23286796.840    95355548.50446
  20608246.220   108297132.482 8  20608248.120    84387418.93748
  21865382.520   114903361.389 7  21865381.840    89535073.98147
  23258291.140   122223198.107 7  23258293.380    95238893.67446
  21735513.760   114221023.536 8  21735512.760    89003442.30047
  20321959.080   106792705.544 8  20321958.860    83215128.72948
 14  1 10  0 31 30.0000000  0  7G02G31G25G14G24G12G29
  23146448.440   121635412.177 7  23146446.780    94780826.43446
  23269584.920   122282495.376 7  23269583.620    95285062.97846
  20607731.940   108294430.140 8  20607733.840    84385313.21448
  21871860.860   114937405.321 7  21871860.200    89561601.69947
  23276397.820   122318349.229 7  23276400.040    95313037.38546
  21745693.700   114274519.440 8  21745692.560    89045127.39547
  20315024.780   106756265.880 8  20315024.580    83186734.19448
 14  1 10  0 32  0.0000000  0  7G02G31G25G14G24G12G29
  23148694.600   121647216.111 7  23148692.840    94790024.31746
  23252396.060   122192168.316 7  23252395.000    95214678.28046
  20607259.640   108291948.468 8  20607261.560    84383379.44648
  21878440.160   114971980.157 7  21878439.620    89588543.12347
  23294548.780   122413733.315 7  23294551.040    95387362.62846
  21755899.000   114328148.808 8  21755897.740    89086916.51747
  20308186.440   106720330.274 8  20308186.200    83158732.41648
 14  1 10  0 32 30.0000000  0  7G02G31G25G14G24G12G29
  23151034.500   121659512.639 7  23151032.660    94799606.03346
  23235231.200   122101967.080 7  23235230.180    95144391.58946
  20606828.280   108289681.601 8  20606830.160    84381613.05248
  21885119.100   115007078.182 7  21885118.540    89615892.21747
  23312742.800   122509343.212 7  23312744.960    95461863.83546
  21766128.540   114381906.095 8  21766127.200    89128805.30047
  20301442.940   106684892.921 8  20301442.640    83131118.89948
 14  1 10  0 33  0.0000000  0  7G02G31G25G14G24G12G29
  23153468.880   121672305.182 7  23153466.860    94809574.26346
  23218091.220   122011896.875 7  23218090.380    95074207.05746
  20606438.460   108287632.931 8  20606440.200    84380016.68148
  21891897.900   115042701.040 7  21891897.400    89643650.28247
  23330980.280   122605181.026 7  23330982.300    95536542.64446
  21776382.800   114435793.925 8  21776381.660    89170795.81047
  20294794.940   106649957.329 8  20294794.600    83103896.36448
 14  1 10  0 33 30.0000000  0  7G02G31G25G14G24G12G29
  23155997.200   121685591.410 7  23155995.060    94819927.17646
  23200976.380   121921958.031 7  23200975.520    95004124.84946
  20606089.760   108285800.408 8  20606091.400    84378588.73348
  21898775.840   115078844.709 7  21898775.340    89671814.17246
  23349260.400   122701242.830 7  23349262.260    95611395.98846
  21786661.580   114489810.074 8  21786660.600    89212886.31447
  20288242.080   106615521.949 8  20288241.760    83077063.59848
 14  1 10  0 34  0.0000000  0  7G02G31G25G14G24G12G29
  23158619.920   121699373.684 7  23158617.700    94830666.62046
  23183887.360   121832154.625 7  23183886.340    94934148.18746
  20605782.620   108284186.242 8  20605784.300    84377330.94448
  21905753.060   115115509.974 7  21905752.620    89700384.49846
  23367583.280   122797529.794 7  23367585.140    95686424.77446
  21796965.120   114543956.273 8  21796964.240    89255078.13547
  20281784.880   106581589.047 8  20281784.540    83050622.37848
 14  1 10  0 34 30.0000000  0  7G02G31G25G14G24G12G29
  23161336.920   121713651.489 7  23161334.600    94841792.18746
  23166824.480   121742488.196 7  23166823.280    94864278.25746
  20605516.880   108282789.837 8  20605518.640    84376242.83848
  21912829.080   115152694.353 7  21912828.580    89729359.32846
  23385948.420   122894039.629 6  23385950.460    95761627.23746
  21807293.580   114598232.631 8  21807292.680    89297371.39047
  20275423.260   106548158.424 8  20275422.900    83024572.54448
 14  1 10  0 35  0.0000000  0  7G02G31G25G14G24G12G29
  23164148.160   121728424.200 7  23164145.540    94853303.39946
  23149788.040   121652960.535 7  23149786.720    94794516.45346
  20605292.500   108281610.728 8  20605294.280    84375324.04848
  21920003.440   115190395.590 7  21920002.940    89758736.90646
  23404355.440   122990770.147 6  23404357.680    95837001.66346
  21817646.680   114652637.976 8  21817645.700    89339765.15847
  20269157.140   106515229.442 8  20269156.700    82998913.59948
 14  1 10  0 35 30.0000000  0  7G02G31G25G14G24G12G29
  23167053.800   121743692.488 7  23167050.780    94865200.77846
  23132778.500   121563574.791 7  23132777.160    94724865.22446
  20605109.640   108280649.829 8  20605111.440    84374575.29548
  21927275.940   115228612.715 7  21927275.460    89788516.46546
  23422804.340   123087720.795 6  23422806.860    95912547.62346
  21828024.360   114707172.385 8  21828023.320    89382259.48847
  20262986.700   106482803.561 8  20262986.260    82973646.67748
 14  1 10  0 36  0.0000000  0  7G02G31G25G14G24G12G29
  23170053.440   121759454.741 7  23170050.100    94877483.06146
  23115796.000   121474330.839 7  23115794.680    94655324.50446
  20604968.000   108279905.304 8  20604969.760    84373995.13948
  21934645.860   115267341.924 7  21934645.340    89818695.05546
  23441294.520   123184888.088 6  23441297.320    95988262.37846
  21838426.420   114761834.234 8  21838425.280    89424853.12247
  20256911.560   106450878.585 8  20256911.140    82948770.07848
 14  1 10  0 36 30.0000000  0  7G02G31G25G14G24G12G29
  23173147.180   121775711.172 7  23173143.440    94890150.42446
  23098840.980   121385231.526 7  23098839.700    94585896.47746
  20604867.660   108279377.808 8  20604869.420    84373584.10448
  21942113.000   115306582.086 7  21942112.360    89849271.79746
  23459825.960   123282271.617 6  23459828.760    96064145.62346
  21848852.740   114816623.570 8  21848851.400    89467546.11047
  20250931.920   106419455.412 8  20250931.560    82924284.48848
 14  1 10  0 37  0.0000000  0  7G02G31G25G14G24G12G29
  23176335.000   121792462.141 7  23176330.980    94903203.13046
  23081914.060   121296279.840 7  23081912.880    94516583.48746
  20604808.620   108279067.525 8  20604810.360    84373342.32548
  21949677.060   115346331.558 7  21949676.440    89880245.39746
  23478398.300   123379869.552 6  23478401.020    96140195.96846
  21859303.440   114871541.163 8  21859301.940    89510339.02147
  20245047.800   106388534.066 8  20245047.500    82900189.93548
 14  1 10  0 37 30.0000000  0  7G02G31G25G14G24G12G29
  23179616.640   121809706.375 7  23179612.420    94916640.22146
  23065015.220   121207475.760 7  23065014.060    94447385.53146
  20604790.660   108278973.281 8  20604792.400    84373268.88648
  21957337.480   115386587.263 7  21957336.880    89911613.45846
  23497011.040   123477679.179 6  23497013.640    96216411.25346
  21869778.060   114926585.077 8  21869776.660    89553230.37847
  20239259.020   106358113.758 8  20239258.680    82876485.80648
 14  1 10  0 38  0.0000000  0  7G02G31G25G14G24G12G29
  23182992.560   121827446.951 7  23182988.420    94930464.04346
  23048145.620   121118825.545 7  23048144.480    94378307.44246
  20604814.520   108279098.913 8  20604816.200    84373366.77148
  21965094.480   115427350.692 7  21965093.960    89943377.16146
  23515664.340   123575702.467 6  23515666.900    96292793.01746
  21880277.120   114981758.333 8  21880275.980    89596222.51347
  20233566.300   106328198.231 8  20233565.920    82853175.01248
 14  1 10  0 38 30.0000000  0  7G02G31G25G14G24G12G29
  23186462.500   121845681.830 7  23186458.440    94944673.02946
  23031305.320   121030329.431 7  23031304.240    94309349.44146
  20604879.820   108279442.290 8  20604881.500    84373634.33448
  21972947.460   115468618.049 7  21972946.940    89975533.53746
  23534357.560   123673936.219 6  23534360.060    96369338.78446
  21890800.400   115037059.197 8  21890799.460    89639314.08547
  20227969.180   106298785.351 8  20227968.820    82830255.89248
 14  1 10  0 39  0.0000000  0  7G02G31G25G14G24G12G29
  23190026.360   121864410.172 7  23190022.220    94959266.54946
  23014494.600   120941988.948 7  23014493.520    94240512.69746
  20604986.460   108280002.937 8  20604988.220    84374071.20548
  21980895.820   115510386.813 7  21980895.360    90008080.61946
  23553090.300   123772378.118 6  23553092.940    96446046.75946
  21901347.820   115092486.994 8  21901347.000    89682504.56247
  20222467.600   106269874.595 8  20222467.240    82807728.03448
 14  1 10  0 39 30.0000000  0  7G02G31G25G14G24G12G29
  23193684.000   121883631.307 7  23193679.920    94974244.06546
  22997713.860   120853805.593 7  22997712.740    94171798.39246
  20605134.440   108280780.314 8  20605136.160    84374676.94848
  21988939.000   115552653.978 7  21988938.520    90041016.06246
  23571862.340   123871026.061 6  23571865.120    96522915.26846
  21911919.340   115148040.985 8  21911918.540    89725793.37447
  20217061.460   106241465.505 8  20217061.120    82785591.09048
 14  1 10  0 40  0.0000000  0  7G02G31G25G14G24G12G29
  23197435.560   121903345.922 7  23197431.420    94989606.12546
  22980963.580   120765782.467 7  22980962.540    94103208.97646
  20605323.880   108281775.397 8  20605325.560    84375452.34148
  21997076.840   115595419.010 7  21997076.420    90074339.45346
  23590673.460   123969879.064 6  23590676.280    96599943.57046
  21922514.940   115203721.467 8  21922514.080    89769180.75947
  20211750.900   106213558.629 8  20211750.660    82763845.48048
 14  1 10  0 40 30.0000000  0  7G02G31G25G14G24G12G29
  23201281.040   121923554.724 7  23201277.020    95005353.26246
  22964244.420   120677922.875 7  22964243.300    94034746.95846
  20605554.900   108282989.300 8  20605556.660    84376398.23148
  22005309.160   115638680.682 7  22005308.800    90108049.84346
  23609523.580   124068937.129 6  23609526.420    96677131.66246
  21933134.740   115259529.544 7  21933133.900    89812667.55047
  20206536.220   106186155.337 8  20206536.000    82742492.26848
 14  1 10  0 41  0.0000000  0  7G02G31G25G14G24G12G29
  23205220.220   121944256.043 7  23205216.400    95021484.17846
  22947556.480   120590227.670 7  22947555.400    93966413.05347
  20605827.240   108284420.399 8  20605829.020    84377513.37148
  22013635.400   115682435.368 7  22013634.900    90142144.39846
  23628411.880   124168196.257 6  23628414.840    96754476.44346
  21943778.460   115315463.514 7  21943777.660    89856252.44747
  20201417.060   106159253.836 8  20201416.840    82721530.05748
 14  1 10  0 41 30.0000000  0  7G02G31G25G14G24G12G29
  23209252.740   121965448.150 7  23209249.220    95037997.51546
  22930899.960   120502697.556 7  22930898.980    93898207.78846
  20606140.700   108286067.608 8  20606142.460    84378796.91048
  22022054.920   115726679.690 7  22022054.320    90176620.47746
  23647338.120   124267654.220 6  23647341.000    96831976.14046
  21954445.660   115371521.032 7  21954445.080    89899933.61747
  20196393.080   106132852.535 8  20196392.820    82700957.61948
 14  1 10  0 42  0.0000000  0  7G02G31G25G14G24G12G29
  23213379.080   121987133.664 7  23213376.020    95054895.31546
  22914275.920   120415338.022 7  22914274.880    93830135.42046
  20606495.840   108287934.094 8  20606497.640    84380251.31748
  22030567.900   115771414.824 7  22030567.280    90211479.02146
  23666302.440   124367312.612 6  23666305.160    96909632.01646
  21965137.260   115427706.560 7  21965136.880    89943714.53047
  20191464.900   106106954.743 8  20191464.600    82680777.52348
 14  1 10  0 42 30.0000000  0  7G02G31G25G14G24G12G29
  23217599.020   122009310.838 7  23217596.320    95072176.22246
  22897684.380   120328149.059 7  22897683.340    93762195.97446
  20606892.420   108290018.241 8  20606894.260    84381875.32448
  22039173.380   115816636.651 7  22039172.780    90246716.77946
  23685304.220   124467167.892 6  23685306.920    96987441.30546
  21975852.960   115484017.844 8  21975852.560    89987593.43247
  20186632.200   106081558.591 8  20186631.860    82660988.32048
 14  1 10  0 43  0.0000000  0  7G02G31G25G14G24G12G29
  23221912.360   122031978.641 7  23221910.020    95089839.46246
  22881125.720   120241132.679 7  22881124.640    93694391.00746
  20607330.320   108292319.597 8  20607332.220    84383668.59048
  22047870.940   115862342.711 7  22047870.340    90282331.87446
  23704343.120   124567217.829 6  23704345.760    97065402.28446
  21986592.460   115540453.751 7  21986591.880    90031569.45747
  20181894.800   106056663.208 8  20181894.420    82641589.32648
 14  1 10  0 43 30.0000000  0  7G02G31G25G14G24G12G29
  23226318.800   122055135.341 7  23226316.820    95107883.64846
  22864600.180   120154289.931 7  22864599.100    93626721.36046
  20607809.360   108294837.006 8  20607811.360    84385630.21248
  22056659.960   115908529.646 7  22056659.400    90318321.68846
  23723418.480   124667459.678 6  23723421.100    97143512.79546
  21997355.260   115597012.510 7  21997354.520    90075641.20347
  20177252.460   106032267.441 8  20177252.040    82622579.63848
 14  1 10  0 44  0.0000000  0  7G02G31G25G14G24G12G29
  23230819.060   122078784.330 7  23230817.140    95126311.44846
  22848108.740   120067626.440 7  22848107.620    93559191.37946
  20608330.220   108297573.984 8  20608332.220    84387762.91748
  22065540.720   115955198.620 7  22065540.220    90354687.11246
  23742530.700   124767895.361 6  23742533.340    97221774.34846
  22008142.200   115653698.181 7  22008141.400    90119811.83347
  20172705.740   106008374.366 8  20172705.360    82603961.66148
 14  1 10  0 44 30.0000000  0  7G02G31G25G14G24G12G29
  23235412.400   122102922.474 7  23235410.520    95145120.40746
  22831651.340   119981142.051 7  22831650.160    93491800.95846
  20608892.480   108300528.351 8  20608894.380    84390065.01648
  22074512.380   116002345.180 7  22074511.900    90391424.66046
  23761679.080   124868520.785 6  23761681.780    97300183.76346
  22018952.900   115710508.306 8  22018952.140    90164079.44347
  20168254.240   105984981.662 8  20168253.920    82585733.58248
 14  1 10  0 45  0.0000000  0  7G02G31G25G14G24G12G29
  23240098.660   122127549.318 7  23240096.920    95164310.14346
  22815228.440   119894838.901 7  22815227.160    93424551.76246
  20609496.020   108303699.902 8  20609497.920    84392536.35648
  22083574.620   116049966.976 7  22083574.100    90428532.53346
  23780863.220   124969334.118 6  23780866.000    97378739.57746
  22029787.300   115767442.412 8  22029786.440    90208443.65647
  20163897.880   105962088.896 8  20163897.580    82567895.06848
 14  1 10  0 45 30.0000000  0  7G02G31G25G14G24G12G29
  23244878.120   122152665.710 7  23244876.480    95183881.34846
  22798840.680   119808720.530 7  22798839.320    93357446.53946
  20610141.120   108307090.036 8  20610143.040    84395178.02148
  22092727.140   116098062.958 7  22092726.600    90466009.91346
  23800083.180   125070335.101 6  23800085.880    97457441.63146
  22040645.420   115824500.675 8  22040644.240    90252904.63047
  20159636.860   105939696.899 8  20159636.500    82550446.75848
 14  1 10  0 46  0.0000000  0  7G02G31G25G14G24G12G29
  23249750.380   122178269.075 7  23249748.780    95203832.01646
  22782488.180   119722787.200 7  22782486.720    93290485.49647
  20610827.520   108310696.911 8  20610829.340    84397988.56548
  22101969.040   116146629.008 7  22101968.420    90503853.57246
  23819338.180   125171520.207 6  23819340.760    97536287.18746
  22051526.900   115881681.912 8  22051525.500    90297461.42247
  20155470.700   105917803.525 8  20155470.300    82533386.99248
 14  1 10  0 46 30.0000000  0  7G02G31G25G14G24G12G29
  23254715.660   122204359.956 7  23254713.900    95224162.59146
  22766171.500   119637041.901 7  22766169.980    93223670.97946
  20611555.340   108314521.625 8  20611557.160    84400968.86248
  22111300.060   116195663.969 7  22111299.500    90542062.61746
  23838627.940   125272888.168 6  23838630.340    97615275.19346
  22062431.860   115938987.272 7  22062430.440    90342114.92747
  20151399.520   105896409.427 8  20151399.140    82516716.26448
 14  1 10  0 47  0.0000000  0  7G02G31G25G14G24G12G29
  23259773.920   122230939.870 7  23259772.020    95244874.21446
  22749891.440   119551489.364 7  22749889.900    93157006.66447
  20612325.000   108318566.274 8  20612326.840    84404120.54248
  22120720.180   116245167.502 7  22120719.740    90580636.77946
  23857952.600   125374439.482 6  23857954.960    97694406.07146
  22073360.580   115996417.883 8  22073359.260    90386866.03047
  20147423.680   105875516.412 8  20147423.400    82500435.99748
 14  1 10  0 47 30.0000000  0  7G02G31G25G14G24G12G29
  23264924.940   122258008.025 7  23264922.900    95265966.28346
  22733648.260   119466131.378 7  22733646.840    93090493.98147
  20613136.580   108322830.866 8  20613138.340    84407443.59348
  22130229.000   116295137.006 7  22130228.620    90619574.03946
  23877311.840   125476172.609 6  23877314.080    97773678.60346
  22084313.100   116053973.991 7  22084311.920    90431714.92247
  20143543.200   105855124.399 8  20143542.980    82484546.11548
 14  1 10  0 48  0.0000000  0  8G02G31G21G25G14G24G12G29
  23270168.680   122285563.213 7  23270166.360    95287437.86446
  22717442.480   119380969.511 7  22717441.120    93024134.08347
  24687816.680   129735363.254 6  24687817.340   101092505.50345
  20613989.780   108327314.762 8  20613991.520    84410937.53248
  22139826.000   116345569.521 7  22139825.560    90658872.08646
  23896705.100   125578084.857 6  23896707.380    97853090.73846
  22095289.200   116111654.760 7  22095288.180    90476660.96247
  20139757.800   105835231.967 8  20139757.560    82469045.52348
 14  1 10  0 48 30.0000000  0  8G02G31G21G25G14G24G12G29
  23275504.260   122313600.995 7  23275501.460    95309285.49946
  22701273.680   119296002.240 7  22701272.440    92957925.83646
  24670121.020   129642374.083 6  24670122.500   101020046.70343
  20614884.020   108332014.280 8  20614885.800    84414599.49048
  22149509.960   116396459.056 7  22149509.500    90698526.24146
  23916131.420   125680171.092 6  23916133.720    97932638.47446
  22106288.220   116169455.796 7  22106287.280    90521700.72747
  20136066.660   105815834.901 8  20136066.400    82453930.92548
 14  1 10  0 49  0.0000000  0  8G02G31G21G25G14G24G12G29
  23280931.880   122342122.537 7  23280928.680    95331510.09546
  22685142.680   119211233.382 7  22685141.500    92891872.17846
  24652418.420   129549346.415 6  24652419.920   100947557.89445
  20615819.700   108336931.088 8  20615821.480    84418430.76748
  22159280.740   116447804.723 7  22159280.340    90738535.83146
  23935590.860   125782430.932 6  23935593.200    98012321.44445
  22117310.580   116227378.589 8  22117309.640    90566835.34847
  20132470.020   105796934.385 8  20132469.700    82439203.25748
 14  1 10  0 49 30.0000000  0  8G02G31G21G25G14G24G12G29
  23286452.040   122371130.840 7  23286448.520    95354113.99246
  22669050.520   119126669.043 7  22669049.500    92825977.89946
  24634709.660   129456286.106 6  24634710.880   100875043.64044
  20616797.400   108342069.039 8  20616799.200    84422434.36348
  22169138.500   116499607.625 7  22169138.180    90778901.71846
  23955083.860   125884866.726 6  23955086.280    98092141.48846
  22128356.800   116285427.033 7  22128356.020    90612067.87347
  20128968.520   105778533.902 8  20128968.120    82424865.22148
 14  1 10  0 50  0.0000000  0  8G02G31G21G25G14G24G12G29
  23292064.180   122400622.840 7  23292060.460    95377094.77246
  22652997.280   119042309.208 7  22652996.360    92760242.96047
  24616994.660   129363193.705 6  24616995.680   100802504.29745
  20617816.720   108347425.943 8  20617818.620    84426608.56648
  22179082.380   116551863.141 7  22179082.140    90819620.27746
  23974609.560   125987474.050 6  23974611.880    98172095.23445
  22139426.380   116343598.591 7  22139425.800    90657396.33347
  20125561.700   105760630.832 8  20125561.240    82410914.78248
 14  1 10  0 50 30.0000000  0  8G02G31G21G25G14G24G12G29
  23297768.220   122430597.494 7  23297764.420    95400451.64746
  22636983.300   118958155.679 7  22636982.420    92694668.79247
  24599273.820   129270070.990 6  24599274.660   100729941.41045
  20618877.700   108353001.612 8  20618879.660    84430953.23448
  22189111.980   116604568.910 7  22189111.760    90860689.70646
  23994167.560   126090250.851 6  23994169.660    98252181.06446
  22150519.340   116401892.810 7  22150518.760    90702820.38547
  20122249.400   105743224.402 8  20122248.900    82397351.33248
 14  1 10  0 51  0.0000000  0  8G02G31G21G25G14G24G12G29
  23303564.180   122461055.259 7  23303560.320    95424184.96846
  22621009.200   118874211.422 7  22621008.240    92629257.69547
  24581547.800   129176921.032 6  24581548.480   100657357.25344
  20619980.520   108358796.915 8  20619982.540    84435469.05148
  22199226.780   116657722.908 7  22199226.580    90902108.39346
  24013757.560   126193196.423 6  24013759.600    98332398.40146
  22161635.860   116460310.774 7  22161635.200    90748340.85747
  20119031.580   105726314.570 8  20119031.080    82384174.84048
 14  1 10  0 51 30.0000000  0  8G02G31G21G25G14G24G12G29
  23309451.660   122491994.793 7  23309447.940    95448293.70046
  22605075.440   118790478.888 7  22605074.320    92564011.57447
  24563816.800   129083745.727 6  24563817.620   100584753.35744
  20621125.180   108364811.915 8  20621127.160    84440156.05848
  22209426.460   116711322.822 7  22209426.280    90943874.55446
  24033379.280   126296309.368 6  24033381.420    98412746.11145
  22172775.880   116518851.856 7  22172775.180    90793957.24347
  20115908.200   105709901.153 8  20115907.720    82371385.16848
 14  1 10  0 52  0.0000000  0  8G02G31G21G25G14G24G12G29
  23315430.660   122523415.491 7  23315426.920    95472777.36546
  22589182.460   118706960.294 7  22589181.240    92498932.16747
  24546081.260   128990547.802 6  24546082.680   100512131.80445
  20622311.640   108371046.589 8  20622313.560    84445014.24148
  22219710.640   116765366.111 7  22219710.380    90985986.20446
  24053032.280   126399587.205 6  24053034.480    98493222.35045
  22183939.400   116577515.914 7  22183938.540    90839669.47147
  20112879.100   105693983.374 8  20112878.660    82358981.70748
 14  1 10  0 52 30.0000000  0  8G02G31G21G25G14G24G12G29
  23321501.320   122555317.965 7  23321497.420    95497636.46846
  22573330.700   118623658.780 7  22573329.420    92434021.91147
  24528341.880   128897330.225 6  24528343.600   100439494.93845
  20623540.180   108377502.400 8  20623542.040    84450044.73948
  22230078.900   116819851.368 7  22230078.520    91028442.21946
  24072716.480   126503029.092 6  24072718.800    98573826.38946
  22195126.520   116636303.704 7  22195125.440    90885478.11047
  20109944.520   105678562.066 8  20109944.100    82346965.10448
 14  1 10  0 53  0.0000000  0  8G02G31G21G25G14G24G12G29
  23327662.840   122587697.938 7  23327658.820    95522867.64546
  22557520.100   118540573.443 7  22557518.780    92369280.09847
  24510599.020   128804093.289 6  24510600.820   100366842.99345
  20624810.160   108384175.988 8  20624812.020    84455244.92548
  22240530.140   116874772.687 7  22240529.700    91071238.03346
  24092431.020   126606630.277 6  24092433.460    98654554.57546
  22206336.560   116695212.074 7  22206335.340    90931380.71147
  20107103.580   105663632.807 8  20107103.200    82335331.91848
 14  1 10  0 53 30.0000000  0  8G02G31G21G25G14G24G12G29
  23333915.340   122620555.885 7  23333911.360    95548471.27946
  22541751.300   118457707.729 7  22541749.960    92304709.43047
  24492853.160   128710839.839 6  24492854.700   100294178.17444
  20626121.920   108391068.850 8  20626123.720    84460615.97648
  22251064.160   116930128.978 7  22251063.680    91114372.79846
  24112175.980   126710390.931 6  24112178.380    98735407.00646
  22217569.700   116754242.473 7  22217568.480    90977378.39447
  20104356.560   105649197.114 8  20104356.220    82324083.32848
 14  1 10  0 54  0.0000000  0  8G02G31G21G25G14G24G12G29
  23340258.840   122653892.727 7  23340255.420    95574448.02246
  22526025.080   118375065.783 7  22526023.620    92240313.11247
  24475105.080   128617574.019 6  24475106.360   100221503.63745
  20627475.700   108398182.747 8  20627477.400    84466159.26648
  22261680.760   116985919.359 7  22261680.240    91157845.80646
  24131951.100   126814309.962 6  24131953.580    98816382.87045
  22228826.360   116813396.403 7  22228825.160    91023472.34147
  20101703.680   105635255.954 8  20101703.300    82313220.09148
 14  1 10  0 54 30.0000000  0  8G02G31G21G25G14G24G12G29
  23346692.940   122687706.581 7  23346690.320    95600796.46046
  22510341.740   118292649.014 7  22510340.200    92176092.25247
  24457354.880   128524297.092 6  24457356.100   100148820.52045
  20628871.260   108405516.787 8  20628872.980    84471874.09248
  22272379.180   117042140.025 7  22272378.740    91201654.11546
  24151755.680   126918385.156 6  24151758.500    98897480.40845
  22240106.140   116872671.902 7  22240104.980    91069661.00947
  20099144.600   105621807.580 8  20099144.120    82302740.83648
 14  1 10  0 55  0.0000000  0  8G02G31G21G25G14G24G12G29
  23353217.440   122721994.854 7  23353215.320    95627514.56846
  22494701.400   118210457.787 7  22494699.780    92112047.15047
  24439602.720   128431009.747 6  24439603.860   100076129.26145
  20630308.440   108413069.348 8  20630310.280    84477759.20348
  22283158.660   117098786.929 7  22283158.300    91245794.55346
  24171589.380   127022612.599 6  24171592.360    98978696.58546
  22251408.820   116932067.981 7  22251407.640    91115943.62347
  20096678.740   105608849.519 8  20096678.260    82292643.65248
 14  1 10  0 55 30.0000000  0  8G02G31G21G25G14G24G12G29
  23359832.760   122756758.866 7  23359830.780    95654603.40146
  22479104.660   118128496.484 7  22479103.080    92048181.22047
  24421849.480   128337716.433 6  24421850.420   100003433.30745
  20631787.680   108420842.911 8  20631789.580    84483816.51748
  22294019.200   117155859.946 7  22294019.020    91290267.03246
  24191452.240   127126992.935 6  24191455.140    99060031.89545
  22262735.000   116991586.770 7  22262733.620    91162321.88647
  20094306.500   105596383.448 8  20094306.000    82282929.83448
 14  1 10  0 56  0.0000000  0  8G02G31G21G25G14G24G12G29
  23366538.200   122791995.485 7  23366536.180    95682060.50246
  22463551.700   118046765.385 7  22463550.180    91984494.64747
  24404095.160   128244417.537 6  24404095.980    99930733.04345
  20633308.560   108428835.384 8  20633310.520    84490044.41248
  22304959.900   117213353.836 7  22304959.740    91335067.47046
  24211343.560   127231522.399 6  24211346.540    99141483.38646
  22274084.080   117051225.897 7  22274082.680    91208793.91247
  20092027.360   105584406.594 8  20092026.840    82273597.22148
 14  1 10  0 56 30.0000000  0  8G02G31G21G25G14G24G12G29
  23373333.960   122827706.580 7  23373331.760    95709887.35846
  22448043.520   117965269.272 7  22448042.160    91920991.19947
  24386340.720   128151118.113 6  24386341.420    99858032.37346
  20634871.620   108437049.625 8  20634873.700    84496445.11248
  22315980.700   117271268.831 7  22315980.540    91380196.04146
  24231263.460   127336201.907 6  24231266.280    99223051.82845
  22285456.300   117110987.697 7  22285455.120    91255361.52047
  20089841.680   105572920.884 8  20089841.180    82264647.31948
 14  1 10  0 57  0.0000000  0  8G02G31G21G25G14G24G12G29
  23380219.680   122863891.729 7  23380217.480    95738083.59146
  22432580.660   117884011.206 7  22432579.360    91857673.23147
  24368586.660   128057821.598 6  24368587.500    99785333.95845
  20636477.040   108445486.103 8  20636479.080    84503018.99048
  22327081.320   117329602.756 7  22327081.060    91425651.03846
  24251211.620   127441029.688 6  24251214.320    99304735.77446
  22296851.860   117170872.647 7  22296850.860    91302025.08547
  20087749.400   105561926.128 8  20087748.960    82256079.97848
 14  1 10  0 57 30.0000000  0  8G02G31G21G25G14G24G12G29
  23387194.960   122900547.491 6  23387192.880    95766646.51846
  22417162.980   117802990.866 7  22417161.660    91794540.51147
  24350833.140   127964526.986 6  24350833.860    99712636.97445
  20638124.360   108454142.529 8  20638126.280    84509764.25048
  22338260.640   117388350.461 7  22338260.380    91471428.46246
  24271187.200   127546001.486 6  24271189.680    99386531.95445
  22308270.560   117230878.223 7  22308269.520    91348782.64447
  20085749.960   105551419.191 8  20085749.580    82247892.76148
 14  1 10  0 58  0.0000000  0  8G02G31G21G25G14G24G12G29
  23394259.640   122937672.146 7  23394257.560    95795574.82246
  22401790.860   117722209.867 7  22401789.400    91731594.27847
  24333080.420   127871236.007 6  24333081.100    99639942.84645
  20639813.440   108463018.410 8  20639815.160    84516680.51548
  22349518.020   117447508.579 7  22349517.820    91517525.68046
  24291189.700   127651114.810 6  24291192.120    99468438.40145
  22319712.100   117291003.725 7  22319711.000    91395633.65347
  20083843.100   105541398.777 8  20083842.760    82240084.64648
 14  1 10  0 58 30.0000000  0  8G02G31G21G25G14G24G12G29
  23401413.720   122975265.519 7  23401411.480    95824868.35446
  22386464.920   117641671.246 7  22386463.280    91668836.90747
  24315329.220   127777952.493 6  24315329.560    99567254.53345
  20641544.440   108472114.792 8  20641546.100    84523768.59948
  22360853.200   117507075.354 7  22360852.900    91563941.32546
  24311219.000   127756368.683 6  24311221.400    99550454.39845
  22331176.640   117351249.653 7  22331175.480    91442578.49447
  20082028.860   105531864.989 8  20082028.540    82232655.71748
 14  1 10  0 59  0.0000000  0  8G02G31G21G25G14G24G12G29
  23408657.320   123013328.832 7  23408654.740    95854528.08846
  22371185.880   117561379.506 7  22371184.160    91606271.91747
  24297580.480   127684681.057 6  24297580.340    99494575.63345
  20643317.840   108481433.967 8  20643319.540    84531030.29648
  22372266.160   117567050.365 7  22372265.860    91610675.08746
  24331275.180   127861763.924 6  24331277.600    99632580.52946
  22342664.480   117411618.487 7  22342663.440    91489619.12047
  20080307.540   105522819.228 8  20080307.200    82225607.07848
 14  1 10  0 59 30.0000000  0  8G02G31G21G25G14G24G12G29
  23415989.880   123051860.065 7  23415987.020    95884552.44846
  22355954.060   117481336.086 7  22355952.380    91543900.43147
  24279834.240   127591422.676 6  24279833.640    99421906.86345
  20645133.360   108490975.120 8  20645135.260    84538464.95448
  22383756.160   117627429.958 7  22383755.840    91657724.11046
  24351357.680   127967297.425 6  24351360.080    99714814.42845
  22354175.360   117472108.827 7  22354174.400    91536754.44847
  20078678.780   105514259.648 8  20078678.380    82218937.28548
 14  1 10  1  0  0.0000000  0  8G02G31G21G25G14G24G12G29
  23423411.320   123090859.058 7  23423408.400    95914941.26346
  22340770.100   117401544.273 7  22340768.460    91481724.99347
  24262090.980   127498180.201 6  24262090.200    99349250.54446
  20646991.360   108500739.196 8  20646993.320    84546073.32348
  22395322.660   117688212.023 7  22395322.380    91705086.71846
  24371466.240   128072968.071 6  24371468.640    99797155.16746
  22365709.600   117532721.601 7  22365708.600    91583985.16547
  20077142.540   105506186.229 8  20077142.060    82212646.31448
 14  1 10  1  0 30.0000000  0  8G02G31G21G25G14G24G12G29
  23430921.160   123130322.795 7  23430918.160    95945692.21946
  22325634.040   117322004.301 7  22325632.460    91419745.80647
  24244350.940   127404954.629 6  24244349.920    99276607.32545
  20648891.500   108510724.520 8  20648893.460    84553854.08948
  22406964.860   117749392.192 7  22406964.600    91752759.57346
  24391600.140   128178772.362 6  24391602.400    99879600.03045
  22377266.660   117593454.700 7  22377265.900    91631309.61747
  20075698.240   105498596.387 8  20075697.780    82206732.14948
 14  1 10  1  1  0.0000000  0  8G02G31G21G25G14G24G12G29
  23438519.460   123170252.378 7  23438516.380    95976806.20046
  22310546.820   117242720.632 7  22310545.320    91357966.32447
  24226615.080   127311751.117 6  24226613.660    99203981.32345
  20650834.180   108520933.596 8  20650836.220    84561809.20548
  22418682.700   117810969.870 7  22418682.340    91800742.17146
  24411759.440   128284710.506 6  24411761.760    99962149.19646
  22388846.940   117654310.255 7  22388846.520    91678729.48747
  20074346.280   105491491.742 8  20074345.820    82201196.06448
 14  1 10  1  1 30.0000000  0  8G02G31G21G25G14G24G12G29
  23446205.760   123210643.886 7  23446202.540    96008280.08346
  22295508.300   117163692.823 7  22295506.820    91296386.22147
  24208883.160   127218568.797 6  24208881.680    99131371.84445
  20652818.920   108531363.733 8  20652821.000    84569936.57648
  22430475.120   117872939.466 7  22430474.640    91849030.14946
  24431943.420   128390778.076 6  24431945.720   100044799.19745
  22400450.120   117715285.832 7  22400449.940    91726242.89547
  20073085.920   105484868.576 8  20073085.480    82196035.16248
 14  1 10  1  2  0.0000000  0  8G02G31G21G25G14G24G12G29
  23453980.260   123251498.858 7  23453976.900    96040115.15446
  22280519.440   117084926.048 7  22280517.960    91235009.50747
  24191156.040   127125412.339 6  24191154.560    99058782.50045
  20654846.320   108542017.658 8  20654848.360    84578238.32948
  22442342.160   117935300.827 7  22442341.560    91897623.41146
  24452152.000   128496975.393 6  24452154.540   100127550.33945
  22412076.660   117776383.570 7  22412076.480    91773851.47947
  20071917.460   105478728.401 8  20071917.060    82191250.61248
 14  1 10  1  2 30.0000000  0  8G02G31G21G25G14G24G12G29
  23461842.500   123292815.360 7  23461839.080    96072309.82946
  22265580.460   117006421.367 7  22265578.960    91173837.03547
  24173434.240   127032283.657 6  24173432.740    98986214.81545
  20656916.260   108552894.580 8  20656918.120    84586713.84148
  22454282.940   117998050.115 7  22454282.340    91946518.96346
  24472384.840   128603299.743 6  24472387.580   100210400.44945
  22423726.240   117837602.203 7  22423725.980    91821554.26947
  20070840.580   105473069.505 8  20070840.200    82186841.08748
 14  1 10  1  3  0.0000000  0  8G02G31G21G25G14G24G12G29
  23469792.140   123334590.900 7  23469788.700    96104862.19446
  22250691.620   116928179.870 7  22250690.100    91112869.63647
  24155717.820   126939183.564 6  24155716.500    98913669.36245
  20659028.360   108563993.472 8  20659030.200    84595362.32548
  22466296.760   118061183.444 7  22466296.300    91995713.76046
  24492641.360   128709748.319 6  24492644.220   100293347.35045
  22435398.660   117898941.153 7  22435398.260    91869350.82047
  20069854.900   105467889.982 8  20069854.560    82182805.09948
 14  1 10  1  3 30.0000000  0  8G02G31G21G25G14G24G12G29
  23477829.260   123376826.724 7  23477825.880    96137773.21746
  22235853.760   116850206.213 7  22235852.240    91052110.93847
  24138007.780   126846117.464 6  24138006.880    98841150.42745
  20661183.140   108575316.807 8  20661184.940    84604185.68848
  22478383.480   118124700.222 7  22478383.200    92045207.33746
  24512921.560   128816321.090 6  24512924.460   100376391.01545
  22447094.360   117960402.445 7  22447093.860    91917242.70347
  20068960.660   105463191.098 8  20068960.360    82179143.63448
 14  1 10  1  4  0.0000000  0  8G02G31G21G25G14G24G12G29
  23485953.440   123419520.781 7  23485950.360    96171041.30646
  22221067.260   116772502.245 7  22221065.800    90991562.39847
  24120304.240   126753086.599 6  24120303.860    98768658.94545
  20663380.420   108586864.091 8  20663382.300    84613183.57348
  22490542.580   118188597.113 7  22490542.420    92094997.10646
  24533225.000   128923016.108 6  24533227.940   100459529.98246
  22458813.260   118021985.283 7  22458812.760    91965229.30447
  20068157.600   105458971.181 8  20068157.280    82175855.39148
 14  1 10  1  4 30.0000000  0  8G02G31G21G25G14G24G12G29
  23494164.580   123462672.760 6  23494161.880    96204666.19746
  22206332.500   116695070.666 7  22206331.260    90931226.11947
  24102608.020   126660094.340 6  24102607.920    98696197.54445
  20665620.540   108598636.400 8  20665622.500    84622356.79148
  22502773.700   118252872.069 7  22502773.500    92145081.47346
  24553551.520   129029832.203 6  24553554.560   100542763.19246
  22470555.440   118083689.899 7  22470554.920    92013310.80147
  20067445.720   105455230.260 8  20067445.360    82172940.38948
 14  1 10  1  5  0.0000000  0  8G02G31G21G25G14G24G12G29
  23502462.360   123506279.604 7  23502459.780    96238645.55046
  22191649.740   116617912.015 8  22191648.520    90871102.50147
  24084919.100   126567140.758 6  24084919.360    98623766.30745
  20667903.260   108610632.001 8  20667905.180    84631704.00348
  22515075.780   118317520.175 7  22515075.540    92195456.60446
  24573900.340   129136765.362 6  24573903.180   100626087.70145
  22482320.480   118145515.074 7  22482320.020    92061486.22647
  20066824.440   105451965.343 8  20066824.040    82170396.30848
 14  1 10  1  5 30.0000000  0  8G02G31G21G25G14G24G12G29
  23510846.160   123550337.054 7  23510843.400    96272976.04146
  22177018.940   116541025.946 8  22177017.540    90811191.26247
  24067237.680   126474225.630 6  24067237.980    98551364.97645
  20670227.980   108622848.149 8  20670229.900    84641223.07448
  22527447.880   118382535.918 7  22527447.580    92246118.21346
  24594270.620   129243810.781 6  24594273.340   100709499.67746
  22494107.680   118207457.391 7  22494107.220    92109752.95447
  20066293.020   105449172.760 8  20066292.640    82168220.26948
 14  1 10  1  6  0.0000000  0  8G02G31G21G25G14G24G12G29
  23519316.740   123594849.427 7  23519313.760    96307661.01546
  22162441.440   116464420.307 8  22162439.960    90751498.55847
  24049565.160   126381356.857 6  24049565.500    98478999.78645
  20672595.740   108635290.441 8  20672597.680    84650918.36548
  22539890.480   118447921.668 7  22539890.160    92297068.13046
  24614662.780   129350971.824 6  24614665.400   100793001.73345
  22505918.320   118269522.597 7  22505917.540    92158115.44946
  20065852.340   105446856.887 8  20065851.940    82166415.69248
 14  1 10  1  6 30.0000000  0  8G02G31G21G25G14G24G12G29
  23527873.320   123639813.610 7  23527870.020    96342698.04146
  22147917.300   116388095.320 8  22147915.760    90692024.54747
  24031901.540   126288535.189 6  24031902.160    98406671.27745
  20675006.260   108647957.297 8  20675008.180    84660788.63248
  22552402.640   118513672.829 7  22552402.340    92348302.79346
  24635076.220   129458245.189 6  24635078.860   100876591.29445
  22517751.940   118331708.427 7  22517750.880    92206571.91946
  20065501.820   105445014.847 8  20065501.420    82164980.34348
 14  1 10  1  7  0.0000000  0  8G02G31G21G25G14G24G12G29
  23536515.800   123685229.082 7  23536512.400    96378086.73146
  22133447.160   116312053.911 8  22133445.560    90632771.50147
  24014247.480   126195763.374 6  24014248.400    98334381.66545
  20677459.700   108660849.559 8  20677461.480    84670834.54148
  22564983.760   118579787.229 7  22564983.560    92399820.48746
  24655510.620   129565629.324 6  24655513.380   100960267.20745
  22529608.720   118394015.874 7  22529607.600    92255123.13247
  20065241.420   105443646.317 8  20065241.040    82163913.95648
 14  1 10  1  7 30.0000000  0  8G02G31G21G25G14G24G12G29
  23545243.800   123731094.625 7  23545240.580    96413826.09846
  22119031.420   116236298.744 8  22119029.860    90573741.50947
  23996603.520   126103044.710 6  23996604.660    98262133.42845
  20679956.000   108673967.809 8  20679957.720    84681056.54348
  22577633.540   118646262.188 7  22577633.320    92451619.15246
  24675965.860   129673122.990 6  24675968.700   101044028.44046
  22541488.560   118456444.736 7  22541487.600    92303768.97647
  20065071.040   105442750.589 8  20065070.620    82163215.99248
 14  1 10  1  8  0.0000000  0  8G02G31G21G25G14G24G12G29
  23554056.840   123777407.268 7  23554053.760    96449913.85446
  22104670.280   116160830.699 8  22104668.740    90514935.23447
  23978969.800   126010379.307 6  23978970.760    98189926.67945
  20682494.960   108687310.468 8  20682496.720    84691453.41648
  22590351.060   118713093.209 7  22590350.740    92503695.25646
  24696441.280   129780722.269 6  24696444.080   101127871.95245
  22553391.240   118518993.647 7  22553390.420    92352508.37147
  20064990.120   105442325.117 8  20064989.640    82162884.45848
 14  1 10  1  8 30.0000000  0  8G02G31G21G25G14G24G12G29
  23562954.940   123824167.520 7  23562952.180    96486350.39946
  22090364.460   116085653.735 7  22090363.160    90456355.80047
  23961347.120   125917771.756 6  23961347.940    98117765.01545
  20685077.020   108700879.550 8  20685078.780    84702026.71948
  22603136.100   118780279.203 7  22603135.760    92556047.96646
  24716936.840   129888427.145 6  24716939.780   101211797.76445
  22565317.000   118581664.323 7  22565316.320    92401342.64346
  20064998.780   105442370.500 8  20064998.240    82162919.82348
 14  1 10  1  9  0.0000000  0  8G02G31G21G25G14G24G12G29
  23571937.680   123871372.510 7  23571935.200    96523133.49246
  22076114.240   116010769.102 7  22076113.100    90398004.15247
  23943735.700   125825223.161 6  23943736.140    98045649.31946
  20687701.920   108714673.987 8  20687703.760    84712775.62248
  22615988.000   118847815.910 7  22615987.580    92608673.96146
  24737451.900   129996234.345 6  24737455.060   101295803.31145
  22577265.620   118644455.139 7  22577265.000    92450270.53146
  20065096.520   105442884.174 8  20065095.960    82163320.08948
 14  1 10  1  9 30.0000000  0  8G02G31G21G25G14G24G12G29
  23581004.680   123919019.664 7  23581002.040    96560261.15946
  22061919.800   115936177.171 7  22061918.720    90339880.57347
  23926135.700   125732734.421 6  23926135.760    97973580.22045
  20690369.540   108728692.645 8  20690371.480    84723699.24848
  22628905.920   118915698.971 7  22628905.400    92661569.83046
  24757985.840   130104140.684 6  24757989.180   101379886.10245
  22589236.960   118707365.152 7  22589236.220    92499291.32046
  20065282.980   105443863.973 8  20065282.400    82164083.57248
 14  1 10  1 10  0.0000000  0  7G02G31G21G25G14G12G29
  23590155.920   123967109.301 7  23590153.160    96597733.59946
  22047781.860   115861882.036 7  22047780.820    90281988.27347
  23908547.780   125640309.357 6  23908547.580    97901560.76945
  20693080.160   108742937.228 8  20693082.180    84734798.92748
  22641889.340   118983926.615 7  22641888.920    92714734.22246
  22601231.240   118770395.637 7  22601230.560    92548405.96446
  20065558.200   105445310.267 8  20065557.660    82165210.55448
 14  1 10  1 10 30.0000000  0  7G02G31G21G25G14G12G29
  23599391.940   124015644.327 7  23599389.260    96635553.09646
  22033701.740   115787890.693 7  22033700.680    90224332.68947
  23890973.320   125547955.062 6  23890972.840    97829596.46145
  20695834.720   108757412.394 8  20695836.760    84746078.27348
  22654938.600   119052501.102 7  22654938.180    92768168.87546
  22613249.320   118833551.058 7  22613248.800    92597617.95147
  20065922.740   105447226.037 8  20065922.240    82166703.35848
 14  1 10  1 11  0.0000000  0  7G02G31G21G25G14G12G29
  23608711.280   124064617.359 7  23608708.640    96673713.91046
  22019678.720   115714198.944 8  22019677.500    90166910.54147
  23873411.540   125455667.393 6  23873410.940    97757684.06345
  20698632.080   108772112.058 8  20698634.000    84757532.55548
  22668051.920   119121412.450 7  22668051.480    92821866.02546
  22625289.860   118896824.799 7  22625289.520    92646922.14246
  20066375.240   105449604.196 8  20066374.780    82168556.47548
 14  1 10  1 11 30.0000000  0  7G02G31G21G25G14G12G29
  23618114.140   124114029.827 7  23618111.580    96712217.13046
  22005713.820   115640812.613 8  22005712.500    90109726.39547
  23855863.500   125363452.335 6  23855862.800    97685828.21345
  20701472.840   108787039.829 8  20701474.700    84769164.58048
  22681229.380   119190661.263 7  22681228.880    92875826.12746
  22637353.740   118960220.333 7  22637353.260    92696321.24547
  20066916.200   105452447.175 8  20066915.800    82170771.78348
 14  1 10  1 12  0.0000000  0  7G02G31G21G25G14G12G29
  23627600.180   124163880.186 7  23627597.700    96751061.55146
  21991807.340   115567733.470 8  21991806.080    90052781.61847
  23838329.700   125271311.962 6  23838328.980    97614030.57546
  20704356.960   108802195.641 8  20704358.820    84780974.30348
  22694470.400   119260244.325 7  22694469.840    92930046.67746
  22649440.840   119023737.542 7  22649440.120    92745815.17947
  20067545.280   105455753.310 8  20067544.960    82173347.99048
 14  1 10  1 12 30.0000000  0  7G02G31G21G25G14G12G29
  23637168.660   124214163.689 7  23637166.220    96790243.49046
  21977959.180   115494960.659 8  21977957.900    89996075.52647
  23820810.100   125179245.656 6  23820809.420    97542290.64445
  20707283.800   108817576.470 8  20707285.760    84792959.36148
  22707774.020   119330155.712 7  22707773.440    92984523.07446
  22661550.340   119087373.107 7  22661549.600    92795401.31146
  20068261.660   105459518.169 8  20068261.340    82176281.64748
 14  1 10  1 13  0.0000000  0  7G02G31G21G25G14G12G29
  23646820.140   124264883.736 7  23646817.800    96829765.59646
  21964170.580   115422501.418 7  21964169.300    89939613.79047
  23803305.880   125087260.711 6  23803305.300    97470614.12545
  20710254.360   108833187.296 8  20710256.360    84805123.63748
  22721140.560   119400396.975 7  22721140.140    93039256.51346
  22673683.200   119151131.281 7  22673682.460    92845082.98247
  20069066.100   105463745.386 8  20069065.720    82179575.58448
 14  1 10  1 13 30.0000000  0  7G02G31G21G25G14G12G29
  23656554.140   124316037.360 7  23656551.980    96869625.54446
  21950441.840   115350356.681 8  21950440.560    89883397.12047
  23785817.100   124995357.485 6  23785816.600    97399001.26645
  20713268.520   108849026.967 8  20713270.440    84817466.24248
  22734568.940   119470963.494 7  22734568.840    93094243.39946
  22685839.100   119215010.840 7  22685838.520    92894859.24647
  20069958.040   105468432.323 8  20069957.560    82183227.73948
 14  1 10  1 14  0.0000000  0  7G02G31G21G25G14G12G29
  23666369.820   124367618.847 7  23666367.640    96909818.91646
  21936772.660   115278524.445 8  21936771.300    89827423.95347
  23768343.700   124903534.960 6  23768343.200    97327451.27945
  20716325.440   108865091.589 8  20716327.340    84829984.12548
  22748057.820   119541848.052 7  22748058.020    93149478.10546
  22698017.420   119279008.155 7  22698016.900    92944727.26546
  20070936.460   105473573.616 8  20070935.860    82187233.94348
 14  1 10  1 14 30.0000000  0  7G02G31G21G25G14G12G29
  23676267.760   124419633.019 6  23676265.480    96950349.44946
  21923164.540   115207013.032 8  21923163.060    89771700.77247
  23750887.140   124811801.245 6  23750886.900    97255970.50245
  20719426.360   108881387.404 8  20719428.260    84842682.15948
  22761607.860   119613053.998 7  22761608.080    93204963.24046
  22710219.200   119343129.075 7  22710218.640    92994691.59647
  20072002.220   105479174.054 8  20072001.600    82191597.92348
 14  1 10  1 15  0.0000000  0  7G02G31G21G25G14G12G29
  23686247.180   124472076.040 6  23686244.980    96991214.11246
  21909617.420   115135822.778 8  21909616.020    89716227.85547
  23733447.700   124720156.874 6  23733447.640    97184559.35645
  20722571.000   108897912.701 8  20722572.860    84855559.01448
  22775218.140   119684576.453 7  22775218.200    93260695.01646
  22722444.220   119407371.540 7  22722443.440    93044750.62846
  20073154.740   105485230.283 8  20073154.080    82196317.06248
 14  1 10  1 15 30.0000000  0  7G02G31G21G25G14G12G29
  23696307.600   124524943.757 7  23696305.280    97032409.72946
  21896131.400   115064953.196 8  21896130.000    89661004.79847
  23716025.220   124628601.355 6  23716025.240    97113217.43445
  20725758.820   108914664.819 8  20725760.700    84868612.61048
  22788887.520   119756409.117 7  22788887.400    93316668.50846
  22734691.720   119471732.085 7  22734690.800    93094901.68446
  20074393.280   105491738.810 8  20074392.640    82201388.64448
 14  1 10  1 16  0.0000000  0  7G02G31G21G25G14G12G29
  23706449.080   124578236.856 7  23706446.320    97073936.80746
  21882707.300   114994408.911 8  21882705.840    89606035.23147
  23698620.500   124537139.260 6  23698620.720    97041948.30446
  20728990.400   108931646.295 8  20728992.200    84881844.91948
  22802615.880   119828551.318 7  22802615.540    93372883.18646
  22746962.120   119536213.690 7  22746961.180    93145147.08546
  20075717.940   105498700.040 8  20075717.380    82206812.97748
 14  1 10  1 16 30.0000000  0  7G02G31G21G25G14G12G29
  23716671.260   124631953.295 7  23716668.100    97115793.76646
  21869345.500   114924191.774 8  21869343.960    89551320.57547
  23681234.000   124445772.964 6  23681234.280    96970753.83546
  20732265.600   108948857.083 8  20732267.400    84895255.92048
  22816402.420   119900999.904 7  22816402.120    93429336.62846
  22759255.460   119600815.828 7  22759254.440    93195486.38446
  20077128.480   105506112.653 8  20077128.000    82212589.04648
 14  1 10  1 17  0.0000000  0  7G02G31G21G25G14G12G29
  23726973.640   124686090.647 7  23726970.240    97157978.72846
  21856046.240   114854303.386 8  21856044.640    89496862.08947
  23663866.040   124354504.059 6  23663866.360    96899635.23146
  20735584.320   108966296.720 8  20735586.180    84908845.24148
  22830246.540   119973750.855 7  22830246.240    93486025.67046
  22771571.560   119665537.748 7  22771570.560    93245919.02546
  20078624.500   105513974.654 8  20078624.120    82218715.28048
 14  1 10  1 17 30.0000000  0  7G02G31G21G25G14G12G29
  23737356.540   124740651.896 7  23737353.080    97200493.99146
  21842810.740   114784750.508 8  21842809.140    89442665.03947
  23646518.080   124263339.373 6  23646518.340    96828597.86045
  20738947.400   108983969.777 8  20738949.300    84922616.45748
  22844148.380   120046805.614 7  22844148.280    93542951.43846
  22783911.300   119730383.646 7  22783910.280    93296448.26947
  20080206.660   105522289.156 8  20080206.340    82225194.11648
 14  1 10  1 18  0.0000000  0  7G02G31G21G25G14G12G29
  23747819.180   124795633.834 7  23747815.900    97243337.03946
  21829639.220   114715534.014 8  21829637.720    89388730.11247
  23629190.220   124172279.816 6  23629190.300    96757642.37145
  20742354.640   109001875.125 8  20742356.620    84936568.67248
  22858107.240   120120159.850 7  22858107.220    93600110.55846
  22796274.380   119795352.238 7  22796273.460    93347073.13646
  20081874.380   105531053.244 8  20081874.080    82232023.28048
 14  1 10  1 18 30.0000000  0  7G02G31G21G25G14G12G29
  23758361.220   124851033.850 6  23758358.220    97286505.88546
  21816531.880   114646654.800 8  21816530.520    89335058.01247
  23611882.360   124081326.727 6  23611882.800    96686769.88346
  20745805.840   109020011.653 8  20745807.960    84950701.03048
  22872122.200   120193808.731 7  22872122.080    93657499.29446
  22808660.460   119860441.738 7  22808659.700    93397792.19246
  20083627.180   105540264.343 8  20083626.900    82239200.76248
 14  1 10  1 19  0.0000000  0  7G02G31G21G25G14G12G29
  23768982.120   124906847.726 7  23768979.120    97329997.20946
  21803488.700   114578112.879 8  21803487.480    89281648.73147
  23594594.800   123990480.091 6  23594595.320    96615980.33846
  20749300.600   109038377.266 8  20749302.840    84965011.89548
  22886192.180   120267746.988 7  22886191.880    93715113.49246
  22821069.320   119925650.388 7  22821068.580    93448604.11846
  20085464.340   105549918.763 8  20085464.140    82246723.69348
 14  1 10  1 19 30.0000000  0  7G02G31G21G25G14G12G29
  23779681.880   124963075.195 7  23779678.720    97373810.79445
  21790510.420   114509911.681 8  21790509.200    89228504.93647
  23577328.240   123899743.677 6  23577328.840    96545276.66345
  20752839.300   109056973.657 8  20752841.520    84979502.58348
  22900317.020   120341973.323 7  22900316.540    93772952.18546
  22833501.120   119990979.604 7  22833500.400    93499509.96446
  20087385.920   105560016.716 8  20087385.720    82254592.22748
 14  1 10  1 20  0.0000000  0  7G02G31G21G25G14G12G29
  23790460.580   125019716.227 7  23790457.240    97417946.66746
  21777597.700   114442055.276 8  21777596.540    89175629.82247
  23560083.440   123809120.832 6  23560083.860    96474661.47346
  20756422.380   109075802.628 8  20756424.500    84994174.50648
  22914496.200   120416485.675 7  22914495.760    93831013.73546
  22845956.100   120056430.372 7  22845955.380    93550510.52646
  20089391.960   105570558.209 8  20089391.600    82262806.38648
 14  1 10  1 20 30.0000000  0  7G02G31G21G25G14G12G29
  23801317.540   125076768.896 7  23801314.140    97462403.28946
  21764751.020   114374545.719 8  21764749.980    89123024.97847
  23542860.740   123718614.218 6  23542861.000    96404136.86846
  20760049.760   109094864.184 8  20760051.720    85009027.64848
  22928729.260   120491280.841 7  22928728.900    93889295.68546
  22858434.160   120122002.752 7  22858433.380    93601605.84446
  20091482.100   105581541.672 8  20091481.660    82271364.92948
 14  1 10  1 21  0.0000000  0  7G02G31G21G25G14G12G29
  23812252.460   125134232.743 6  23812249.320    97507180.31246
  21751971.040   114307386.127 8  21751969.980    89070692.83947
  23525660.820   123628227.686 6  23525661.020    96333705.82546
  20763721.620   109114159.542 8  20763723.460    85024062.99048
  22943015.780   120566356.611 7  22943015.520    93947796.25046
  22870935.400   120187697.621 7  22870934.660    93652796.61446
  20093656.280   105592966.689 8  20093655.740    82280267.54448
 14  1 10  1 21 30.0000000  0  7G02G31G21G25G14G12G29
  23823264.700   125192103.107 7  23823261.800    97552274.10246
  21739257.660   114240576.315 8  21739256.480    89018633.24947
  23508483.680   123537961.217 6  23508483.960    96263368.34145
  20767437.580   109133686.547 8  20767439.260    85039278.83447
  22957354.680   120641707.567 7  22957354.300    94006511.25146
  22883459.540   120253513.007 7  22883459.000    93704081.29446
  20095913.740   105604829.443 8  20095913.140    82289511.24848
 14  1 10  1 22  0.0000000  0  7G02G31G21G25G14G12G29
  23834354.180   125250378.996 7  23834351.320    97597683.86746
  21726611.460   114174119.360 8  21726610.080    88966848.59947
  23491330.020   123447817.960 6  23491330.360    96193126.87045
  20771197.740   109153446.021 8  20771199.340    85054675.81748
  22971745.420   120717331.006 7  22971744.760    94065438.60546
  22896006.680   120319449.154 7  22896006.220    93755460.07046
  20098254.240   105617129.098 8  20098253.700    82299095.39148
 14  1 10  1 22 30.0000000  0  7G02G31G21G25G14G12G29
  23845520.880   125309061.005 7  23845518.020    97643410.09446
  21714033.020   114108019.175 8  21714031.700    88915341.97147
  23474200.600   123357801.506 6  23474200.820    96122984.17546
  20775002.560   109173440.388 8  20775004.220    85070255.84348
  22986187.760   120793226.267 7  22986187.040    94124577.75346
  22908577.320   120385508.113 7  22908576.960    93806934.54346
  20100678.060   105629866.516 8  20100677.580    82309020.65348
 14  1 10  1 23  0.0000000  0  7G02G31G21G25G14G12G29
  23856763.900   125368143.644 7  23856761.120    97689448.52046
  21701522.280   114042274.611 8  21701520.980    88864112.43947
  23457095.160   123267911.079 7  23457095.180    96052939.72246
  20778851.280   109193666.310 8  20778853.120    85086016.29448
  23000680.500   120869386.550 7  23000679.800    94183923.42646
  22921170.680   120451686.285 7  22921170.420    93858501.92446
  20103184.180   105643036.749 8  20103183.720    82319283.17248
 14  1 10  1 23 30.0000000  0  7G02G31G21G25G14G12G29
  23868083.460   125427628.060 7  23868080.640    97735799.99346
  21689080.180   113976891.058 8  21689078.980    88813164.22247
  23440014.620   123178151.792 6  23440014.520    95982997.44446
  20782744.620   109214126.880 8  20782746.700    85101959.59948
  23015223.560   120945811.403 7  23015223.020    94243475.24346
  22933787.280   120517986.319 7  22933787.000    93910164.26746
  20105772.920   105656640.979 8  20105772.500    82329883.87248
 14  1 10  1 24  0.0000000  0  7G02G31G21G25G14G12G29
  23879479.040   125487512.308 7  23879476.260    97782463.04746
  21676707.200   113911870.380 8  21676705.960    88762498.76147
  23422959.580   123088526.610 7  23422959.300    95913159.66145
  20786682.680   109234822.240 8  20786684.980    85118085.85148
  23029816.420   121022497.742 7  23029816.340    94303230.79346
  22946427.100   120584408.242 7  22946426.720    93961921.57746
  20108443.900   105670677.502 8  20108443.520    82340821.42048
 14  1 10  1 24 30.0000000  0  7G02G31G21G25G14G12G29
  23890950.060   125547793.117 7  23890947.500    97829435.09846
  21664403.480   113847213.677 8  21664402.140    88712116.90247
  23405930.020   122999035.887 7  23405929.640    95843426.67446
  20790665.260   109255751.354 8  20790667.720    85134394.25048
  23044458.240   121099440.663 7  23044458.320    94363186.30346
  22959089.760   120650950.680 7  22959089.320    94013772.78646
  20111196.680   105685143.708 8  20111196.340    82352093.79048
 14  1 10  1 25  0.0000000  0  7G02G31G21G25G14G12G29
  23902496.700   125608470.797 7  23902494.040    97876716.41546
  21652169.720   113782924.687 8  21652168.340    88662021.59847
  23388926.960   122909684.143 7  23388926.440    95773801.93946
  20794692.880   109276916.367 8  20794695.340    85150886.46148
  23059148.700   121176639.215 7  23059148.760    94423340.99846
  22971775.480   120717615.548 7  22971775.300    94065719.40446
  20114031.220   105700039.598 8  20114030.960    82363700.97348
 14  1 10  1 25 30.0000000  0  7G02G31G21G25G14G12G29
  23914118.540   125669543.445 7  23914115.360    97924305.48346
  21640006.360   113719005.844 8  21640005.060    88612214.71147
  23371950.760   122820473.702 7  23371950.040    95704287.32646
  20798765.460   109298317.491 8  20798767.820    85167562.65848
  23073887.180   121254090.282 7  23073887.080    94483692.45545
  22984484.640   120784403.336 7  22984484.640    94117761.80546
  20116947.440   105715364.574 8  20116947.260    82375642.51748
 14  1 10  1 26  0.0000000  0  7G02G31G21G25G14G12G29
  23925814.940   125731008.476 6  23925811.320    97972200.31046
  21627913.720   113655458.579 8  21627912.460    88562697.36147
  23355001.760   122731405.977 7  23355000.920    95634883.92245
  20802882.940   109319954.216 8  20802885.060    85184422.43448
  23088672.940   121331789.822 7  23088672.680    94544237.54345
  22997217.100   120851312.591 7  22997217.020    94169898.86546
  20119944.800   105731115.965 8  20119944.620    82387916.32648
 14  1 10  1 26 30.0000000  0  7G02G31G21G25G14G12G29
  23937585.960   125792866.158 6  23937582.180    98020401.06346
  21615892.600   113592287.545 8  21615891.380    88513473.18747
  23338080.800   122642485.868 7  23338080.040    95565595.56745
  20807045.760   109341829.116 8  20807047.660    85201467.80448
  23103505.680   121409736.741 7  23103505.500    94604975.39046
  23009973.140   120918345.713 7  23009973.100    94222132.41546
  20123023.480   105747294.469 8  20123023.240    82400522.95648
 14  1 10  1 27  0.0000000  0  7G02G31G21G25G14G12G29
  23949430.680   125855112.035 6  23949427.220    98068904.32546
  21603943.000   113529491.624 8  21603941.580    88464541.29247
  23321187.800   122553712.636 7  23321186.960    95496421.60546
  20811253.320   109363939.407 8  20811255.120    85218696.59848
  23118384.360   121487924.985 7  23118384.260    94665901.24746
  23022752.180   120985499.570 7  23022752.080    94274460.07146
  20126182.620   105763895.491 8  20126182.340    82413458.82048
 14  1 10  1 27 30.0000000  0  7G02G31G21G25G14G12G29
  23961348.980   125917744.829 6  23961346.120    98117709.09045
  21592065.260   113467073.752 8  21592063.800    88415903.99447
  23304323.380   122465089.810 7  23304322.480    95427364.87246
  20815505.800   109386286.028 8  20815507.500    85236109.54348
  23133308.540   121566352.101 6  23133308.600    94727013.28346
  23035554.400   121052774.973 7  23035554.040    94326882.42246
  20129421.940   105780917.944 8  20129421.620    82426723.06948
 14  1 10  1 28  0.0000000  0  7G02G31G21G25G14G12G29
  23973340.560   125980761.330 6  23973338.140    98166812.85746
  21580259.600   113405035.176 8  21580258.280    88367562.26147
  23287487.760   122376618.408 7  23287486.900    95358426.14645
  20819803.020   109408868.184 8  20819804.600    85253706.02747
  23148277.420   121645013.986 7  23148277.540    94788308.24046
  23048379.480   121120171.000 7  23048378.980    94379398.78246
  20132741.040   105798359.485 8  20132740.620    82440313.88448
 14  1 10  1 28 30.0000000  0  7G02G31G21G25G14G12G29
  23985404.800   126044158.346 7  23985402.460    98216213.13546
  21568526.360   113343376.642 8  21568525.000    88319516.64147
  23270681.140   122288299.357 7  23270680.360    95289606.10745
  20824144.800   109431684.784 8  20824146.420    85271485.18748
  23163290.120   121723905.918 7  23163290.180    94849782.43645
  23061227.200   121187686.132 7  23061226.640    94432007.94146
  20136139.320   105816217.289 8  20136138.860    82454229.05648
 14  1 10  1 29  0.0000000  0  7G02G31G21G25G14G12G29
  23997542.060   126107939.400 6  23997539.800    98265912.63946
  21556866.840   113282105.608 8  21556865.580    88271772.99347
  23253905.020   122200140.086 7  23253904.100    95220910.57145
  20828532.160   109454741.317 8  20828534.020    85289451.31948
  23178346.920   121803029.807 7  23178346.900    94911437.39846
  23074098.560   121255325.359 7  23074098.020    94484713.79046
  20139617.460   105834494.688 8  20139616.960    82468471.18848
 14  1 10  1 29 30.0000000  0  7G02G31G21G25G14G12G29
  24009751.560   126172100.049 6  24009749.260    98315907.92346
  21545281.140   113221221.776 8  21545279.840    88224331.04647
  23237159.300   122112140.742 7  23237158.280    95152339.67846
  20832964.780   109478035.689 8  20832966.860    85307602.76748
  23193446.780   121882380.212 6  23193446.820    94973268.85446
  23086993.100   121323086.377 7  23086992.620    94537514.56746
  20143174.740   105853187.995 8  20143174.220    82483037.40348
 14  1 10  1 30  0.0000000  0  7G02G31G21G25G14G12G29
  24022033.140   126236639.281 6  24022030.660    98366198.23046
  21533769.580   113160728.133 8  21533768.140    88177193.14047
  23220444.500   122024304.479 7  23220443.420    95083895.85745
  20837442.940   109501569.086 8  20837445.160    85325940.48348
  23208589.200   121961954.976 6  23208589.500    95035275.15346
  23099910.960   121390970.006 7  23099910.520    94590410.85646
  20146811.040   105872296.852 8  20146810.520    82497927.42348
 14  1 10  1 30 30.0000000  0  7G02G31G21G25G14G12G29
  24034386.100   126301553.176 7  24034383.300    98416780.47445
  21522332.320   113100625.150 8  21522330.880    88130359.64947
  23203760.780   121936631.772 7  23203759.700    95015579.46245
  20841966.360   109525339.655 8  20841968.520    85344462.99548
  23223773.440   122041748.651 6  23223773.760    95097451.99646
  23112851.680   121458974.390 7  23112851.380    94643401.24846
  20150525.640   105891817.201 8  20150525.120    82513138.08948
 14  1 10  1 31  0.0000000  0  7G02G31G21G25G14G12G29
  24046810.160   126366840.941 7  24046807.060    98467654.04846
  21510970.000   113040916.062 8  21510968.680    88083833.08747
  23187108.840   121849125.930 7  23187107.840    94947393.11246
  20846535.260   109549348.977 8  20846537.360    85363171.55548
  23238999.220   122121759.685 7  23238999.300    95159798.24846
  23125815.680   121527100.835 7  23125815.220    94696486.76146
  20154318.440   105911748.818 8  20154317.920    82528669.21448
 14  1 10  1 31 30.0000000  0  7G02G31G21G25G14G12G29
  24059305.100   126432501.476 6  24059301.780    98518818.09846
  21499683.220   112981603.662 8  21499681.940    88037615.64147
  23170489.460   121761790.932 7  23170488.540    94879339.87546
  20851149.880   109573598.244 8  20851151.880    85382067.08548
  23254265.860   122201985.037 7  23254265.500    95222311.46246
  23138803.120   121595350.057 7  23138802.560    94749667.95646
  20158189.380   105932091.031 8  20158188.880    82544520.29248
 14  1 10  1 32  0.0000000  0  7G02G31G21G25G14G12G29
  24071870.620   126498533.977 6  24071867.540    98570272.00646
  21488472.560   112922691.115 8  21488471.360    87991709.76647
  23153903.180   121674629.734 7  23153902.280    94811422.06946
  20855810.360   109598088.535 8  20855812.280    85401150.42348
  23269572.840   122282422.843 7  23269572.280    95284990.23545
  23151814.140   121663723.047 7  23151813.680    94802945.60346
  20162138.300   105952842.961 8  20162137.820    82560690.62948
 14  1 10  1 32 30.0000000  0  7G02G31G21G25G14G12G29
  24084506.380   126564936.867 6  24084503.780    98622014.49646
  21477338.440   112864180.953 8  21477337.240    87946117.43647
  23137350.480   121587644.829 7  23137349.520    94743641.63646
  20860516.820   109622820.579 8  20860518.620    85420422.13748
  23284919.660   122363070.262 7  23284919.020    95347832.33945
  23164848.560   121732219.778 7  23164848.260    94856319.66546
  20166164.920   105974003.373 8  20166164.520    82577179.25648
 14  1 10  1 33  0.0000000  0  7G02G31G21G25G14G12G29
  24097211.720   126631704.799 6  24097209.380    98674041.43846
  21466280.700   112806071.922 8  21466279.420    87900837.66347
  23120831.060   121500834.904 7  23120830.040    94675997.55346
  20865268.680   109647791.349 8  20865270.360    85439879.87048
  23300305.000   122443920.675 6  23300304.420    95410832.63245
  23177905.920   121800837.546 7  23177905.840    94909788.02246
  20170268.380   105995567.353 8  20170267.980    82593982.35948
 14  1 10  1 33 30.0000000  0  7G02G31G21G25G14G12G29
  24109986.480   126698836.748 6  24109984.280    98726352.02446
  21455299.800   112748367.371 8  21455298.660    87855873.09947
  23104345.680   121414203.934 7  23104344.660    94608492.90946
  20870066.040   109673002.003 8  20870067.780    85459524.53648
  23315728.420   122524971.916 6  23315728.020    95473989.41946
  23190986.520   121869576.791 7  23190986.700    94963351.05446
  20174448.480   106017534.142 8  20174448.100    82611099.33848
 14  1 10  1 34  0.0000000  0  7G02G31G21G25G14G12G29
  24122830.000   126766329.231 7  24122827.880    98778943.55346
  21444396.120   112691068.014 8  21444394.860    87811224.23747
  23087894.600   121327752.894 7  23087893.580    94541128.47246
  20874908.820   109698451.501 8  20874910.680    85479355.31648
  23331189.300   122606219.352 7  23331189.080    95537299.08746
  23204090.040   121938435.970 7  23204090.260    95017007.52946
  20178704.720   106039900.816 8  20178704.320    82628527.91548
 14  1 10  1 34 30.0000000  0  7G02G31G21G25G14G12G29
  24135742.380   126834182.764 6  24135740.180    98831816.43846
  21433570.320   112634178.280 8  21433569.120    87766894.58647
  23071478.780   121241487.049 7  23071477.640    94473908.34546
  20879797.620   109724142.766 8  20879799.560    85499374.47448
  23346687.440   122687662.441 7  23346687.060    95600761.18945
  23217217.200   122007418.403 7  23217217.280    95070760.04746
  20183037.340   106062668.820 8  20183036.920    82646269.21648
 14  1 10  1 35  0.0000000  0  7G02G31G21G25G14G12G29
  24148723.140   126902396.385 6  24148720.780    98884969.91545
  21422823.060   112577701.155 8  21422821.940    87722886.44347
  23055098.640   121155408.664 7  23055097.260    94406834.27746
  20884732.600   109750076.873 8  20884734.660    85519582.86748
  23362222.300   122769298.737 7  23362221.840    95664373.83345
  23230367.720   122076524.544 7  23230367.700    95124608.98246
  20187446.020   106085836.710 8  20187445.640    82664322.11848
 14  1 10  1 35 30.0000000  0  7G02G31G21G25G14G12G29
  24161771.840   126970968.192 6  24161769.220    98938402.47045
  21412154.920   112521639.483 8  21412153.760    87679202.02947
  23038754.800   121069521.105 7  23038753.400    94339908.92546
  20889714.000   109776254.637 8  20889716.060    85539981.11948
  23377793.540   122851125.590 6  23377792.940    95728134.99845
  23243541.780   122145754.700 7  23243541.700    95178554.53746
  20191930.700   106109403.571 8  20191930.300    82682685.90348
 14  1 10  1 36  0.0000000  0  7G02G31G21G25G14G12G29
  24174888.100   127039895.153 6  24174885.140    98992111.78646
  21401565.960   112465993.626 8  21401564.660    87635841.61147
  23022447.500   120983825.074 7  23022445.960    94273132.79946
  20894741.580   109802674.738 8  20894743.560    85560568.20747
  23393399.960   122933138.194 6  23393399.460    95792040.86946
  23256739.160   122215107.439 7  23256739.080    95232595.61546
  20196490.700   106133366.097 8  20196490.260    82701358.00148
 14  1 10  1 36 30.0000000  0  7G02G31G21G25G14G12G29
  24188071.500   127109174.884 6  24188068.320    99046095.97946
  21391056.360   112410765.069 8  21391055.040    87592806.38047
  23006176.960   120898322.281 7  23006175.440    94206507.26446
  20899815.340   109829337.072 8  20899817.240    85581344.04748
  23409041.080   123015333.007 6  23409040.720    95856088.72946
  23269959.920   122284582.421 7  23269959.740    95286731.95446
  20201125.640   106157722.445 8  20201125.120    82720336.97848
 14  1 10  1 37  0.0000000  0  7G02G31G21G25G14G12G29
  24201321.800   127178807.546 6  24201318.780    99100355.18046
  21380627.020   112355958.641 8  21380625.660    87550100.07447
  22989944.200   120813017.818 7  22989942.800    94140036.26146
  20904935.720   109856244.454 8  20904937.620    85602310.83248
  23424716.740   123097709.257 6  23424716.620    95920277.99145
  23283204.400   122354182.052 7  23283204.200    95340965.41946
  20205835.580   106182473.431 8  20205835.100    82739623.45748
 14  1 10  1 37 30.0000000  0  7G02G31G21G25G14G12G29
  24214638.420   127248789.176 6  24214635.640    99154886.29045
  21370278.000   112301574.355 8  21370276.660    87507722.70747
  22973749.040   120727911.513 7  22973747.840    94073719.67946
  20910102.380   109883395.015 8  20910104.240    85623467.10448
  23440425.900   123180261.754 6  23440425.980    95984604.57846
  23296472.020   122423904.095 7  23296471.960    95395294.27146
  20210619.840   106207614.874 8  20210619.380    82759214.19548
 14  1 10  1 38  0.0000000  0  7G02G31G21G25G14G12G29
  24228020.860   127319114.773 6  24228018.200    99209685.44845
  21360009.200   112247611.475 8  21360007.920    87465673.71847
  22957591.560   120643003.545 7  22957590.580    94007557.62246
  20915314.920   109910786.446 8  20915316.640    85644811.07247
  23456167.440   123262984.423 6  23456167.620    96049063.75045
  23309762.440   122493745.868 7  23309762.420    95449716.42746
  20215477.660   106233142.911 8  20215477.220    82779106.17548
 14  1 10  1 38 30.0000000  0  7G02G31G21G25G14G12G29
  24241468.780   127389783.128 6  24241466.000    99264751.73445
  21349821.100   112194072.554 8  21349819.820    87423955.08047
  22941472.400   120558296.690 7  22941471.400    93941552.28746
  20920573.420   109938419.738 8  20920575.100    85666343.49847
  23471941.040   123345874.917 6  23471941.160    96113653.70645
  23323075.780   122563708.362 7  23323075.800    95504232.67146
  20220408.800   106259056.235 8  20220408.440    82799298.37548
 14  1 10  1 39  0.0000000  0  7G02G31G21G25G14G12G29
  24254982.300   127460796.039 6  24254979.480    99320086.46345
  21339714.840   112140963.917 8  21339713.540    87382571.72547
  22925392.680   120473797.325 7  22925391.620    93875708.65146
  20925878.680   109966299.017 8  20925880.400    85688067.60448
  23487746.740   123428933.759 6  23487746.780    96178374.83646
  23336412.880   122633795.395 7  23336412.900    95558845.92146
  20225413.580   106285356.510 8  20225413.240    82819792.08848
 14  1 10  1 39 30.0000000  0  7G02G31G21G25G14G12G29
  24268560.540   127532148.947 6  24268557.500    99375686.12246
  21329690.360   112088284.799 8  21329688.940    87341523.06147
  22909352.360   120389505.193 7  22909351.220    93810026.47846
  20931230.340   109994422.170 8  20931232.140    85709981.74148
  23503583.400   123512155.574 6  23503583.380    96243222.93245
  23349773.280   122704004.459 7  23349773.380    95613554.26046
  20230491.400   106312040.682 8  20230491.060    82840584.95348
 14  1 10  1 40  0.0000000  0  7G02G31G21G25G14G12G29
  24282203.520   127603842.445 6  24282200.180    99431551.16946
  21319748.360   112036039.504 8  21319746.900    87300812.44247
  22893352.340   120305424.954 7  22893351.160    93744509.41946
  20936628.880   110022791.673 8  20936630.780    85732087.84148
  23519450.840   123595538.991 6  23519450.640    96308196.98045
  23363157.360   122774337.475 7  23363157.400    95668359.17746
  20235642.260   106339108.791 8  20235641.920    82861676.98448
 14  1 10  1 40 30.0000000  0  7G02G31G21G25G14G12G29
  24295910.820   127675874.438 6  24295907.120    99487679.97245
  21309889.480   111984230.911 8  21309888.080    87260442.12147
  22877393.220   120221559.427 7  22877392.020    93679159.67646
  20942074.420   110051408.471 8  20942076.420    85754386.64248
  23535348.400   123679081.818 6  23535348.280    96373295.22246
  23376565.060   122844795.078 7  23376565.140    95723261.19046
  20240865.940   106366559.620 8  20240865.540    82883067.24448
 14  1 10  1 41  0.0000000  0  7G02G31G21G25G14G12G29
  24309681.600   127748240.698 6  24309677.600    99544069.28446
  21300113.560   111932858.307 8  21300112.220    87220411.51347
  22861474.920   120137908.748 7  22861473.880    93613977.33546
  20947566.560   110080270.573 8  20947568.680    85776876.58847
  23551275.240   123762778.468 6  23551275.140    96438513.34045
  23389995.920   122915374.910 7  23389996.020    95778258.43246
  20246161.700   106394389.339 8  20246161.320    82904752.74248
 14  1 10  1 41 30.0000000  0  7G02G31G21G25G14G12G29
  24323515.620   127820939.432 6  24323511.360    99600717.62946
  21290421.160   111881924.254 8  21290419.880    87180722.64447
  22845597.920   120054475.020 7  22845596.900    93548964.05346
  20953105.540   110109378.464 8  20953107.680    85799558.05247
  23567230.880   123846625.623 6  23567230.720    96503848.72345
  23403450.200   122986077.552 7  23403450.240    95833351.40446
  20251529.320   106422596.433 8  20251528.880    82926732.28948
 14  1 10  1 42  0.0000000  0  7G02G31G21G25G14G12G29
  24337412.440   127893968.625 6  24337408.440    99657623.49046
  21280812.600   111831430.736 8  21280811.340    87141377.04647
  22829762.700   119971261.103 7  22829761.820    93484122.05146
  20958691.400   110138732.396 8  20958693.460    85822431.22947
  23583214.640   123930619.974 6  23583214.320    96569298.79546
  23416927.900   123056903.205 7  23416927.900    95888540.22846
  20256968.400   106451178.802 8  20256967.860    82949004.26748
 14  1 10  1 42 30.0000000  0  7G02G31G21G25G14G12G29
  24351372.120   127967328.145 6  24351368.960    99714786.74945
  21271288.580   111781381.568 8  21271287.300    87102377.69447
  22813970.100   119888271.029 7  22813969.300    93419454.47246
  20964324.520   110168334.778 8  20964326.520    85845498.01447
  23599226.200   124014761.166 6  23599225.880    96634863.28145
  23430429.240   123127853.562 7  23430429.300    95943826.20046
  20262478.960   106480137.238 8  20262478.440    82971569.27448
 14  1 10  1 43  0.0000000  0  7G02G31G21G25G14G12G29
  24365393.760   128041012.440 6  24365391.420    99772203.08246
  21261848.880   111731775.389 8  21261847.500    87063723.52947
  22798219.900   119805503.750 7  22798219.300    93354960.50046
  20970004.360   110198182.528 8  20970006.340    85868755.99747
  23615264.340   124099042.056 6  23615264.220    96700536.61745
  23443953.680   123198925.160 7  23443953.820    95999206.62946
  20268060.120   106509466.452 8  20268059.620    82994423.20948
 14  1 10  1 43 30.0000000  0  7G02G31G21G25G14G12G29
  24379477.200   128115020.930 6  24379475.240    99829872.03046
  21252494.140   111682615.951 8  21252492.740    87025417.46747
  22782512.840   119722962.947 7  22782512.400    93290642.98546
  20975731.280   110228277.607 8  20975733.260    85892206.69347
  23631328.800   124183461.234 6  23631328.820    96766317.76845
  23457501.500   123270119.684 7  23457501.680    96054682.84946
  20273711.840   106539166.226 8  20273711.340    83017565.88848
 14  1 10  1 44  0.0000000  0  7G02G31G21G25G14G12G29
  24393622.040   128189352.233 6  24393620.140    99887792.50645
  21243224.880   111633905.598 8  21243223.400    86987461.34447
  22766849.540   119640651.934 7  22766849.160    93226504.55046
  20981505.400   110258620.725 8  20981507.420    85915850.67347
  23647419.200   124268016.050 6  23647419.220    96832204.55846
  23471072.880   123341437.670 7  23471073.020    96110255.27546
  20279433.820   106569235.271 8  20279433.380    83040996.30948
 14  1 10  1 44 30.0000000  0  7G02G31G21G25G14G12G29
  24407827.760   128264003.149 6  24407825.500    99945962.05345
  21234041.240   111585645.372 8  21234039.780    86949855.97147
  22751230.140   119558571.648 7  22751229.780    93162545.90246
  20987326.680   110289211.406 8  20987328.620    85939687.55148
  23663534.620   124352702.476 6  23663534.620    96898193.90145
  23484667.600   123412877.970 7  23484667.740    96165923.04346
  20285225.620   106599671.233 8  20285225.180    83064712.63648
 14  1 10  1 45  0.0000000  0  7G02G31G21G25G14G12G29
  24422094.080   128338972.013 6  24422091.100   100004379.37145
  21224943.660   111537837.629 8  21224942.280    86912603.18747
  22735655.200   119476724.592 7  22735654.780    93098768.96746
  20993195.200   110320050.282 8  20993197.060    85963717.84047
  23679674.520   124437517.466 6  23679674.360    96964283.43245
  23498285.780   123484441.148 7  23498285.880    96221686.52846
  20291086.940   106630472.593 8  20291086.480    83088713.69748
 14  1 10  1 45 30.0000000  0  7G02G31G21G25G14G12G29
  24436420.620   128414258.105 6  24436417.120   100063043.90545
  21215932.760   111490485.335 8  21215931.420    86875705.29547
  22720125.420   119395114.850 7  22720124.920    93035176.97946
  20999111.260   110351138.867 8  20999113.040    85987942.70748
  23695838.660   124522459.331 6  23695838.320    97030471.82945
  23511927.320   123556128.182 7  23511927.500    96277546.55046
  20297017.700   106661638.916 8  20297017.220    83112999.14148
 14  1 10  1 46  0.0000000  0  7G02G31G21G25G14G12G29
  24450807.320   128489861.662 6  24450803.840   100121955.74345
  21207009.480   111443593.111 8  21207008.160    86839165.89247
  22704641.760   119313747.192 7  22704641.140    92971773.60946
  21005075.300   110382480.062 8  21005077.100    86012364.40347
  23712026.620   124607527.291 6  23712026.380    97096758.45445
  23525592.940   123627941.736 7  23525593.260    96333505.15246
  20303018.080   106693171.013 8  20303017.580    83137569.60448
 14  1 10  1 46 30.0000000  0  7G02G31G21G25G14G12G29
  24465253.100   128565775.944 6  24465249.960   100181109.71744
  21198173.240   111397158.396 8  21198171.960    86802983.00147
  22689203.740   119232618.993 7  22689202.960    92908556.84546
  21011086.560   110414069.667 8  21011088.460    86036979.66747
  23728236.980   124692713.728 6  23728236.860    97163137.38845
  23539281.840   123699877.822 7  23539282.160    96389559.23446
  20309086.720   106725061.939 8  20309086.280    83162419.67248
 14  1 10  1 47  0.0000000  0  7G02G31G21G25G14G12G29
  24479757.680   128641997.926 6  24479755.060   100240503.47345
  21189424.300   111351182.267 8  21189423.020    86767157.43948
  22673811.620   119151731.826 7  22673810.660    92845527.89046
  21017144.960   110445907.042 8  21017146.940    86061788.00747
  23744469.040   124778014.586 6  23744468.920    97229605.51745
  23552993.800   123771935.052 7  23552994.180    96445707.71546
  20315223.400   106757310.384 8  20315223.040    83187548.32448
 14  1 10  1 47 30.0000000  0  7G02G31G21G25G14G12G29
  24494320.420   128718523.981 6  24494318.240   100300134.14745
  21180762.620   111305664.647 8  21180761.300    86731689.16647
  22658465.400   119071086.255 7  22658464.400    92782687.19946
  21023250.280   110477991.077 8  21023252.360    86086788.54047
  23760722.340   124863425.087 6  23760721.920    97296159.06645
  23566728.760   123844111.956 7  23566728.880    96501949.45046
  20321427.340   106789912.443 8  20321427.040    83212952.52648
 14  1 10  1 48  0.0000000  0  7G02G31G21G25G14G12G29
  24508941.660   128795358.440 6  24508939.960   100360005.15445
  21172189.860   111260614.124 8  21172188.460    86696584.85748
  22643166.800   118990691.296 7  22643165.780    92720041.79746
  21029403.820   110510328.424 8  21029405.960    86111986.46347
  23776997.240   124948948.522 6  23776996.640    97362800.59345
  23580487.820   123916415.061 7  23580487.760    96558289.52046
  20327699.420   106822872.666 8  20327699.160    83238635.81948
 14  1 10  1 48 30.0000000  0  7G02G31G21G25G14G12G29
  24523621.160   128872500.385 6  24523619.980   100420115.77945
  21163706.540   111216033.866 8  21163705.160    86661846.99148
  22627916.500   118910550.297 7  22627915.520    92657594.26846
  21035605.860   110542920.617 8  21035608.020    86137382.97447
  23793293.200   125034583.066 6  23793292.440    97429528.71645
  23594270.780   123988845.399 7  23594270.700    96614728.70546
  20334039.520   106856190.011 8  20334039.200    83264597.38748
 14  1 10  1 49  0.0000000  0  7G02G31G21G25G14G12G29
  24538357.520   128949941.271 6  24538356.460   100480459.32845
  21155311.840   111171919.362 8  21155310.480    86627472.04948
  22612713.580   118830659.217 7  22612712.740    92595341.48446
  21041855.320   110575761.753 8  21041857.500    86162973.46247
  23809608.440   125120319.480 6  23809607.620    97496336.18845
  23608076.820   124061396.729 7  23608076.520    96671262.19646
  20340446.240   106889857.492 8  20340445.820    83290831.78548
 14  1 10  1 49 30.0000000  0  7G02G31G21G25G14G12G29
  24553150.920   129027681.425 6  24553149.660   100541036.10445
  21147006.580   111128274.842 8  21147005.120    86593463.32448
  22597559.060   118751022.539 7  22597558.400    92533286.92646
  21048152.680   110608854.601 8  21048154.860    86188760.08047
  23825942.840   125206157.102 6  23825942.140    97563222.54045
  23621906.160   124134071.462 6  23621906.020    96727891.85546
  20346919.620   106923875.339 8  20346919.140    83317339.19648
 14  1 10  1 50  0.0000000  0  7G02G31G21G25G14G12G29
  24568001.280   129105720.452 6  24567999.460   100601845.76445
  21138791.480   111085104.179 8  21138790.000    86559823.84448
  22582453.760   118671644.566 7  22582453.240    92471433.97246
  21054498.380   110642201.401 8  21054500.540    86214744.59747
  23842295.980   125292094.340 6  23842295.620    97630186.52345
  23635759.080   124206871.573 6  23635759.500    96784619.18546
  20353459.560   106958243.294 8  20353459.140    83344119.41148
 14  1 10  1 50 30.0000000  0  7G02G31G21G25G14G12G29
  24582907.440   129184051.942 6  24582904.920   100662883.30645
  21130666.080   111042404.730 8  21130664.620    86526551.54848
  22567397.320   118592523.007 7  22567396.820    92409780.80746
  21060891.640   110675798.004 8  21060893.760    86240923.75647
  23858666.660   125378123.887 6  23858666.540    97697222.42146
  23649635.240   124279792.563 6  23649635.920    96841440.68746
  20360064.980   106992955.097 8  20360064.560    83371167.57148
 14  1 10  1 51  0.0000000  0  7G02G31G21G25G14G12G29
  24597869.060   129262674.133 6  24597865.980   100724147.39645
  21122630.740   111000178.544 8  21122629.280    86493648.02548
  22552390.280   118513660.819 7  22552389.760    92348329.76846
  21067332.520   110709645.172 8  21067334.740    86267298.15747
  23875054.420   125464242.659 6  23875054.560    97764327.87445
  23663535.020   124352835.155 7  23663535.440    96898356.99046
  20366735.820   107028010.561 8  20366735.480    83398483.51548
 14  1 10  1 51 30.0000000  0  7G02G31G21G25G14G12G29
  24612886.300   129341589.014 6  24612882.880   100785639.50645
  21114686.560   110958431.668 8  21114685.020    86461117.98148
  22537433.900   118435064.096 7  22537433.240    92287085.57946
  21073821.880   110743747.183 8  21073824.160    86293871.13747
  23891459.380   125550451.742 6  23891459.840    97831503.64845
  23677458.720   124426003.050 6  23677458.700    96955370.88746
  20373472.340   107063411.363 8  20373472.040    83426068.54548
 14  1 10  1 52  0.0000000  0  7G02G31G21G25G14G12G29
  24627958.140   129420794.905 6  24627955.940   100847362.17945
  21106834.220   110917167.526 8  21106832.740    86428964.10048
  22522528.820   118356736.815 7  22522528.040    92226051.33846
  21080360.180   110778106.132 8  21080362.420    86320644.33147
  23907881.400   125636749.879 6  23907882.340    97898748.83745
  23691406.580   124499298.125 6  23691406.320    97012483.88546
  20380274.580   107099157.244 8  20380274.200    83453922.48448
 14  1 10  1 52 30.0000000  0  7G02G31G21G25G14G12G29
  24643084.400   129500283.730 6  24643082.320   100909301.55445
  21099072.660   110876380.469 8  21099071.220    86397181.97348
  22507673.900   118278673.395 7  22507673.020    92165222.71946
  21086946.060   110812714.624 8  21086948.180    86347611.98347
  23924318.360   125723126.317 6  23924319.440    97966055.03745
  23705377.120   124572712.476 6  23705376.740    97069689.88346
  20387140.680   107135238.753 8  20387140.240    83482037.94648
 14  1 10  1 53  0.0000000  0  7G02G31G21G25G14G12G29
  24658265.000   129580057.854 6  24658262.780   100971463.22145
  21091403.220   110836077.121 8  21091401.780    86365776.76448
  22492870.680   118200881.441 7  22492869.680    92104605.61046
  21093580.540   110847578.402 8  21093582.540    86374778.55347
  23940770.660   125809583.356 6  23940771.900    98033424.06045
  23719371.080   124646251.484 6  23719370.840    97126993.00146
  20394071.360   107171659.583 8  20394070.880    83510417.80448
 14  1 10  1 53 30.0000000  0  7G02G31G21G25G14G12G29
  24673499.220   129660113.976 6  24673497.120   101033844.62745
  21083825.960   110796258.223 8  21083824.500    86334749.04648
  22478119.360   118123362.261 7  22478118.260    92044201.05946
  21100263.400   110882696.638 8  21100265.360    86402143.40847
  23957237.520   125896116.475 6  23957238.980    98100852.35045
  23733388.500   124719914.278 6  23733388.280    97184392.56046
  20401065.980   107208416.265 8  20401065.440    83539059.37248
 14  1 10  1 54  0.0000000  0  7G02G31G21G25G14G12G29
  24688786.480   129740448.733 6  24688784.320   101096443.15845
  21076340.880   110756924.033 8  21076339.480    86304099.03248
  22463419.880   118046116.243 7  22463418.740    91984009.36846
  21106994.360   110918068.137 8  21106996.320    86429705.60547
  23973718.040   125982721.180 6  23973719.360    98168336.37245
  23747429.240   124793699.140 7  23747429.140    97241887.24346
  20408123.980   107245506.487 8  20408123.480    83567960.84148
 14  1 10  1 54 30.0000000  0  7G02G31G21G25G14G12G29
  24704126.400   129821060.859 6  24704124.140   101159257.82445
  21068948.620   110718077.615 8  21068947.280    86273829.09448
  22448772.980   117969146.719 7  22448771.860    91924033.11646
  21113773.820   110953694.424 8  21113775.860    86457466.34647
  23990211.920   126069395.743 6  23990212.740    98235874.83945
  23761493.520   124867607.044 7  23761493.420    97299477.81046
  20415245.320   107282929.386 8  20415244.860    83597121.53648
 14  1 10  1 55  0.0000000  0  7G02G31G21G25G14G12G29
  24719519.020   129901950.695 6  24719516.920   101222288.89145
  21061649.920   110679722.882 8  21061648.560    86243942.28548
  22434179.620   117892458.523 7  22434178.620    91864276.09246
  21120602.300   110989578.129 8  21120604.380    86485427.66047
  24006718.920   126156139.182 6  24006719.140    98303467.02745
  23775581.620   124941640.751 6  23775581.720    97357166.37446
  20422430.080   107320685.442 8  20422429.640    83626541.83748
 14  1 10  1 55 30.0000000  0  7G02G31G21G25G14G12G29
  24734963.340   129983112.466 6  24734961.400   101285531.88145
  21054444.640   110641858.911 8  21054443.200    86214437.88448
  22419639.540   117816050.352 7  22419638.620    91804737.25746
  21127479.240   111025716.506 8  21127481.280    86513587.42447
  24023237.780   126242945.521 6  24023237.800    98371108.17845
  23789693.180   125015797.006 7  23789692.880    97414950.47046
  20429677.240   107358769.401 8  20429676.800    83656217.64848
 14  1 10  1 56  0.0000000  0  7G02G31G21G25G14G12G29
  24750459.340   130064545.292 6  24750457.380   101348986.05844
  21047333.140   110604487.827 8  21047331.680    86185317.56248
  22405153.420   117739925.443 7  22405152.520    91745419.15746
  21134404.880   111062110.950 8  21134406.880    86541946.72747
  24039768.040   126329812.665 6  24039768.100    98438796.71345
  23803828.380   125090076.932 7  23803827.720    97472830.92246
  20436986.660   107397180.920 8  20436986.280    83686148.69548
 14  1 10  1 56 30.0000000  0  6G31G21G25G14G12G29
  21040315.380   110567609.530 8  21040313.940    86156581.22548
  22390721.400   117664084.537 7  22390720.460    91686322.35546
  21141378.960   111098759.928 8  21141381.040    86570504.36047
  24056309.100   126416735.868 6  24056309.460    98506528.93345
  23817986.680   125164478.455 6  23817985.820    97530806.10646
  20444357.880   107435916.882 8  20444357.480    83716332.55848
 14  1 10  1 57  0.0000000  0  6G31G21G25G14G12G29
  21033393.160   110531233.381 8  21033391.880    86128236.18048
  22376345.240   117588537.141 7  22376344.280    91627454.25246
  21148402.920   111135671.376 8  21148405.080    86599266.51947
  24072861.800   126503719.585 6  24072862.140    98574308.27345
  23832169.380   125239009.353 7  23832168.500    97588882.13145
  20451791.860   107474982.671 8  20451791.420    83746773.42848
 14  1 10  1 57 30.0000000  0  6G31G21G25G14G12G29
  21026565.120   110495351.846 8  21026563.960    86100276.54348
  22362023.640   117513276.478 7  22362022.740    91568809.60046
  21155475.140   111172836.416 8  21155477.300    86628226.28047
  24089423.480   126590751.486 6  24089423.940    98642125.21545
  23846375.040   125313660.561 6  23846374.080    97647051.88546
  20459286.440   107514366.911 8  20459285.920    83777462.44448
 14  1 10  1 58  0.0000000  0  6G31G21G25G14G12G29
  21019832.240   110459970.439 8  21019831.140    86072706.61348
  22347757.680   117438308.071 7  22347756.760    91510392.66446
  21162596.360   111210259.005 8  21162598.540    86657386.73647
  24105994.280   126677832.326 6  24105994.960    98709980.22145
  23860604.220   125388435.504 6  23860603.360    97705318.06646
  20466842.060   107554071.857 8  20466841.460    83808401.36248
 14  1 10  1 58 30.0000000  0  6G31G21G25G14G12G29
  21013194.280   110425088.034 8  21013193.240    86045525.51448
  22333547.220   117363631.426 7  22333546.280    91452203.06846
  21169766.180   111247936.916 8  21169768.340    86686746.12447
  24122573.480   126764956.169 6  24122574.140    98777868.77645
  23874856.360   125463331.494 6  23874855.840    97763678.56946
  20474457.880   107594093.153 8  20474457.340    83839586.78648
 14  1 10  1 59  0.0000000  0  6G31G21G25G14G12G29
  21006652.060   110390708.609 8  21006651.000    86018736.35448
  22319393.160   117289251.460 7  22319392.280    91394244.66146
  21176985.200   111285873.075 8  21176987.280    86716306.74747
  24139160.900   126852122.732 6  24139161.520    98845790.59844
  23889132.000   125538351.095 6  23889131.960    97822135.36046
  20482134.140   107634431.932 8  20482133.680    83871019.59948
 14  1 10  1 59 30.0000000  0  6G31G21G25G14G12G29
  21000205.660   110356832.614 8  21000204.600    85992339.47748
  22305295.740   117215169.041 7  22305294.840    91336518.10546
  21184253.260   111324066.499 8  21184255.200    86746067.84447
  24155755.740   126939327.836 6  24155756.140    98913742.46545
  23903430.980   125613493.562 6  23903431.220    97880687.91445
  20489870.180   107675084.677 8  20489869.740    83902697.05648
 14  1 10  2  0  0.0000000  0  6G31G21G25G14G12G29
  20993855.280   110323461.024 8  20993854.240    85966335.64248
  22291255.160   117141385.342 7  22291254.240    91279024.31646
  21191570.180   111362516.737 8  21191572.040    86776029.05647
  24172357.040   127026567.807 6  24172357.640    98981721.52446
  23917753.320   125688757.518 7  23917753.540    97939335.14146
  20497665.560   107716049.252 8  20497665.040    83934617.49648
 14  1 10  2  0 30.0000000  0  6G31G21G25G14G12G29
  20987601.180   110290595.238 8  20987600.100    85940725.93548
  22277271.860   117067902.784 7  22277270.880    91221765.18446
  21198936.000   111401224.112 8  21198937.900    86806190.62047
  24188964.480   127113839.261 6  24188965.360    99049725.06445
  23932098.840   125764142.657 7  23932098.640    97998076.77946
  20505519.900   107757323.969 8  20505519.280    83966779.60748
 14  1 10  2  1  0.0000000  0  6G31G21G25G14G12G29
  20981444.700   110258242.329 8  20981443.480    85915515.87448
  22263347.320   116994728.940 7  22263346.320    91164746.62146
  21206351.840   111440194.575 8  21206353.760    86836557.19847
  24205578.300   127201145.246 6  24205579.300    99117755.49545
  23946468.600   125839655.273 6  23946468.120    98056917.75645
  20513433.860   107798912.349 8  20513433.160    83999186.12748
 14  1 10  2  1 30.0000000  0  6G31G21G25G14G12G29
  20975385.040   110226398.432 8  20975383.740    85890702.45048
  22249480.860   116921860.348 7  22249479.900    91107965.90847
  21213816.740   111479422.823 8  21213818.720    86867124.66347
  24222197.120   127288476.794 6  24222198.020    99185805.93745
  23960861.380   125915289.684 6  23960860.960    98115853.67446
  20521406.080   107840807.029 8  20521405.420    84031831.32048
 14  1 10  2  2  0.0000000  0  6G31G21G25G14G12G29
  20969423.020   110195067.406 8  20969421.680    85866288.65148
  22235673.340   116849301.375 7  22235672.420    91051426.45246
  21221331.240   111518911.774 8  21221333.320    86897895.25847
  24238820.760   127375833.450 6  24238821.380    99253875.85245
  23975277.600   125991048.233 6  23975277.400    98174886.29346
  20529436.760   107883008.744 8  20529436.120    84064715.76148
 14  1 10  2  2 30.0000000  0  6G31G21G25G14G12G29
  20963558.620   110164249.587 8  20963557.280    85842274.76848
  22221924.940   116777052.966 7  22221924.080    90995128.99947
  21228895.140   111558660.269 8  21228897.340    86928868.10047
  24255448.400   127463211.211 6  24255448.760    99321962.21845
  23989717.180   126066929.681 6  23989717.220    98234014.66746
  20537525.340   107925514.522 8  20537524.700    84097837.14848
 14  1 10  2  3  0.0000000  0  6G31G21G25G14G12G29
  20957792.320   110133947.121 8  20957790.920    85818662.45348
  22208236.260   116705118.241 7  22208235.440    90939075.97747
  21236508.640   111598669.592 8  21236510.860    86960044.17347
  24272079.620   127550607.769 6  24272079.720    99390063.22745
  24004180.280   126142934.578 6  24004180.620    98293239.27146
  20545671.600   107968323.672 8  20545671.080    84131194.92048
 14  1 10  2  3 30.0000000  0  6G31G21G25G14G12G29
  20952124.260   110104161.152 8  20952122.840    85795452.60548
  22194607.580   116633498.761 7  22194606.800    90883268.59646
  21244171.820   111638939.617 8  21244173.940    86991423.39147
  24288713.640   127638019.708 6  24288713.740    99458176.26345
  24018667.000   126219062.769 6  24018667.380    98352559.89046
  20553875.080   108011433.479 8  20553874.720    84164786.96748
 14  1 10  2  4  0.0000000  0  6G31G21G25G14G12G29
  20946554.080   110074889.777 8  20946552.660    85772643.74148
  22181038.580   116562192.609 7  22181037.680    90827705.35946
  21251884.000   111679467.204 8  21251886.000    87023003.32247
  24305349.440   127725440.552 6  24305349.760    99526296.24645
  24033176.680   126295310.654 6  24033176.920    98411973.82046
  20562134.920   108054839.481 8  20562134.660    84198609.82548
 14  1 10  2  4 30.0000000  0  6G31G21G25G14G12G29
  20941082.820   110046138.280 8  20941081.400    85750239.97148
  22167530.440   116491206.276 7  22167529.420    90772391.34946
  21259645.960   111720256.593 8  21259647.860    87054787.24447
  24321987.200   127812871.468 6  24321987.800    99594423.98045
  24047709.960   126371682.397 6  24047709.900    98471484.25645
  20570451.540   108098543.677 8  20570451.320    84232665.03748
 14  1 10  2  5  0.0000000  0  6G31G21G25G14G12G29
  20935710.300   110017905.468 8  20935708.900    85728240.36948
  22154083.060   116420539.071 7  22154081.880    90717326.00147
  21267457.280   111761305.304 8  21267459.160    87086773.22847
  24338625.940   127900306.661 6  24338626.820    99662555.10445
  24062266.400   126448174.911 6  24062265.720    98531088.80746
  20578824.060   108142541.307 8  20578823.800    84266948.90248
 14  1 10  2  5 30.0000000  0  6G31G21G25G14G12G29
  20930437.100   109990194.544 8  20930435.780    85706647.44148
  22140696.980   116350194.499 7  22140695.640    90662512.05546
  21275318.420   111802615.713 8  21275320.240    87118963.14147
  24355265.300   127987745.162 6  24355266.160    99730688.81745
  24076845.920   126524789.779 6  24076844.900    98590788.72246
  20587252.480   108186832.611 8  20587252.220    84301461.60148
 14  1 10  2  6  0.0000000  0  6G31G21G25G14G12G29
  20925264.040   109963009.685 8  20925262.640    85685464.42748
  22127373.320   116280178.359 7  22127371.840    90607954.02947
  21283229.940   111844190.900 8  21283231.760    87151359.38247
  24371905.120   128075186.987 6  24371906.020    99798825.06044
  24091449.200   126601530.570 6  24091448.420    98650586.70645
  20595736.940   108231418.555 8  20595736.680    84336203.88848
 14  1 10  2  6 30.0000000  0  6G31G21G25G14G12G29
  20920191.360   109936352.627 8  20920189.980    85664692.69148
  22114112.480   116210492.636 7  22114110.960    90553653.47347
  21291191.980   111886031.574 8  21291193.800    87183962.49747
  24388544.860   128162629.466 6  24388545.860    99866961.85645
  24106076.180   126678396.767 6  24106075.680    98710482.45545
  20604277.320   108276298.239 8  20604277.000    84371175.07748
 14  1 10  2  7  0.0000000  0  6G31G21G25G14G12G29
  20915218.300   109910219.081 8  20915216.880    85644328.88748
  22100913.740   116141133.410 7  22100912.240    90499607.32647
  21299203.460   111928132.122 8  21299205.300    87216768.10247
  24405183.000   128250063.560 6  24405184.060    99935092.14845
  24120725.900   126755383.152 6  24120726.080    98770471.80746
  20612872.020   108321463.564 8  20612871.720    84406368.82848
 14  1 10  2  7 30.0000000  0  6G31G21G25G14G12G29
  20910345.480   109884612.158 8  20910344.060    85624375.43048
  22087777.920   116072104.396 7  22087776.460    90445818.48747
  21307264.820   111970494.881 8  21307266.700    87249778.03047
  24421819.420   128337488.706 6  24421820.700   100003215.42145
  24135398.980   126832491.633 6  24135399.400    98830556.31545
  20621521.200   108366915.107 8  20621520.860    84441785.60948
 14  1 10  2  8  0.0000000  0  6G31G21G25G14G12G29
  20905573.480   109859535.005 8  20905572.080    85604834.79148
  22074705.800   116003409.769 7  22074704.320    90392290.20747
  21315376.520   112013122.076 8  21315378.340    87282994.00847
  24438453.880   128424904.098 6  24438455.560   100071331.08545
  24150095.660   126909723.991 6  24150096.200    98890737.34645
  20630224.980   108412653.267 8  20630224.560    84477425.72648
 14  1 10  2  8 30.0000000  0  6G31G21G25G14G12G29
  20900901.720   109834984.601 8  20900900.300    85585704.59848
  22061696.780   115935046.949 7  22061695.360    90339020.48847
  21323537.640   112056009.309 8  21323539.540    87316412.61647
  24455085.040   128512301.762 6  24455087.240   100139432.98744
  24164815.220   126987075.454 6  24164815.400    98951011.21345
  20638981.960   108458671.426 8  20638981.480    84513284.02748
 14  1 10  2  9  0.0000000  0  6G31G21G25G14G12G29
  20896330.900   109810964.867 8  20896329.460    85566987.92048
  22048751.860   115867020.822 7  22048750.560    90286013.13147
  21331748.860   112099159.758 8  21331750.860    87350036.32747
  24471712.880   128599681.693 6  24471715.540   100207521.01245
  24179558.060   127064549.088 6  24179557.760    99011380.29645
  20647792.380   108504970.653 8  20647791.920    84549361.34748
 14  1 10  2  9 30.0000000  0  6G31G21G25G14G12G29
  20891861.280   109787476.650 8  20891859.820    85548685.40348
  22035871.120   115799332.347 7  22035869.980    90233268.87547
  21340010.140   112142573.335 8  21340012.180    87383865.05947
  24488336.900   128687040.706 6  24488339.800   100275592.75345
  24194324.040   127142144.388 6  24194323.500    99071844.13945
  20656655.780   108551548.852 8  20656655.400    84585656.04148
 14  1 10  2 10  0.0000000  0  5G31G21G25G12G29
  20887493.140   109764521.872 8  20887491.660    85530798.55948
  22023055.200   115731984.572 7  22023054.180    90180790.09347
  21348321.600   112186250.704 8  21348323.740    87417899.35947
  24209113.140   127219861.315 6  24209112.540    99132402.77345
  20665571.980   108598404.398 8  20665571.620    84622166.86348
 14  1 10  2 10 30.0000000  0  5G31G21G25G12G29
  20883228.000   109742108.481 8  20883226.540    85513333.57148
  22010305.660   115664986.091 7  22010304.820    90128583.49347
  21356684.620   112230198.978 8  21356686.800    87452144.75147
  24223926.540   127297706.843 6  24223926.160    99193061.62245
  20674542.060   108645542.773 8  20674541.720    84658898.05848
 14  1 10  2 11  0.0000000  0  5G31G21G25G12G29
  20879064.240   109720227.735 8  20879062.780    85496283.63748
  21997621.180   115598329.253 7  21997620.400    90076643.10247
  21365097.480   112274409.014 8  21365099.720    87486594.13347
  24238762.540   127375671.535 6  24238762.760    99253813.30145
  20683563.940   108692953.215 8  20683563.580    84695841.25548
 14  1 10  2 11 30.0000000  0  5G31G21G25G12G29
  20875002.840   109698885.249 8  20875001.440    85479653.12948
  21985002.900   115532020.118 7  21985002.120    90024973.64547
  21373561.060   112318885.119 8  21373563.240    87521250.82647
  24253621.900   127453758.997 6  24253622.640    99314660.66045
  20692637.960   108740637.433 8  20692637.620    84732997.79948
 14  1 10  2 12  0.0000000  0  5G31G21G25G12G29
  20871042.860   109678075.083 8  20871041.380    85463437.40648
  21972449.820   115466053.342 7  21972449.000    89973570.97647
  21382073.960   112363620.256 8  21382076.020    87556109.36247
  24268503.500   127531962.496 6  24268504.500    99375598.47846
  20701762.320   108788586.599 8  20701762.080    84770360.78148
 14  1 10  2 12 30.0000000  0  5G31G21G25G12G29
  20867184.820   109657800.552 8  20867183.280    85447639.06248
  21959962.720   115400433.002 7  21959961.760    89922438.24947
  21390636.640   112408617.157 8  21390638.700    87591171.86247
  24283407.720   127610284.304 6  24283408.740    99436628.45245
  20710937.260   108836801.119 8  20710936.960    84807930.54548
 14  1 10  2 13  0.0000000  0  5G31G21G25G12G29
  20863429.720   109638067.316 8  20863428.140    85432262.51248
  21947542.800   115335165.732 7  21947541.720    89871580.64947
  21399250.000   112453880.451 8  21399252.100    87626441.93747
  24298335.380   127688728.565 6  24298336.240    99497753.84245
  20720163.280   108885283.747 8  20720162.940    84845709.21748
 14  1 10  2 13 30.0000000  0  5G31G21G25G12G29
  20859777.900   109618877.143 8  20859776.380    85417309.12748
  21935190.540   115270254.000 7  21935189.420    89821000.08247
  21407914.260   112499411.166 8  21407916.340    87661920.39647
  24313286.480   127767295.791 6  24313286.980    99558975.02645
  20729440.340   108934034.520 8  20729439.980    84883696.82348
 14  1 10  2 14  0.0000000  0  5G31G21G25G12G29
  20856229.080   109600228.259 8  20856227.620    85402777.53348
  21922905.640   115205696.601 7  21922904.600    89770695.62847
  21416628.880   112545206.583 8  21416630.960    87697605.12547
  24328260.400   127845983.044 6  24328260.660    99620289.76545
  20738767.300   108983047.721 8  20738766.940    84921888.92848
 14  1 10  2 14 30.0000000  0  5G31G21G25G12G29
  20852784.380   109582126.433 8  20852782.960    85388672.20448
  21910689.440   115141500.260 7  21910688.480    89720672.50747
  21425394.820   112591271.693 8  21425396.920    87733499.99247
  24343257.720   127924794.905 6  24343257.740    99681701.61545
  20748144.780   109032326.611 8  20748144.440    84960288.06548
 14  1 10  2 15  0.0000000  0  5G31G21G25G12G29
  20849442.540   109564564.732 8  20849441.100    85374987.75648
  21898540.820   115077658.907 7  21898539.860    89670926.00647
  21434210.680   112637598.980 8  21434212.820    87769599.15247
  24358277.440   128003723.644 6  24358277.320    99743204.51446
  20757570.960   109081861.742 8  20757570.720    84998886.86448
 14  1 10  2 15 30.0000000  0  5G31G21G25G12G29
  20846205.580   109547554.569 8  20846204.180    85361733.08548
  21886462.100   115014184.732 7  21886461.080    89621465.61847
  21443078.480   112684198.997 8  21443080.640    87805910.83747
  24373321.100   128082779.267 6  24373320.980    99804806.25645
  20767047.580   109131661.918 8  20767047.360    85037692.18448
 14  1 10  2 16  0.0000000  0  5G31G21G25G12G29
  20843071.400   109531084.576 8  20843070.000    85348899.31248
  21874451.200   114951067.273 7  21874450.220    89572283.19547
  21451995.780   112731059.444 8  21451997.960    87842425.44647
  24388386.680   128161949.622 6  24388386.700    99866497.43744
  20776571.860   109181712.812 8  20776571.560    85076692.87948
 14  1 10  2 16 30.0000000  0  5G31G21G25G12G29
  20840041.740   109515163.789 8  20840040.360    85336493.50648
  21862510.080   114888316.106 8  21862509.000    89523386.18047
  21460964.200   112778188.780 8  21460966.340    87879149.59047
  24403475.560   128241242.452 6  24403475.760    99928284.05045
  20786145.080   109232020.733 8  20786144.720    85115893.85648
 14  1 10  2 17  0.0000000  0  5G31G21G25G12G29
  20837115.420   109499785.808 8  20837114.080    85324510.65548
  21850637.620   114825925.884 7  21850636.480    89474770.43347
  21469982.360   112825579.835 8  21469984.480    87916077.66747
  24418586.440   128320650.093 6  24418586.560    99990160.11945
  20795765.460   109282576.408 8  20795765.140    85155287.88448
 14  1 10  2 17 30.0000000  0  5G31G21G25G12G29
  20834294.140   109484959.821 8  20834292.800    85312957.93848
  21838835.760   114763906.712 7  21838834.640    89426443.80947
  21479051.940   112873241.034 8  21479054.080    87953216.24947
  24433720.760   128400180.932 6  24433720.620   100052132.19145
  20805434.400   109333386.839 8  20805434.060    85194880.43048
 14  1 10  2 18  0.0000000  0  5G31G21G25G12G29
  20831577.740   109470685.166 8  20831576.420    85301834.83548
  21827104.480   114702258.473 7  21827103.460    89378406.22447
  21488172.680   112921170.909 8  21488174.920    87990564.18547
  24448878.040   128479833.013 6  24448877.720   100114198.75645
  20815151.240   109384448.912 8  20815150.920    85234669.05348
 14  1 10  2 18 30.0000000  0  5G31G21G25G12G29
  20828966.220   109456961.843 8  20828964.960    85291141.33448
  21815444.000   114640982.145 8  21815443.020    89330658.45447
  21497344.540   112969369.036 8  21497346.720    88028121.14647
  24464058.300   128559605.691 5  24464057.420   100176359.30145
  20824915.400   109435759.811 8  20824915.080    85274651.56548
 14  1 10  2 19  0.0000000  0  5G31G21G25G12G29
  20826459.940   109443791.332 8  20826458.620    85280878.58448
  21803854.800   114580080.109 8  21803853.740    89283202.31947
  21506567.520   113017836.039 8  21506569.620    88065887.63647
  24479261.420   128639499.154 5  24479260.620   100238613.91344
  20834726.600   109487317.979 8  20834726.240    85314826.75948
 14  1 10  2 19 30.0000000  0  5G31G21G25G12G29
  20824057.560   109431166.716 8  20824056.240    85271041.22148
  21792335.680   114519546.444 8  21792334.520    89236033.24147
  21515840.180   113066564.335 8  21515842.280    88103857.73147
  24494486.240   128719505.466 6  24494485.560   100300956.48544
  20844583.160   109539114.525 8  20844582.800    85355187.69748
 14  1 10  2 20  0.0000000  0  4G31G21G25G29
  20821745.260   109419015.413 8  20821743.940    85261572.67148
  21780872.900   114459309.000 8  21780871.720    89189094.97747
  21525148.680   113115480.885 8  21525150.800    88141974.50747
  20854470.840   109591074.195 8  20854470.340    85395675.75248
 14  1 10  2 20 30.0000000  0  4G31G21G25G29
  20819566.200   109407564.294 8  20819564.940    85252649.71348
  21769509.860   114399595.898 8  21769508.660    89142565.29947
  21534536.040   113164811.903 8  21534538.200    88180414.23447
  20864432.380   109643421.713 8  20864431.720    85436466.02448
 14  1 10  2 21  0.0000000  0  4G31G21G25G29
  20817479.880   109396600.519 8  20817478.620    85244106.51248
  21758206.180   114340194.787 7  21758204.960    89096278.72047
  21543961.620   113214343.862 8  21543963.860    88219010.55447
  20874426.600   109695941.442 8  20874426.000    85477390.48048
 14  1 10  2 21 30.0000000  0  4G31G21G25G29
  20815490.920   109386148.278 8  20815489.620    85235961.90448
  21746966.760   114281131.686 8  21746965.660    89050255.53847
  21553430.040   113264100.574 8  21553432.200    88257781.99547
  20884457.700   109748655.467 8  20884457.260    85518466.33948
 14  1 10  2 22  0.0000000  0  5G31G21G25G12G29
  20813628.700   109376362.190 8  20813627.360    85228336.37748
  21735821.220   114222561.651 7  21735820.180    89004616.55247
  21562970.520   113314236.033 8  21562972.600    88296848.55247
  24570951.660   129121223.655 6  24570949.740   100613927.22745
  20894554.620   109801715.466 8  20894554.240    85559811.79148
 14  1 10  2 22 30.0000000  0  5G31G21G25G12G29
  20811859.880   109367066.936 8  20811858.520    85221093.31248
  21724736.360   114164310.227 8  21724735.300    88959225.84047
  21572549.620   113364574.167 8  21572551.660    88336073.03747
  24586312.100   129201942.316 5  24586310.980   100676824.93845
  20904683.580   109854943.733 8  20904683.180    85601288.36348
 14  1 10  2 23  0.0000000  0  4G31G21G25G29
  20810196.440   109358325.487 8  20810195.080    85214281.78748
  21713724.300   114106441.258 8  21713723.200    88914133.14847
  21582179.120   113415177.550 8  21582181.220    88375504.23047
  20914856.360   109908401.895 8  20914855.920    85642944.07148
 14  1 10  2 23 30.0000000  0  4G31G21G25G29
  20808632.740   109350107.994 8  20808631.360    85207878.53948
  21702779.520   114048925.815 7  21702778.300    88869315.93147
  21591853.340   113466016.063 8  21591855.540    88415118.63247
  20925066.560   109962057.300 8  20925066.340    85684753.47448
 14  1 10  2 24  0.0000000  0  4G31G21G25G29
  20807180.980   109342478.759 8  20807179.560    85201933.67748
  21691914.400   113991829.250 7  21691913.180    88824825.10247
  21601584.380   113517153.105 8  21601586.640    88454965.66147
  20935325.960   110015971.444 8  20935325.900    85726764.49548
 14  1 10  2 24 30.0000000  0  4G31G21G25G29
  20805836.800   109335414.794 8  20805835.400    85196429.28248
  21681124.760   113935129.451 7  21681123.580    88780643.44247
  21611367.820   113568565.408 7  21611370.060    88495027.17947
  20945629.920   110070119.250 8  20945629.880    85768957.59348
 14  1 10  2 25  0.0000000  0  4G31G21G25G29
  20804602.800   109328929.946 8  20804601.340    85191376.14448
  21670413.440   113878841.098 7  21670412.280    88736782.39247
  21621206.160   113620266.234 8  21621208.380    88535313.52947
  20955980.560   110124512.373 8  20955980.540    85811341.83848
 14  1 10  2 25 30.0000000  0  4G31G21G25G29
  20803472.700   109322991.312 8  20803471.240    85186748.62848
  21659774.300   113822931.956 8  21659773.120    88693216.83747
  21631093.080   113672222.326 8  21631095.320    88575798.75847
  20966371.260   110179115.828 8  20966371.240    85853889.98548
 14  1 10  2 26  0.0000000  0  4G31G21G25G29
  20802446.660   109317599.538 8  20802445.220    85182547.23648
  21649207.780   113767404.437 8  21649206.600    88649948.64247
  21641028.720   113724434.177 8  21641030.980    88616483.28947
  20976801.680   110233928.057 8  20976801.680    85896600.81147
 14  1 10  2 26 30.0000000  0  4G31G21G25G29
  20801534.580   109312806.669 8  20801533.180    85178812.53348
  21638723.980   113712311.672 8  21638722.800    88607019.22647
  21651022.780   113776953.215 8  21651024.960    88657407.20047
  20987281.380   110288999.134 8  20987281.320    85939513.34548
 14  1 10  2 27  0.0000000  0  4G31G21G25G29
  20800728.740   109308571.925 8  20800727.340    85175512.72248
  21628315.280   113657613.361 8  21628313.960    88564397.16747
  21661067.380   113829738.167 7  21661069.540    88698538.32047
  20997802.140   110344285.846 8  20997801.980    85982593.88747
 14  1 10  2 27 30.0000000  0  4G31G21G25G29
  20800030.400   109304902.195 8  20800029.040    85172653.19248
  21617983.120   113603317.615 8  21617981.740    88522088.80447
  21671163.880   113882795.585 8  21671166.140    88739881.73247
  21008364.940   110399792.810 8  21008364.600    86025846.06748
 14  1 10  2 28  0.0000000  0  4G31G21G25G29
  20799437.060   109301784.230 8  20799435.720    85170223.60348
  21607725.220   113549411.895 8  21607723.720    88480084.34847
  21681309.660   113936111.791 8  21681312.000    88781426.80047
  21018966.840   110455505.201 8  21018966.260    86069258.31747
 14  1 10  2 28 30.0000000  0  4G31G21G25G29
  20798943.900   109299192.417 8  20798942.480    85168203.99048
  21597536.880   113495871.985 8  21597535.340    88438364.95347
  21691499.840   113989661.117 8  21691502.120    88823153.51947
  21029602.420   110511395.415 8  21029601.800    86112809.12547
 14  1 10  2 29  0.0000000  0  4G31G21G25G29
  20798559.740   109297173.643 8  20798558.340    85166630.91948
  21587427.280   113442745.713 8  21587425.780    88396967.86547
  21701743.220   114043490.048 8  21701745.380    88865098.12947
  21040280.200   110567507.819 8  21040279.580    86156533.07447
 14  1 10  2 29 30.0000000  0  4G31G21G25G29
  20798283.980   109295724.598 8  20798282.660    85165501.78048
  21577395.940   113390030.723 8  21577394.560    88355891.25847
  21712039.100   114097594.940 8  21712041.160    88907257.76047
  21050999.200   110623837.143 8  21050998.560    86200426.05047
 14  1 10  2 30  0.0000000  0  4G31G21G25G29
  20798117.800   109294851.288 8  20798116.480    85164821.27648
  21567444.180   113337734.202 8  21567442.940    88315140.72547
  21722388.480   114151981.459 7  21722390.620    88949636.82747
  21061760.320   110680387.767 8  21061759.760    86244491.47247
 14  1 10  2 30 30.0000000  0  4G31G21G25G29
  20798057.340   109294533.292 8  20798055.960    85164573.48348
  21557568.280   113285836.439 8  21557567.120    88274700.90947
  21732787.480   114206628.822 7  21732789.740    88992219.14947
  21072559.320   110737137.229 8  21072558.920    86288711.83147
 14  1 10  2 31  0.0000000  0  4G31G21G25G29
  20798107.220   109294795.227 8  20798105.820    85164777.57448
  21547773.220   113234363.217 8  21547772.040    88234591.91947
  21743240.780   114261561.752 7  21743243.220    89035024.00147
  21083400.540   110794108.246 8  21083400.260    86333104.81947
 14  1 10  2 31 30.0000000  0  4G31G21G25G29
  20798267.140   109295635.901 8  20798265.800    85165432.64048
  21538059.060   113183315.011 8  21538057.840    88194814.10547
  21753748.160   114316778.659 7  21753750.680    89078050.13347
  21094283.320   110851297.549 8  21094283.040    86377667.90847
 14  1 10  2 32  0.0000000  0  4G31G21G25G29
  20798528.640   109297010.198 8  20798527.360    85166503.51748
  21528417.300   113132647.252 8  21528416.040    88155332.74247
  21764300.980   114372233.918 7  21764303.520    89121262.01447
  21105198.740   110908658.037 8  21105198.360    86422364.38547
 14  1 10  2 32 30.0000000  0  4G31G21G25G29
  20798898.140   109298952.134 8  20798896.940    85168016.70948
  21518854.620   113082395.206 8  21518853.400    88116175.31047
  21774905.720   114427961.457 7  21774908.140    89164686.04347
  21116152.920   110966222.295 8  21116152.500    86467219.64447
 14  1 10  2 33  0.0000000  0  4G31G21G25G29
  20799377.000   109301468.368 8  20799375.760    85169977.40348
  21509372.500   113032566.510 8  21509371.360    88077347.75947
  21785563.420   114483967.880 7  21785565.840    89208327.38547
  21127146.760   111023995.019 8  21127146.380    86512237.34147
 14  1 10  2 33 30.0000000  0  4G31G21G25G29
  20799965.800   109304562.365 8  20799964.520    85172388.30448
  21499971.880   112983165.976 8  21499970.780    88038853.84447
  21796274.720   114540256.673 7  21796277.300    89252188.74347
  21138180.580   111081978.161 8  21138180.220    86557419.01447
 14  1 10  2 34  0.0000000  0  4G31G21G25G29
  20800660.100   109308210.920 8  20800658.820    85175231.32648
  21490648.520   112934171.447 8  21490647.400    88000676.29347
  21807035.360   114596804.351 7  21807038.040    89296251.84547
  21149249.640   111140146.577 8  21149249.260    86602745.05547
 14  1 10  2 34 30.0000000  0  4G31G21G25G29
  20801462.780   109312429.240 8  20801461.540    85178518.32848
  21481405.620   112885599.311 8  21481404.440    87962827.88247
  21817848.200   114653625.868 7  21817850.820    89340528.32247
  21160356.540   111198513.757 8  21160356.160    86648225.96647
 14  1 10  2 35  0.0000000  0  4G31G21G25G29
  20802370.960   109317201.658 8  20802369.740    85182237.08748
  21472240.200   112837434.762 8  21472239.040    87925297.07047
  21828710.180   114710705.593 7  21828712.680    89385006.00547
  21171497.960   111257062.432 8  21171497.620    86693848.30247
 14  1 10  2 35 30.0000000  0  4G31G21G25G29
  20803387.780   109322544.952 8  20803386.540    85186400.68248
  21463155.820   112789695.897 8  21463154.700    87888097.96147
  21839624.420   114768060.119 7  21839626.840    89429697.81347
  21182676.720   111315807.531 8  21182676.500    86739623.69747
 14  1 10  2 36  0.0000000  0  4G31G21G25G29
  20804515.100   109328468.916 8  20804513.800    85191016.75348
  21454154.480   112742393.215 8  21454153.360    87851238.73547
  21850592.720   114825698.917 7  21850595.220    89474611.14247
  21193894.480   111374757.417 8  21193894.360    86785558.67047
 14  1 10  2 36 30.0000000  0  4G31G21G25G29
  20805746.920   109334942.232 8  20805745.580    85196060.88848
  21445230.440   112695496.632 8  21445229.260    87814695.94947
  21861609.300   114883591.002 7  21861611.780    89519721.82947
  21205144.960   111433879.086 8  21205144.840    86831627.49947
 14  1 10  2 37  0.0000000  0  4G31G21G25G29
  20807088.560   109341992.674 8  20807087.240    85201554.73748
  21436389.320   112649036.073 8  21436388.100    87778492.91647
  21872679.400   114941764.255 7  21872681.780    89565051.59747
  21216433.240   111493199.043 8  21216433.080    86877850.84447
 14  1 10  2 37 30.0000000  0  4G31G21G25G29
  20808538.280   109349610.964 8  20808536.920    85207491.06148
  21427629.460   112603002.685 8  21427628.260    87742622.74747
  21883801.120   115000209.002 7  21883803.400    89610592.92647
  21227757.220   111552706.248 8  21227756.960    86924220.08247
 14  1 10  2 38  0.0000000  0  4G31G21G25G29
  20810095.320   109357793.007 8  20810093.900    85213866.67148
  21418950.440   112557394.148 8  21418949.240    87707083.63247
  21894973.740   115058921.666 7  21894976.000    89656343.02547
  21239115.740   111612395.345 8  21239115.360    86970731.05447
 14  1 10  2 38 30.0000000  0  4G31G21G25G29
  20811758.840   109366534.564 8  20811757.400    85220678.26648
  21410351.560   112512206.718 8  21410350.340    87671872.64547
  21906196.500   115117897.586 7  21906198.800    89702298.27747
  21250507.620   111672260.260 8  21250507.180    87017379.03847
 14  1 10  2 39  0.0000000  0  4G31G21G25G29
  20813530.000   109375842.057 8  20813528.560    85227930.85648
  21401834.220   112467447.713 8  21401832.900    87636995.51047
  21917470.580   115177143.008 7  21917472.880    89748463.51547
  21261933.840   111732305.682 8  21261933.360    87064167.67547
 14  1 10  2 39 30.0000000  0  5G06G31G21G25G29
  24390538.920   128173146.928 6  24390540.300    99875178.85344
  20815409.120   109385717.260 8  20815407.800    85235625.80848
  21393399.100   112423120.903 8  21393397.720    87602455.14147
  21928796.380   115236660.042 7  21928798.640    89794840.39847
  21273394.620   111792532.664 8  21273394.140    87111097.78447
 14  1 10  2 40  0.0000000  0  5G06G31G21G25G29
  24374614.820   128089463.420 6  24374615.560    99809970.94545
  20817394.460   109396150.455 8  20817393.240    85243755.56948
  21385044.620   112379217.714 8  21385043.200    87568244.87447
  21940172.040   115296439.187 7  21940174.260    89841421.53147
  21284887.840   111852930.116 8  21284887.360    87158160.72647
 14  1 10  2 40 30.0000000  0  5G06G31G21G25G29
  24358718.600   128005926.344 6  24358718.360    99744877.14944
  20819488.260   109407153.235 8  20819487.020    85252329.15548
  21376773.000   112335750.507 8  21376771.700    87534374.32147
  21951599.740   115356491.875 7  21951602.000    89888215.80547
  21296415.360   111913507.895 8  21296414.860    87205364.18347
 14  1 10  2 41  0.0000000  0  5G06G31G21G25G29
  24342849.920   127922533.819 6  24342849.300    99679896.00345
  20821690.180   109418724.135 8  20821688.880    85261345.42948
  21368584.340   112292719.192 8  21368583.140    87500843.43347
  21963079.240   115416816.789 7  21963081.500    89935222.21947
  21307976.740   111974263.464 8  21307976.280    87252706.18247
 14  1 10  2 41 30.0000000  0  5G06G31G21G25G29
  24327008.900   127839286.923 6  24327007.940    99615028.28445
  20824000.260   109430863.553 8  20823998.940    85270804.71048
  21360479.000   112250125.815 8  21360477.860    87467653.79747
  21974610.640   115477414.532 7  21974612.820    89982441.20047
  21319571.780   112035195.590 8  21319571.300    87300185.75247
 14  1 10  2 42  0.0000000  0  5G06G31G21G25G29
  24311195.300   127756185.634 6  24311194.660    99550274.08645
  20826418.220   109443570.166 8  20826416.900    85280705.95848
  21352456.920   112207969.947 8  21352455.860    87434805.07947
  21986193.720   115538283.839 7  21986195.760    90029871.80747
  21331200.020   112096302.052 8  21331199.520    87347801.17747
 14  1 10  2 42 30.0000000  0  5G06G31G21G25G29
  24295409.060   127673228.856 6  24295408.860    99485632.46145
  20828943.960   109456843.027 8  20828942.600    85291048.44348
  21344518.240   112166251.986 8  21344517.140    87402297.57747
  21997828.320   115599423.935 7  21997830.300    90077513.42047
  21342861.000   112157580.644 8  21342860.540    87395550.71547
 14  1 10  2 43  0.0000000  0  5G06G31G21G25G29
  24279650.340   127590417.327 6  24279650.580    99421104.00145
  20831577.420   109470681.834 8  20831576.060    85301831.91548
  21336662.960   112124972.398 8  21336661.900    87370131.68047
  22009514.440   115660834.729 7  22009516.500    90125365.96847
  21354554.460   112219029.684 8  21354553.920    87443433.07447
 14  1 10  2 43 30.0000000  0  5G06G31G21G25G29
  24263918.900   127507748.477 6  24263919.300    99356686.76945
  20834318.080   109485083.774 8  20834316.660    85313054.19848
  21328890.920   112084129.942 8  21328889.840    87338306.39847
  22021251.480   115722513.614 7  22021253.720    90173427.42447
  21366279.480   112280645.199 8  21366279.000    87491445.16547
 14  1 10  2 44  0.0000000  0  5G06G31G21G25G29
  24248215.040   127425224.451 6  24248215.740    99292382.33745
  20837166.080   109500050.296 8  20837164.740    85324716.42148
  21321202.680   112043727.941 8  21321201.600    87306824.32247
  22033039.780   115784462.126 7  22033042.200    90221698.97647
  21378036.220   112342427.713 8  21378035.940    87539587.38147
 14  1 10  2 44 30.0000000  0  5G06G31G21G25G29
  24232539.640   127342849.151 6  24232540.380    99228193.83445
  20840122.100   109515584.415 8  20840120.760    85336820.91948
  21313599.000   112003770.152 8  21313597.840    87275688.39247
  22044880.020   115846683.494 7  22044882.560    90270183.13447
  21389825.200   112404379.231 8  21389825.000    87587861.28847
 14  1 10  2 45  0.0000000  0  5G06G31G21G25G29
  24216890.760   127260612.657 6  24216891.080    99164113.49045
  20843184.140   109531675.796 8  20843182.880    85349359.64948
  21306078.140   111964247.645 8  21306076.880    87244891.64647
  22056770.400   115909167.736 7  22056772.920    90318872.12347
  21401644.200   112466488.248 8  21401644.020    87636257.91647
 14  1 10  2 45 30.0000000  0  5G06G31G21G25G29
  24201268.680   127178517.108 6  24201268.640    99100142.93945
  20846352.600   109548326.084 8  20846351.380    85362333.89148
  21298640.600   111925163.316 8  21298639.340    87214436.33947
  22068711.220   115971916.656 7  22068713.600    90367767.35747
  21413493.240   112528755.234 8  21413493.080    87684777.63447
 14  1 10  2 46  0.0000000  0  6G06G31G21G25G16G29
  24185676.180   127096577.986 6  24185676.000    99036294.31945
  20849630.080   109565549.179 8  20849628.860    85375754.47948
  21291289.320   111886532.260 8  21291288.080    87184334.22447
  22080705.080   116034944.601 7  22080707.420    90416880.02747
  24565268.880   129091356.976 6  24565267.820   100590666.57645
  21425374.700   112591193.083 8  21425374.600    87733430.50347
 14  1 10  2 46 30.0000000  0  6G06G31G21G25G16G29
  24170109.720   127014775.345 6  24170109.440    98972552.00846
  20853012.660   109583324.783 8  20853011.500    85389605.59148
  21284020.780   111848335.683 8  21284019.500    87154570.65947
  22092748.180   116098231.389 7  22092750.460    90466194.38747
  24548460.580   129003027.077 6  24548459.660   100521838.07944
  21437284.520   112653779.909 8  21437284.440    87782199.45647
 14  1 10  2 47  0.0000000  0  6G06G31G21G25G16G29
  24154572.540   126933127.564 6  24154572.300    98908930.43245
  20856503.720   109601670.656 8  20856502.600    85403901.07448
  21276838.580   111810592.652 8  21276837.280    87125160.51347
  22104843.980   116161795.266 7  22104846.220    90515724.66647
  24531650.120   128914688.898 5  24531649.680   100453003.17344
  21449226.180   112716533.866 8  21449226.120    87831098.63947
 14  1 10  2 47 30.0000000  0  6G06G31G21G25G16G29
  24139062.700   126851623.980 6  24139062.520    98845421.14845
  20860101.140   109620575.502 8  20860100.080    85418632.12648
  21269740.780   111773293.156 8  21269739.480    87096095.97947
  22116990.420   116225625.079 7  22116992.720    90565462.14847
  24514836.300   128826332.069 6  24514836.020   100384153.70244
  21461197.120   112779441.933 8  21461197.060    87880117.90647
 14  1 10  2 48  0.0000000  0  6G06G31G21G25G16G29
  24123580.760   126770266.816 6  24123580.980    98782025.98645
  20863805.240   109640040.697 8  20863804.240    85433799.79548
  21262727.900   111736440.047 8  21262726.580    87067379.27947
  22129187.840   116289722.559 7  22129190.200    90615408.22047
  24498019.640   128737959.270 6  24498018.920   100315291.82444
  21473197.440   112842504.539 8  21473197.420    87929257.58547
 14  1 10  2 48 30.0000000  0  6G06G31G21G25G16G29
  24108127.100   126689058.015 6  24108127.400    98718746.42745
  20867616.240   109660067.406 8  20867615.180    85449405.01448
  21255800.320   111700035.489 8  21255799.060    87039012.10547
  22141436.480   116354089.224 7  22141438.860    90665564.04647
  24481200.360   128649572.921 6  24481199.380   100246419.36644
  21485227.300   112905721.901 8  21485227.280    87978517.86747
 14  1 10  2 49  0.0000000  0  6G06G31G21G25G16G29
  24092701.440   126607995.291 6  24092701.400    98655580.72145
  20871533.400   109680652.205 8  20871532.320    85465445.11148
  21248957.700   111664077.315 8  21248956.420    87010992.74947
  22153735.720   116418722.077 7  22153738.140    90715927.29847
  24464378.180   128561171.011 6  24464377.080   100177534.75845
  21497285.980   112969090.319 8  21497285.820    88027895.84247
 14  1 10  2 49 30.0000000  0  6G06G31G21G25G16G29
  24077304.100   126527081.578 6  24077304.260    98592531.10045
  20875557.220   109701797.474 8  20875556.120    85481921.93848
  21242200.740   111628569.443 8  21242199.480    86983324.28547
  22166086.100   116483623.938 7  22166088.580    90766500.16547
  24447553.700   128472757.257 6  24447552.540   100108640.91345
  21509373.680   113032611.175 8  21509373.340    88077392.60547
 14  1 10  2 50  0.0000000  0  6G06G31G21G25G16G29
  24061935.060   126446316.817 6  24061935.300    98529597.50245
  20879687.440   109723502.019 8  20879686.300    85498834.55648
  21235529.560   111593512.289 8  21235528.300    86956007.02947
  22178487.460   116548793.953 7  22178489.980    90817281.96047
  24430726.940   128384332.502 6  24430725.920   100039738.47345
  21521489.920   113096282.428 8  21521489.520    88127006.55247
 14  1 10  2 50 30.0000000  0  6G06G31G21G25G16G29
  24046594.300   126365700.548 6  24046594.600    98466779.71545
  20883923.900   109745764.485 8  20883922.680    85516181.93348
  21228944.060   111558905.442 8  21228942.800    86929040.65847
  22190939.700   116614231.391 7  22190942.300    90868272.14947
  24413898.100   128295896.527 6  24413897.040    99970827.33445
  21533634.440   113160101.962 8  21533633.920    88176736.05147
 14  1 10  2 51  0.0000000  0  6G06G31G21G25G16G29
  24031281.700   126285232.384 6  24031281.900    98404077.28045
  20888266.380   109768584.091 8  20888265.080    85533963.43348
  21222444.500   111524750.108 8  21222443.260    86902426.12047
  22203442.680   116679935.462 7  22203445.480    90919470.09447
  24397067.200   128207450.086 6  24397066.100    99901908.06345
  21545806.820   113224068.124 8  21545806.300    88226579.80547
 14  1 10  2 51 30.0000000  0  6G06G31G21G25G16G29
  24015997.340   126204911.983 6  24015997.320    98341489.95145
  20892714.460   109791958.930 8  20892713.160    85552177.58948
  21216030.640   111491045.104 8  21216029.440    86876162.48747
  22215996.260   116745904.973 7  22215999.100    90970874.89347
  24380234.220   128118992.862 6  24380233.200    99832980.37445
  21558006.520   113288178.211 8  21558005.980    88276535.70547
 14  1 10  2 52  0.0000000  0  6G06G31G21G25G16G29
  24000741.500   126124741.278 6  24000741.260    98279019.29845
  20897268.500   109815890.372 8  20897267.180    85570825.45648
  21209703.040   111457793.318 8  21209701.900    86850252.01347
  22228600.720   116812141.834 7  22228603.540    91022488.03147
  24363399.860   128030527.937 7  24363398.900    99764046.66045
  21570233.980   113352433.821 8  21570233.380    88326605.01447
 14  1 10  2 52 30.0000000  0  6G06G31G21G25G16G29
  23985513.960   126044720.157 6  23985513.680    98216665.20345
  20901928.240   109840377.219 8  20901926.920    85589906.11048
  21203461.760   111424995.249 8  21203460.700    86824695.07647
  22241255.980   116878645.282 7  22241258.680    91074308.88447
  24346564.140   127942055.611 6  24346563.340    99695107.19945
  21582488.740   113416832.647 8  21582488.200    88376785.89847
 14  1 10  2 53  0.0000000  0  6G06G31G21G25G16G29
  23970314.860   125964848.912 6  23970314.600    98154427.87745
  20906693.480   109865418.758 8  20906692.200    85609418.99548
  21197306.920   111392651.433 8  21197305.920    86799492.11547
  22253961.960   116945415.130 7  22253964.620    91126337.31447
  24329727.160   127853576.789 6  24329726.460    99626162.67745
  21594770.420   113481373.056 8  21594770.080    88427077.12647
 14  1 10  2 53 30.0000000  0  6G06G31G21G25G16G29
  23955144.320   125885127.391 6  23955144.040    98092307.23446
  20911564.040   109891013.784 8  20911562.800    85629363.16348
  21191238.560   111360762.036 8  21191237.540    86774643.23847
  22266718.480   117012450.709 7  22266721.240    91178572.81547
  24312888.920   127765091.902 6  24312888.460    99557213.45845
  21607078.760   113546053.682 8  21607078.580    88477477.60847
 14  1 10  2 54  0.0000000  0  6G06G31G21G25G16G29
  23940002.620   125805558.022 6  23940002.580    98030305.15945
  20916540.240   109917164.010 8  20916539.020    85649739.95448
  21185257.240   111329329.893 8  21185256.140    86750150.66147
  22279525.880   117079754.058 7  22279528.760    91231016.98447
  24296050.180   127676604.459 6  24296049.920    99488262.21245
  21619413.920   113610875.409 8  21619413.780    88527988.04147
 14  1 10  2 54 30.0000000  0  6G06G31G21G25G16G29
  23924889.180   125726136.532 6  23924889.320    97968418.29046
  20921621.000   109943863.697 8  20921619.780    85670544.89748
  21179362.200   111298351.096 8  21179361.040    86726011.34347
  22292383.260   117147320.188 7  22292386.280    91283665.90847
  24279210.260   127588110.259 6  24279209.960    99419305.75546
  21631774.760   113675832.330 8  21631774.660    88578603.81347
 14  1 10  2 55  0.0000000  0  6G06G31G21G25G16G29
  23909804.640   125646866.803 7  23909804.860    97906649.65745
  20926807.000   109971116.177 8  20926805.720    85691780.58748
  21173554.180   111267829.719 8  21173552.960    86702228.45547
  22305291.360   117215152.808 7  22305294.380    91336522.47747
  24262370.000   127499614.484 6  24262369.680    99350348.03946
  21644161.840   113740927.132 8  21644161.780    88629327.02947
 14  1 10  2 55 30.0000000  0  6G06G31G21G25G16G29
  23894748.740   125567747.764 6  23894749.040    97844998.48745
  20932097.680   109998918.801 8  20932096.440    85713444.96648
  21167833.160   111237765.495 8  21167831.880    86678801.79447
  22318249.900   117283250.183 7  22318252.780    91389585.34847
  24245529.320   127411116.392 6  24245529.000    99281388.48545
  21656574.600   113806156.621 8  21656574.600    88680155.20047
 14  1 10  2 56  0.0000000  0  6G06G31G21G25G16G29
  23879721.360   125488777.837 7  23879721.520    97783463.49346
  20937492.540   110027268.966 8  20937491.340    85735535.99348
  21162198.840   111208156.855 8  21162197.500    86655730.12647
  22331258.440   117351610.122 7  22331261.140    91442852.81747
  24228688.180   127322615.438 6  24228687.700    99212426.72345
  21669012.460   113871518.174 8  21669012.500    88731086.26847
 14  1 10  2 56 30.0000000  0  6G06G31G21G25G16G29
  23864723.140   125409961.385 7  23864723.280    97722048.10545
  20942992.220   110056170.082 8  20942991.100    85758056.34148
  21156652.100   111179008.550 8  21156650.740    86633017.16547
  22344317.620   117420236.640 7  22344320.260    91496328.01047
  24211847.460   127234116.550 7  24211846.900    99143466.56545
  21681476.080   113937014.889 8  21681476.020    88782122.66247
 14  1 10  2 57  0.0000000  0  6G06G31G21G25G16G29
  23849753.540   125331295.525 7  23849753.520    97660750.06346
  20948596.020   110085618.292 8  20948594.860    85781002.99848
  21151192.460   111150318.048 8  21151191.100    86610660.93447
  22357426.900   117489126.402 7  22357429.540    91550008.33546
  24195006.900   127145617.943 7  24195005.960    99074506.62245
  21693964.620   114002642.255 8  21693964.320    88833260.86347
 14  1 10  2 57 30.0000000  0  6G06G31G21G25G16G29
  23834812.880   125252782.029 6  23834812.840    97599570.72545
  20954303.980   110115613.651 8  20954302.760    85804375.99948
  21145820.300   111122087.364 8  21145818.980    86588663.00347
  22370586.520   117558280.565 7  22370589.220    91603894.69347
  24178166.720   127057121.939 6  24178165.680    99005548.71345
  21706478.000   114068400.219 8  21706477.560    88884500.82347
 14  1 10  2 58  0.0000000  0  6G06G31G21G25G16G29
  23819901.160   125174420.404 7  23819901.000    97538509.74946
  20960115.820   110146154.834 8  20960114.520    85828174.31648
  21140535.600   111094316.138 8  21140534.320    86567023.08547
  22383796.280   117627698.007 7  22383799.080    91657986.20047
  24161327.020   126968628.776 6  24161325.720    98936593.06945
  21719015.900   114134286.753 8  21719015.240    88935840.96647
 14  1 10  2 58 30.0000000  0  6G06G31G21G25G16G29
  23805018.020   125096209.369 7  23805017.980    97477566.09245
  20966031.100   110177239.670 8  20966029.800    85852396.25948
  21135338.160   111067003.467 8  21135336.940    86545740.49047
  22397055.880   117697377.307 7  22397058.740    91712281.74947
  24144487.960   126880138.330 6  24144486.260    98867639.44045
  21731577.900   114200299.941 8  21731577.120    88987279.80047
 14  1 10  2 59  0.0000000  0  6G06G31G21G25G16G29
  23790164.240   125018152.559 6  23790164.220    97416742.60045
  20972050.200   110208870.230 8  20972048.900    85877043.44548
  21130228.780   111040153.636 8  21130227.620    86524818.55247
  22410365.800   117767321.270 7  22410368.620    91766783.52947
  24127650.040   126791654.487 6  24127648.400    98798691.02645
  21744164.280   114266441.292 8  21744163.460    89038818.50447
 14  1 10  2 59 30.0000000  0  6G06G31G21G25G16G29
  23775339.400   124940248.188 6  23775339.520    97356037.88745
  20978172.580   110241043.704 8  20978171.260    85902113.67648
  21125207.080   111013764.643 8  21125205.900    86504255.70647
  22423725.640   117837527.703 7  22423728.280    91821489.84746
  24110813.220   126703176.955 6  24110811.860    98729747.50345
  21756774.380   114332708.014 7  21756773.700    89090454.90147
 14  1 10  3  0  0.0000000  0  6G06G31G21G25G16G29
  23760543.620   124862496.993 6  23760544.000    97295452.55246
  20984398.140   110273759.332 8  20984396.840    85927606.36748
  21120273.260   110987837.485 8  21120272.020    86484052.73647
  22437135.440   117907996.677 7  22437137.900    91876400.72846
  24093977.860   126614706.988 6  24093976.940    98660809.87446
  21769408.000   114399099.113 7  21769407.580    89142188.21747
 14  1 10  3  0 30.0000000  0  6G06G31G21G25G16G29
  23745777.120   124784899.531 6  23745777.880    97234986.98746
  20990726.760   110307016.570 8  20990725.460    85953521.08848
  21115427.460   110962372.792 8  21115426.180    86464210.12047
  22450595.160   117978728.348 7  22450597.540    91931516.30446
  24077144.200   126526246.067 6  24077143.580    98591879.33646
  21782065.220   114465613.860 8  21782064.980    89194017.88147
 14  1 10  3  1  0.0000000  0  6G06G31G21G25G16G29
  23731039.400   124707453.640 6  23731040.300    97174639.55845
  20997157.760   110340811.782 8  20997156.500    85979855.01148
  21110669.360   110937368.999 8  21110668.120    86444726.65447
  22464104.300   118049719.968 7  22464106.740    91986834.42646
  24060312.020   126437792.706 6  24060311.400    98522954.67345
  21794745.280   114532248.666 7  21794745.160    89245941.09547
 14  1 10  3  1 30.0000000  0  6G06G31G21G25G16G29
  23716331.040   124630161.724 6  23716332.000    97114412.12645
  21003691.340   110375146.166 8  21003690.140    86006609.07248
  21105999.420   110912828.357 8  21105998.240    86425604.07947
  22477663.320   118120973.362 7  22477665.900    92042356.54746
  24043482.080   126349350.341 6  24043481.260    98454038.56345
  21807448.480   114599004.798 8  21807448.380    89297958.84547
 14  1 10  3  2  0.0000000  0  6G06G31G21G25G16G29
  23701651.820   124553022.389 6  23701652.720    97054303.57646
  21010327.020   110410017.023 8  21010325.900    86033781.16548
  21101417.460   110888749.687 8  21101416.240    86406841.48147
  22491271.840   118192486.549 7  22491274.480    92098081.11746
  24026653.880   126260918.170 6  24026653.160    98385130.40146
  21820174.280   114665879.173 7  21820174.160    89350068.73647
 14  1 10  3  2 30.0000000  0  6G06G31G21G25G16G29
  23687001.840   124476035.914 6  23687002.660    96994314.09346
  21017064.600   110445423.324 8  21017063.520    86061370.48848
  21096923.540   110865133.679 8  21096922.300    86388439.40147
  22504929.760   118264259.458 7  22504932.420    92154008.05146
  24009827.820   126172497.853 6  24009827.100    98316231.43845
  21832922.400   114732871.083 7  21832922.300    89402270.21447
 14  1 10  3  3  0.0000000  0  6G06G31G21G25G16G29
  23672381.240   124399204.616 6  23672382.140    96934445.56746
  21023904.280   110481366.037 8  21023903.240    86089377.78748
  21092518.020   110841982.331 8  21092516.700    86370399.39447
  22518637.400   118336293.674 7  22518640.220    92210138.60646
  23993004.720   126084092.501 6  23993004.080    98247344.17145
  21845693.000   114799981.075 8  21845692.920    89454563.70647
 14  1 10  3  3 30.0000000  0  6G06G31G21G25G16G29
  23657789.680   124322525.319 6  23657790.420    96874695.45946
  21030845.160   110517840.518 8  21030844.120    86117799.46147
  21088200.300   110819292.465 8  21088198.920    86352718.99147
  22532394.040   118408585.523 7  22532396.940    92266469.90146
  23976184.200   125995699.741 7  23976183.540    98178466.71045
  21858485.400   114867204.950 7  21858485.260    89506945.95247
 14  1 10  3  4  0.0000000  0  6G06G31G21G25G16G29
  23643227.500   124246000.925 6  23643228.160    96815066.06145
  21037887.500   110554848.244 8  21037886.400    86146636.63948
  21083971.140   110797068.013 8  21083969.720    86335401.24247
  22546200.180   118481137.273 7  22546203.080    92323003.73046
  23959366.920   125907323.471 7  23959366.100    98109602.09245
  21871299.780   114934544.590 7  21871299.640    89559418.37747
 14  1 10  3  4 30.0000000  0  6G06G31G21G25G16G29
  23628694.540   124169629.923 6  23628695.320    96755556.20446
  21045030.780   110592386.523 8  21045029.620    86175887.24048
  21079830.140   110775307.082 8  21079828.800    86318444.67947
  22560055.480   118553947.137 7  22560058.280    92379738.69646
  23942552.720   125818963.489 7  23942551.680    98040750.16946
  21884135.660   115001996.901 7  21884135.480    89611978.61747
 14  1 10  3  5  0.0000000  0  6G06G31G21G25G16G29
  23614190.980   124093413.652 6  23614191.920    96696166.94346
  21052274.960   110630455.156 8  21052273.800    86205551.10447
  21075777.560   110754010.772 8  21075776.320    86301850.15447
  22573959.960   118627015.597 7  22573962.740    92436675.14746
  23925742.060   125730621.653 7  23925740.820    97971912.36045
  21896992.940   115069561.844 7  21896992.720    89664626.61647
 14  1 10  3  5 30.0000000  0  6G06G31G21G25G16G29
  23599716.800   124017351.912 6  23599717.860    96636898.04246
  21059619.840   110669052.530 8  21059618.680    86235626.97648
  21071813.400   110733179.013 8  21071812.200    86285617.62048
  22587913.560   118700341.989 7  22587916.260    92493812.58046
  23908934.900   125642298.519 6  23908933.460    97903089.15145
  21909871.180   115137237.525 7  21909871.000    89717360.90947
 14  1 10  3  6  0.0000000  0  6G06G31G21G25G16G29
  23585272.360   123941446.674 6  23585273.480    96577751.06446
  21067065.380   110708178.920 8  21067064.280    86266115.06848
  21067938.080   110712814.045 8  21067936.900    86269748.81648
  22601916.480   118773927.633 7  22601919.200    92551152.02246
  23892131.860   125553997.964 7  23892130.320    97834283.55445
  21922770.800   115205025.113 8  21922770.540    89770182.39247
 14  1 10  3  6 30.0000000  0  7G06G31G21G25G16G27G29
  23570857.540   123865696.249 6  23570858.720    96518724.80145
  21074611.040   110747831.408 8  21074609.960    86297013.10448
  21064151.300   110692914.324 8  21064150.140    86254242.54848
  22615968.240   118847770.327 7  22615971.080    92608691.76746
  23875332.720   125465718.730 6  23875331.060    97765494.53745
  24674436.180   129665043.244 6  24674440.120   101037705.10945
  21935691.300   115272922.152 7  21935690.920    89823089.14947
 14  1 10  3  7  0.0000000  0  7G06G31G21G25G16G27G29
  23556473.100   123790105.528 6  23556474.480    96459822.92945
  21082257.420   110788013.266 8  21082256.360    86328323.63548
  21060453.920   110673484.535 8  21060452.780    86239102.45947
  22630069.740   118921874.473 7  22630072.720    92666435.23946
  23858538.460   125377466.524 6  23858537.240    97696726.58045
  24659036.620   129584117.876 6  24659040.060   100974646.40946
  21948633.100   115340931.933 7  21948632.720    89876083.76947
 14  1 10  3  7 30.0000000  0  7G06G31G21G25G16G27G29
  23542116.660   123714661.556 6  23542117.940    96401035.42745
  21090001.740   110828710.006 8  21090000.720    86360035.37848
  21056843.520   110654511.833 8  21056842.340    86224318.54247
  22644218.460   118996226.236 7  22644221.420    92724371.67546
  23841747.440   125289229.870 6  23841746.520    97627970.76645
  24643656.480   129503294.564 6  24643659.740   100911667.23345
  21961593.520   115409039.878 7  21961593.280    89929154.88547
 14  1 10  3  8  0.0000000  0  8G06G31G21G25G16G27G18G29
  23527791.140   123639380.866 6  23527792.240    96342375.17445
  21097846.940   110869936.602 8  21097845.860    86392159.98647
  21053323.320   110636013.081 8  21053322.100    86209903.93847
  22658417.380   119070841.785 7  22658420.320    92782513.64646
  23824962.860   125201026.241 6  23824962.040    97559240.67046
  24628298.900   129422589.975 6  24628302.140   100848780.57046
  24606073.940   129305787.379 6  24606075.180   100757752.32345
  21974575.540   115477261.474 7  21974575.420    89982314.57447
 14  1 10  3  8 30.0000000  0  8G06G31G21G25G16G27G18G29
  23513492.460   123564240.562 6  23513493.460    96283824.31845
  21105788.300   110911668.776 8  21105787.160    86424678.55147
  21049888.820   110617964.846 8  21049887.600    86195840.38448
  22672661.900   119145697.627 7  22672664.960    92840842.87746
  23808180.420   125112833.577 6  23808179.440    97490519.09545
  24612959.580   129341981.370 6  24612962.860   100785968.66846
  24591783.700   129230691.603 6  24591784.040   100699236.09744
  21987574.680   115545572.815 7  21987574.660    90035544.16647
 14  1 10  3  9  0.0000000  0  8G06G31G21G25G16G27G18G29
  23499225.080   123489264.695 6  23499225.900    96225401.56745
  21113830.040   110953928.615 8  21113828.920    86457608.29748
  21046544.560   110600390.967 8  21046543.400    86182146.45448
  22686956.520   119220817.019 7  22686959.680    92899377.44246
  23791404.860   125024677.164 6  23791403.780    97421825.77645
  24597643.080   129261492.604 6  24597646.360   100723250.16746
  24577486.320   129155559.113 6  24577486.280   100640691.29245
  22000595.260   115613996.398 7  22000595.220    90088861.24447
 14  1 10  3  9 30.0000000  0  8G06G31G21G25G16G27G18G29
  23484987.180   123414443.311 6  23484987.980    96167099.20245
  21121970.080   110996704.858 8  21121969.000    86490940.42948
  21043288.840   110583282.200 8  21043287.720    86168814.95047
  22701299.480   119296189.614 7  22701302.540    92958109.32246
  23774634.500   124936548.188 7  23774633.440    97353153.87145
  24582347.620   129181114.067 6  24582350.800   100660617.57345
  24563180.680   129080382.875 6  24563180.700   100582112.35345
  22013635.180   115682521.456 7  22013635.060    90142257.37947
 14  1 10  3 10  0.0000000  0  8G06G31G21G25G16G27G18G29
  23470779.020   123339778.156 6  23470779.740    96108918.57645
  21130208.420   111039997.540 8  21130207.300    86524674.98547
  21040121.820   110566639.453 8  21040120.680    86155846.58647
  22715690.920   119371816.359 7  22715693.700    93017039.24646
  23757869.780   124848449.169 6  23757868.760    97284505.31146
  24567073.400   129100847.302 6  24567076.520   100598072.07145
  24548867.500   129005166.906 6  24548867.220   100523502.52845
  22026694.460   115751148.462 7  22026694.340    90195732.95147
 14  1 10  3 10 30.0000000  0  8G06G31G21G25G16G27G18G29
  23456600.200   123265267.660 6  23456600.880    96050858.47245
  21138544.440   111083803.616 8  21138543.260    86558809.57947
  21037043.280   110550461.582 8  21037042.060    86143240.45747
  22730130.280   119447695.182 7  22730132.860    93076165.57446
  23741110.880   124760380.048 7  23741109.880    97215880.03946
  24551820.260   129020690.896 6  24551823.160   100535612.57045
  24534546.940   128929911.860 6  24534546.640   100464862.24545
  22039772.620   115819874.859 7  22039772.580    90249285.97647
 14  1 10  3 11  0.0000000  0  8G06G31G21G25G16G27G18G29
  23442451.260   123190914.289 6  23442452.000    95992920.80546
  21146978.280   111128123.579 8  21146977.020    86593344.61347
  21034053.700   110534751.123 8  21034052.480    86130998.54247
  22744617.800   119523827.908 7  22744620.440    93135489.75946
  23724358.320   124672344.296 7  23724357.300    97147280.77646
  24536588.520   128940647.372 6  24536591.260   100473241.00446
  24520220.000   128854622.694 6  24520219.620   100406195.32144
  22052869.960   115888701.399 7  22052869.780    90302917.04147
 14  1 10  3 11 30.0000000  0  8G06G31G21G25G16G27G18G29
  23428332.200   123116718.078 6  23428333.000    95935105.59645
  21155509.660   111172956.486 8  21155508.460    86628279.34547
  21031152.940   110519507.442 8  21031151.700    86119120.36247
  22759153.520   119600214.110 7  22759156.300    93195011.45946
  23707612.360   124584343.249 7  23707611.340    97078708.56446
  24521378.080   128860716.898 6  24521381.000   100410957.53646
  24505886.920   128779301.976 6  24505886.680   100347503.90444
  22065986.220   115957627.792 7  22065985.900    90356625.89947
 14  1 10  3 12  0.0000000  0  8G06G31G21G25G16G27G18G29
  23414242.620   123042677.217 7  23414243.580    95877411.42845
  21164137.900   111218298.582 8  21164136.840    86663610.84747
  21028340.720   110504729.110 8  21028339.460    86107604.77947
  22773737.000   119676851.114 7  22773739.880    93254728.60146
  23690872.680   124496375.689 7  23690871.740    97010162.41446
  24506188.860   128780897.621 6  24506191.860   100348760.74546
  24491548.480   128703951.457 6  24491548.400   100288791.38644
  22079120.680   116026650.205 7  22079120.420    90410409.59547
 14  1 10  3 12 30.0000000  0  8G06G31G21G25G16G27G18G29
  23400182.440   122968790.396 6  23400183.460    95819837.28046
  21172862.440   111264146.412 8  21172861.440    86699336.41847
  21025616.740   110490414.315 8  21025615.400    86096450.39747
  22788367.860   119753736.979 7  22788370.740    93314639.65446
  23674139.320   124408442.009 6  23674138.500    96941642.63946
  24491020.520   128701188.218 6  24491023.720   100286649.54946
  24477204.060   128628569.582 6  24477203.600   100230052.25646
  22092273.160   116095766.985 7  22092273.000    90464266.81647
 14  1 10  3 13  0.0000000  0  8G06G31G21G25G16G27G18G29
  23386152.580   122895062.506 6  23386153.200    95762387.02745
  21181683.900   111310503.437 8  21181682.880    86735458.77347
  21022981.880   110476567.848 8  21022980.480    86085660.94648
  22803047.040   119830876.096 7  22803049.800    93374748.03746
  23657413.540   124320548.220 6  23657412.920    96873154.00246
  24475873.980   128621593.764 6  24475877.440   100224627.93346
  24462855.120   128553165.193 6  24462854.780   100171295.60645
  22105444.240   116164981.696 7  22105444.060    90518200.35547
 14  1 10  3 13 30.0000000  0  8G06G31G21G25G16G27G18G29
  23372152.300   122821490.383 6  23372152.640    95705058.15446
  21190601.320   111357364.695 8  21190600.200    86771974.03447
  21020435.560   110463186.689 8  21020434.120    86075234.07748
  22817773.720   119908264.507 7  22817776.320    93435050.68946
  23640695.060   124232692.188 7  23640694.400    96804694.74046
  24460748.680   128542111.053 6  24460752.320   100162693.34746
  24448501.700   128477737.391 6  24448501.040   100112520.73645
  22118633.140   116234289.783 7  22118632.920    90572206.64947
 14  1 10  3 14  0.0000000  0  8G06G31G21G25G16G27G18G29
  23358181.820   122748074.989 7  23358182.100    95647851.35346
  21199614.540   111404729.473 8  21199613.400    86808881.65047
  21017977.840   110450271.291 8  21017976.420    86065170.12848
  22832547.940   119985902.588 7  22832550.400    93495547.88046
  23623984.000   124144875.639 7  23623983.360    96736266.31246
  24445644.800   128462740.986 6  24445648.660   100100846.58146
  24434144.340   128402289.468 6  24434143.640   100053730.15345
  22131839.800   116303691.297 7  22131839.600    90626285.72847
 14  1 10  3 14 30.0000000  0  8G06G31G21G25G16G27G18G29
  23344240.980   122674814.994 6  23344241.280    95590765.69046
  21208722.920   111452594.485 8  21208721.820    86846179.06147
  21015608.460   110437820.183 8  21015607.060    86055467.97348
  22847369.220   120063788.249 7  22847371.620    93556237.99746
  23607280.560   124057099.074 6  23607279.820    96667868.97646
  24430562.320   128383482.345 6  24430566.240   100039086.68446
  24419783.400   128326822.715 6  24419782.660    99994924.91846
  22145063.900   116373183.616 7  22145063.680    90680435.56847
 14  1 10  3 15  0.0000000  0  8G06G31G21G25G16G27G18G29
  23330330.120   122601712.631 7  23330330.420    95533802.84946
  21217926.660   111500960.468 8  21217925.560    86883866.83347
  21013327.880   110425835.660 8  21013326.460    86046129.38748
  22862237.940   120141923.198 7  22862240.280    93617122.36346
  23590585.480   123969365.884 7  23590584.800    96599505.46446
  24415501.560   128304337.461 6  24415505.340    99977415.37446
  24405419.780   128251341.992 6  24405419.120    99936108.76845
  22158305.480   116442767.932 7  22158305.240    90734657.11347
 14  1 10  3 15 30.0000000  0  8G06G31G21G25G16G27G18G29
  23316449.200   122528767.397 7  23316449.340    95476962.45846
  21227225.380   111549825.296 8  21227224.260    86921943.31447
  21011135.880   110414316.919 8  21011134.460    86037153.75348
  22877153.820   120220306.393 7  22877156.120    93678200.16346
  23573898.880   123881676.760 7  23573898.080    96531176.28646
  24400462.260   128225306.003 6  24400465.980    99915832.43746
  24391053.780   128175849.259 6  24391053.240    99877283.25345
  22171564.260   116512443.225 7  22171564.100    90788949.52547
 14  1 10  3 16  0.0000000  0  8G06G31G21G25G16G27G18G29
  23302597.880   122455978.635 6  23302598.000    95420243.97646
  21236618.520   111599186.235 8  21236617.340    86960406.37447
  21009032.340   110403262.928 8  21009030.980    86028540.25848
  22892116.460   120298936.267 7  22892118.880    93739470.17846
  23557220.640   123794032.027 7  23557219.840    96462881.69845
  24385444.360   128146387.126 6  24385448.060    99854337.23945
  24376686.060   128100346.310 6  24376685.740    99818449.74944
  22184840.040   116582207.352 7  22184839.940    90843311.15847
 14  1 10  3 16 30.0000000  0  8G06G31G21G25G16G27G18G29
  23288776.760   122383348.322 7  23288776.900    95363648.94646
  21246106.080   111649043.198 8  21246104.820    86999255.94947
  21007017.560   110392675.314 8  21007016.220    86020290.16948
  22907126.180   120377814.131 7  22907128.820    93800933.43946
  23540551.560   123706435.071 7  23540550.580    96394624.34245
  24370448.180   128067582.874 6  24370452.040    99792931.29646
  24362317.060   128024837.244 6  24362317.100    99759611.55144
  22198132.920   116652061.443 7  22198132.960    90897742.89047
 14  1 10  3 17  0.0000000  0  8G06G31G21G25G16G27G18G29
  23274984.920   122310872.262 7  23274985.120    95307174.10546
  21255686.820   111699390.376 8  21255685.560    87038487.50647
  21005090.660   110382549.536 8  21005089.360    86012399.96048
  22922182.320   120456935.217 7  22922184.940    93862586.22346
  23523891.080   123618883.127 7  23523889.980    96326402.04445
  24355473.200   127988889.130 6  24355477.080    99731611.52646
  24347946.800   127949320.873 6  24347946.820    99700767.59344
  22211441.820   116722000.124 7  22211441.920    90952240.55147
 14  1 10  3 17 30.0000000  0  8G06G31G21G25G16G27G18G29
  23261223.560   122238555.912 7  23261223.800    95250823.74946
  21265361.500   111750231.425 8  21265360.340    87078103.91047
  21003252.760   110372891.298 8  21003251.500    86004874.06348
  22937285.700   120536304.143 7  22937288.180    93924432.11746
  23507240.280   123531382.646 7  23507239.140    96258219.83446
  24340520.160   127910311.418 6  24340524.080    99670382.15445
  24333576.420   127873804.616 6  24333576.500    99641923.84245
  22224767.640   116792027.702 7  22224767.660    91006807.49147
 14  1 10  3 18  0.0000000  0  8G06G31G21G25G16G27G18G29
  23247491.460   122166393.370 7  23247491.880    95194593.19146
  21275128.680   111801558.502 8  21275127.660    87118099.03347
  21001502.600   110363694.080 8  21001501.340    85997707.40548
  22952435.140   120615914.342 7  22952437.480    93986466.02346
  23490598.540   123443929.039 7  23490597.320    96190074.17346
  24325588.160   127831843.764 6  24325592.240    99609238.58145
  24319205.700   127798285.418 6  24319205.660    99583077.68344
  22238109.020   116862137.203 7  22238108.980    91061438.24947
 14  1 10  3 18 30.0000000  0  8G06G31G21G25G16G27G18G29
  23233789.680   122094390.175 7  23233790.360    95138486.84246
  21284989.100   111853375.288 8  21284988.100    87158475.74347
  20999841.160   110354963.109 8  20999839.900    85990904.06048
  22967631.480   120695770.751 7  22967633.720    94048691.78246
  23473967.080   123356529.260 7  23473965.740    96121970.44046
  24310678.180   127753491.842 6  24310682.380    99548185.13246
  24304835.900   127722771.223 6  24304835.740    99524235.50345
  22251466.940   116932333.810 7  22251466.820    91116136.88347
 14  1 10  3 19  0.0000000  0  8G06G31G21G25G16G27G18G29
  23220117.700   122022544.266 7  23220118.600    95082503.02446
  21294941.960   111905677.532 8  21294940.860    87199230.72847
  20998267.960   110346695.871 7  20998266.680    85984462.06548
  22982874.080   120775870.501 7  22982876.320    94111107.15946
  23457345.520   123269182.375 7  23457344.380    96053907.96146
  24295790.080   127675253.566 6  24295794.440    99487220.24146
  24290467.180   127647262.357 6  24290466.700    99465397.42944
  22264840.740   117002614.212 7  22264840.540    91170900.82147
 14  1 10  3 19 30.0000000  0  8G06G31G21G25G16G27G18G29
  23206475.560   121950854.888 6  23206476.620    95026641.16946
  21304986.740   111958462.997 8  21304985.580    87240362.25547
  20996782.800   110338891.368 8  20996781.540    85978380.63848
  22998162.680   120856212.265 7  22998164.900    94173711.11146
  23440734.180   123181889.249 7  23440733.220    95985887.33646
  24280923.580   127597128.391 6  24280927.720    99426343.51846
  24276099.860   127571761.037 6  24276099.120    99406565.23844
  22278230.000   117072976.334 7  22278229.760    91225728.42747
 14  1 10  3 20  0.0000000  0  8G06G31G21G25G16G27G18G29
  23192863.380   121879323.763 6  23192864.780    94970902.63746
  21315123.380   112011731.399 8  21315122.180    87281870.09747
  20995385.960   110331551.046 7  20995384.720    85972660.90848
  23013497.360   120936796.989 7  23013499.700    94236504.40046
  23424133.580   123094652.794 7  23424132.740    95917910.91046
  24266078.840   127519117.962 6  24266082.900    99365556.17146
  24261734.720   127496271.222 6  24261733.720    99347742.05544
  22291635.040   117143421.062 7  22291634.760    91280620.40047
 14  1 10  3 20 30.0000000  0  8G06G31G21G25G16G27G18G29
  23179281.440   121807950.478 6  23179282.980    94915287.10646
  21325351.380   112065480.118 8  21325350.240    87323752.21347
  20994077.360   110324674.288 8  20994076.080    85967302.40648
  23028878.000   121017623.591 7  23028880.540    94299486.15646
  23407543.900   123007474.115 7  23407543.160    95849979.47246
  24251255.860   127441222.014 6  24251259.800    99304858.05045
  24247372.120   127420795.218 6  24247370.880    99288929.57044
  22305055.740   117213947.429 7  22305055.540    91335575.99347
 14  1 10  3 21  0.0000000  0  8G06G31G21G25G16G27G18G29
  23165729.300   121736733.636 6  23165731.000    94859793.47746
  21335670.140   112119705.743 8  21335669.040    87366005.93947
  20992856.560   110318259.061 8  20992855.280    85962303.53248
  23044304.300   121098689.771 7  23044306.940    94362654.60346
  23390965.160   122920353.010 7  23390964.600    95782092.90546
  24236454.460   127363438.929 6  24236458.040    99244247.86446
  24233012.200   127345333.829 6  24233011.020    99230128.49945
  22318491.520   117284552.638 7  22318491.340    91390593.01447
 14  1 10  3 21 30.0000000  0  8G06G31G21G25G16G27G18G29
  23152207.280   121665674.760 6  23152208.860    94804422.95946
  21346079.680   112174408.224 8  21346078.580    87408631.23947
  20991723.840   110312306.693 8  20991722.540    85957665.32748
  23059776.440   121179996.512 7  23059779.040    94426010.49246
  23374398.020   122833292.223 7  23374397.440    95714253.34446
  24221674.920   127285770.514 6  24221678.120    99183727.04546
  24218655.840   127269891.404 6  24218654.900    99171342.18945
  22331942.480   117355237.424 7  22331942.160    91445672.05447
 14  1 10  3 22  0.0000000  0  8G06G31G21G25G16G27G18G29
  23138715.340   121594773.842 7  23138716.840    94749175.50346
  21356579.580   112229585.401 8  21356578.460    87451626.43347
  20990679.100   110306816.545 8  20990677.760    85953387.30048
  23075294.300   121261542.881 7  23075296.820    94489553.09646
  23357842.500   122746293.098 6  23357841.980    95646461.83145
  24206917.200   127208216.558 6  24206919.920    99123295.41946
  24204303.600   127194470.263 6  24204302.760    99112572.44244
  22345408.380   117426000.893 7  22345407.820    91500812.38747
 14  1 10  3 22 30.0000000  0  8G06G31G21G25G16G27G18G29
  23125253.380   121524030.308 7  23125254.680    94694050.70046
  21367169.240   112285234.481 8  21367168.140    87494989.35347
  20989722.200   110301787.789 7  20989720.800    85949468.79648
  23090857.580   121343327.765 7  23090860.060    94553281.56746
  23341299.000   122659356.847 7  23341298.460    95578719.29845
  24192180.940   127130776.821 6  24192183.480    99062952.76846
  24189955.860   127119072.591 6  24189955.280    99053821.02945
  22358889.060   117496841.785 7  22358888.300    91556013.04947
 14  1 10  3 23  0.0000000  0  8G06G31G21G25G16G27G18G29
  23111821.460   121453444.669 7  23111822.680    94639048.93646
  21377848.380   112341353.793 8  21377847.300    87538718.67747
  20988853.060   110297220.406 8  20988851.660    85945909.80347
  23106466.080   121425350.655 7  23106468.620    94617195.49546
  23324767.880   122572485.010 7  23324767.260    95511026.95945
  24177466.340   127053451.544 6  24177468.860    99002699.32646
  24175613.200   127043701.551 6  24175612.460    98995090.31845
  22372384.400   117567759.193 7  22372383.480    91611273.35947
 14  1 10  3 23 30.0000000  0  8G06G31G21G25G16G27G18G29
  23098419.740   121383017.288 7  23098420.880    94584170.47646
  21388616.780   112397941.991 8  21388615.720    87582813.37247
  20988071.780   110293114.565 8  20988070.340    85942710.45548
  23122119.760   121507611.320 7  23122122.320    94681294.72046
  23308249.280   122485679.204 7  23308248.580    95443386.07446
  24162773.820   126976241.449 6  24162776.280    98942535.62646
  24161275.980   126968359.684 6  24161275.380    98936382.43345
  22385894.180   117638752.998 7  22385893.300    91666593.17247
 14  1 10  3 24  0.0000000  0  8G06G31G21G25G16G27G18G29
  23085048.100   121312748.196 7  23085049.120    94529415.35446
  21399474.000   112454996.855 8  21399472.860    87627271.69747
  20987378.060   110289469.084 8  20987376.620    85939869.82648
  23137818.500   121590109.010 7  23137821.220    94745578.61746
  23291743.740   122398941.386 7  23291742.820    95375798.14546
  24148103.120   126899146.198 6  24148105.520    98882461.41046
  24146944.920   126893049.816 6  24146944.320    98877699.40045
  22399418.060   117709822.059 7  22399417.400    91721971.63847
 14  1 10  3 24 30.0000000  0  8G06G31G21G25G16G27G18G29
  23071706.260   121242636.517 7  23071707.140    94474782.91546
  21410419.480   112512515.648 8  21410418.380    87672091.53247
  20986771.840   110286283.419 8  20986770.400    85937387.49648
  23153561.980   121672842.194 7  23153564.900    94810046.02546
  23275251.240   122312272.062 7  23275250.180    95308263.64346
  24133454.240   126822165.315 6  24133456.360    98822476.35246
  24132620.280   126817773.910 6  24132619.780    98819042.85944
  22412956.020   117780964.435 7  22412955.440    91777407.23747
 14  1 10  3 25  0.0000000  0  8G06G31G21G25G16G27G18G29
  23058394.320   121172682.070 7  23058395.020    94420272.97446
  21421452.760   112570496.055 8  21421451.700    87717271.06447
  20986252.980   110283556.765 8  20986251.500    85935262.84348
  23169350.060   121755809.929 7  23169353.180    94874696.19146
  23258772.000   122225672.388 7  23258770.700    95240783.35646
  24118827.000   126745298.663 6  24118829.100    98762580.26846
  24118302.600   126742534.157 6  24118302.300    98760414.48845
  22426507.960   117852180.024 7  22426507.500    91832899.89447
 14  1 10  3 25 30.0000000  0  8G06G31G21G25G16G27G18G29
  23045112.560   121102886.739 7  23045113.280    94365887.00346
  21432573.760   112628937.507 8  21432572.740    87762809.85147
  20985821.680   110281290.084 8  20985820.140    85933496.60448
  23185183.080   121839012.961 7  23185186.060    94939529.71046
  23242306.360   122139145.268 7  23242305.160    95173359.66046
  24104221.880   126668547.622 6  24104223.920    98702774.27646
  24103992.520   126667334.707 6  24103992.420    98701817.50645
  22440073.940   117923469.136 7  22440073.560    91888449.81147
 14  1 10  3 26  0.0000000  0  8G06G31G21G25G16G27G18G29
  23031860.760   121033248.107 7  23031861.380    94311623.15346
  21443781.740   112687835.810 8  21443780.740    87808704.62547
  20985477.380   110279480.841 8  20985475.840    85932086.81048
  23201060.320   121922448.357 7  23201063.220    95004544.28046
  23225854.420   122052690.050 7  23225853.420    95105991.97046
  24089638.400   126591910.263 7  24089640.280    98643056.86646
  24089690.440   126592176.341 6  24089690.320    98643252.53346
  22453653.380   117994828.497 7  22453652.780    91944054.46347
 14  1 10  3 26 30.0000000  0  8G06G31G21G25G16G27G18G29
  23018638.860   120963767.368 7  23018639.500    94257482.33146
  21455076.500   112747189.964 8  21455075.400    87854954.60547
  20985220.280   110278129.600 8  20985218.680    85931033.90248
  23216981.940   122006116.541 7  23216984.700    95069740.25546
  23209416.760   121966309.834 7  23209416.000    95038682.72446
  24075076.880   126515387.803 7  24075078.560    98583429.00946
  24075397.000   126517062.475 6  24075396.660    98584722.23745
  22467246.180   118066258.831 7  22467245.540    91999714.43447
 14  1 10  3 27  0.0000000  0  8G06G31G21G25G16G27G18G29
  23005447.420   120894446.981 7  23005448.180    94203466.46046
  21466458.060   112807000.237 8  21466456.900    87901560.01247
  20985050.700   110277238.402 8  20985049.120    85930339.47048
  23232948.100   122090019.139 7  23232950.820    95135118.88346
  23192994.100   121880007.905 7  23192993.380    94971434.48446
  24060537.420   126438982.653 6  24060539.220    98523892.51146
  24061112.980   126441998.216 6  24061112.120    98526230.60144
  22480852.620   118137761.455 7  22480852.120    92055430.74947
 14  1 10  3 27 30.0000000  0  8G06G31G21G25G16G27G18G29
  22992286.060   120825283.368 7  22992286.880    94149572.77246
  21477925.300   112867261.019 8  21477924.160    87948516.46047
  20984967.840   110276803.009 8  20984966.300    85930000.20948
  23248958.180   122174151.716 7  23248960.880    95200676.73746
  23176586.040   121793782.351 7  23176585.260    94904245.75246
  24046019.540   126362691.307 6  24046021.400    98464444.71346
  24046838.080   126366982.763 6  24046837.140    98467777.00445
  22494471.800   118209332.103 7  22494471.700    92111200.08147
 14  1 10  3 28  0.0000000  0  8G06G31G21G25G16G27G18G29
  22979155.040   120756279.224 7  22979155.980    94095803.30946
  21489478.280   112927972.580 8  21489477.200    87995824.17047
  20984972.040   110276825.277 8  20984970.540    85930017.56448
  23265012.240   122258516.150 7  23265015.020    95266415.25946
  23160193.180   121707637.411 7  23160192.300    94837119.82146
  24031523.800   126286516.407 6  24031525.700    98405087.66245
  24032573.340   126292021.277 6  24032572.300    98409365.43145
  22508104.260   118280972.683 7  22508104.680    92167023.89047
 14  1 10  3 28 30.0000000  0  8G06G31G21G25G16G27G18G29
  22966054.080   120687432.852 7  22966055.140    94042156.82246
  21501116.300   112989131.020 8  21501115.240    88043480.08447
  20985062.920   110277303.046 8  20985061.480    85930389.85448
  23281109.940   122343110.042 7  23281112.840    95332332.55346
  23143815.560   121621572.886 7  23143814.560    94770056.57146
  24017049.880   126210456.332 6  24017051.680    98345820.09246
  24018319.020   126217114.593 6  24018317.840    98350996.59345
  22521749.720   118352680.364 7  22521750.300    92222899.96347
 14  1 10  3 29  0.0000000  0  8G06G31G21G25G16G27G18G29
  22952983.360   120618745.768 7  22952984.560    93988634.43646
  21512839.320   113050735.800 8  21512838.220    88091483.80347
  20985240.640   110278237.155 8  20985239.220    85931117.73348
  23297251.420   122427933.934 7  23297254.240    95398429.08446
  23127453.680   121535591.911 7  23127452.760    94703058.43646
  24002598.080   126134512.554 6  24002600.040    98286643.13046
  24004075.940   126142266.910 6  24004074.820    98292673.72345
  22535408.200   118424456.029 7  22535408.900    92278829.03047
 14  1 10  3 29 30.0000000  0  8G06G31G21G25G16G27G18G29
  22939942.480   120550215.152 7  22939943.580    93935233.98146
  21524646.340   113112781.907 8  21524645.220    88139831.41547
  20985504.600   110279624.056 8  20985503.100    85932198.44447
  23313435.940   122512984.082 7  23313438.620    95464701.92046
  23111107.620   121449693.404 7  23111106.760    94636124.51346
  23988167.960   126058682.219 6  23988169.940    98227554.54546
  23989844.180   126067478.089 6  23989842.940    98234396.70545
  22549078.980   118496296.292 7  22549079.700    92334808.41947
 14  1 10  3 30  0.0000000  0  8G06G31G21G25G16G27G18G29
  22926931.820   120481844.119 7  22926932.880    93881957.86546
  21536537.440   113175270.085 8  21536536.340    88188523.49447
  20985855.180   110281466.154 8  20985853.620    85933633.84448
  23329663.820   122598262.945 7  23329666.500    95531152.98646
  23094778.140   121363881.607 7  23094777.300    94569258.19446
  23973760.060   125982968.595 6  23973761.960    98168556.91445
  23975624.680   125992753.952 6  23975623.540    98176170.10945
  22562762.620   118568203.696 7  22562763.240    92390840.12747
 14  1 10  3 30 30.0000000  0  8G06G31G21G25G16G27G18G29
  22913950.960   120413629.502 7  22913952.040    93828803.64346
  21548511.580   113238194.889 8  21548510.580    88237555.80647
  20986291.740   110283760.106 8  20986290.100    85935421.34148
  23345934.500   122683766.526 7  23345937.200    95597779.14546
  23078465.140   121278155.330 7  23078464.140    94502458.48246
  23959374.000   125907368.525 6  23959375.660    98109647.80946
  23961417.260   125918093.729 6  23961416.440    98117993.28145
  22576458.240   118640173.848 7  22576458.720    92446920.73047
 14  1 10  3 31  0.0000000  0  8G06G31G21G25G16G27G18G29
  22901000.180   120345572.878 7  22901001.220    93775772.50746
  21560568.700   113301555.795 8  21560567.760    88286927.93747
  20986814.340   110286506.450 7  20986812.700    85937561.36048
  23362248.240   122769495.464 7  23362250.860    95664580.90746
  23062168.980   121192517.207 7  23062167.720    94435727.47546
  23945009.880   125831883.635 7  23945011.440    98050828.41846
  23947222.780   125843501.675 6  23947222.420    98059869.61945
  22590166.020   118712207.481 7  22590166.360    92503050.80947
 14  1 10  3 31 30.0000000  0  8G06G31G21G25G16G27G18G29
  22888079.600   120277674.958 7  22888080.720    93722865.08046
  21572708.600   113365351.334 8  21572707.600    88336638.74247
  20987423.140   110289706.042 8  20987421.580    85940054.55548
  23378604.960   122855449.854 7  23378607.400    95731558.34546
  23045890.100   121106970.140 7  23045888.620    94369067.41746
  23930667.840   125756514.747 7  23930669.340    97992099.42946
  23933041.860   125768981.170 6  23933041.660    98001801.69945
  22603886.040   118784305.282 7  22603886.160    92559230.88847
 14  1 10  3 32  0.0000000  0  8G06G31G21G25G16G27G18G29
  22875189.500   120209937.338 7  22875190.680    93670082.54046
  21584931.060   113429580.685 8  21584930.000    88386687.58147
  20988118.140   110293358.767 7  20988116.680    85942900.83648
  23395004.580   122941630.110 6  23395006.800    95798711.78846
  23029628.880   121021516.784 7  23029627.280    94302480.38446
  23916348.000   125681263.267 7  23916349.480    97933461.91246
  23918875.520   125694536.622 6  23918875.140    97943792.96545
  22617618.160   118856467.395 7  22617618.100    92615461.05446
 14  1 10  3 32 30.0000000  0  8G06G31G21G25G16G27G18G29
  22862329.720   120142358.389 7  22862330.820    93617423.65546
  21597235.340   113494239.902 8  21597234.200    88437071.37247
  20988899.080   110297462.766 7  20988897.660    85946098.76148
  23411446.700   123028033.905 7  23411448.940    95866039.40646
  23013385.560   120936157.251 7  23013383.880    94235966.46246
  23902050.140   125606127.760 6  23902051.600    97874914.76846
  23904723.700   125620169.121 6  23904723.420    97885844.26845
  22631362.020   118928691.959 7  22631361.880    92671739.88047
 14  1 10  3 33  0.0000000  0  8G06G31G21G25G16G27G18G29
  22849500.140   120074938.110 7  22849501.280    93564888.37746
  21609620.980   113559326.641 8  21609619.860    88487788.30547
  20989765.700   110302017.026 7  20989764.340    85949647.54048
  23427931.000   123114660.262 6  23427933.440    95933540.47746
  22997160.300   120850893.126 7  22997158.580    94169526.87646
  23887774.340   125531108.098 7  23887775.800    97816457.90946
  23890587.100   125545881.054 6  23890586.820    97827957.48245
  22645117.500   119000977.925 7  22645117.280    92728066.58046
 14  1 10  3 33 30.0000000  0  8G06G31G21G25G16G27G18G29
  22836700.520   120007675.445 7  22836701.660    93512475.91946
  21622087.320   113624837.529 8  21622086.240    88538835.74447
  20990717.780   110307020.380 8  20990716.420    85953546.26548
  23444457.340   123201507.408 7  23444460.060    96001213.56646
  22980953.280   120765725.158 7  22980951.640    94103162.23246
  23873520.460   125456203.419 6  23873521.860    97758090.63346
  23876466.020   125471674.010 6  23876465.680    97770133.80745
  22658884.320   119073323.520 7  22658883.960    92784439.76346
 14  1 10  3 34  0.0000000  0  8G06G31G21G25G16G27G18G29
  22823931.280   119940572.584 7  22823932.320    93460187.99946
  21634634.300   113690772.209 8  21634633.200    88590213.41147
  20991755.460   110312473.575 7  20991754.100    85957795.51248
  23461025.940   123288576.401 6  23461028.840    96069059.53346
  22964765.120   120680657.030 7  22964763.600    94036875.39346
  23859288.740   125381415.720 6  23859290.080    97699814.51046
  23862361.340   125397552.867 6  23862360.980    97712377.05845
  22672662.760   119145730.111 7  22672662.240    92840860.45246
 14  1 10  3 34 30.0000000  0  8G06G31G21G25G16G27G18G29
  22811192.040   119873627.071 7  22811192.980    93408022.69146
  21647261.000   113757125.958 8  21647259.920    88641917.63147
  20992878.140   110318373.414 8  20992876.760    85962392.79148
  23477636.100   123375863.886 6  23477639.120    96137075.74846
  22948595.800   120595687.702 7  22948594.500    93970665.53746
  23845078.820   125306742.486 7  23845080.220    97641627.60346
  23848273.000   125323517.718 6  23848272.780    97654687.31945
  22686452.300   119218195.061 7  22686451.780    92897326.59646
 14  1 10  3 35  0.0000000  0  8G06G31G21G25G16G27G18G29
  22798482.840   119806839.711 7  22798483.820    93355980.61746
  21659967.220   113823897.539 8  21659966.100    88693947.42247
  20994085.900   110324720.301 7  20994084.500    85967338.42648
  23494287.980   123463370.011 7  23494290.880    96205262.33346
  22932445.900   120510819.962 7  22932444.900    93904534.84146
  23830891.060   125232184.907 7  23830892.440    97583530.81146
  23834201.720   125249572.285 6  23834201.520    97597067.50145
  22700253.000   119290718.226 7  22700252.560    92953838.09646
 14  1 10  3 35 30.0000000  0  8G06G31G21G25G16G27G18G29
  22785803.760   119740210.693 7  22785804.740    93304061.92346
  21672752.480   113891084.584 8  21672751.280    88746300.95847
  20995378.560   110331513.359 7  20995377.180    85972631.72248
  23510981.360   123551094.021 6  23510984.060    96273618.68046
  22916315.760   120426055.473 7  22916314.920    93838484.58146
  23816725.200   125157743.097 7  23816726.760    97525524.22646
  23820148.080   125175719.698 6  23820147.620    97539520.05345
  22714064.800   119363299.318 7  22714064.260    93010394.75246
 14  1 10  3 36  0.0000000  0  8G06G31G21G25G16G27G18G29
  22773154.940   119673740.131 7  22773155.620    93252266.70846
  21685616.340   113958684.577 8  21685615.140    88798976.26947
  20996756.020   110338752.002 7  20996754.680    85978272.22948
  23527715.940   123639035.022 6  23527718.560    96342144.14946
  22900205.600   120341396.131 7  22900204.940    93772516.28046
  23802581.440   125083417.112 6  23802583.240    97467607.92846
  23806112.500   125101961.991 7  23806111.820    97482046.49945
  22727887.380   119435937.348 7  22727886.880    93066995.79146
 14  1 10  3 36 30.0000000  0  8G06G31G21G25G16G27G18G29
  22760536.180   119607428.717 7  22760536.800    93200595.51146
  21698558.580   114026696.240 8  21698557.420    88851972.36947
  20998218.280   110346436.191 8  20998216.920    85984259.91348
  23544491.820   123727192.871 6  23544494.380    96410838.56346
  22884115.960   120256844.371 7  22884115.340    93706631.79346
  23788459.920   125009207.719 7  23788461.540    97409782.45746
  23792095.860   125028302.926 7  23792094.900    97424649.80445
  22741720.860   119508632.797 7  22741720.380    93123641.57546
 14  1 10  3 37  0.0000000  0  8G06G31G21G25G16G27G18G29
  22747947.640   119541275.842 7  22747948.280    93149047.83146
  21711578.460   114095116.258 8  21711577.500    88905286.66747
  20999765.060   110354564.244 8  20999763.680    85990593.46948
  23561308.620   123815565.833 6  23561311.300    96479700.59946
  22868047.060   120172400.901 7  22868046.320    93640831.69146
  23774360.260   124935114.052 6  23774361.960    97352047.15946
  23778098.320   124954744.384 6  23778097.160    97367331.47545
  22755564.920   119581384.141 7  22755564.500    93180330.88146
 14  1 10  3 37 30.0000000  0  8G06G31G21G25G16G27G18G29
  22735389.680   119475283.188 7  22735390.320    93097625.00046
  21724675.960   114163944.074 8  21724675.060    88958918.72647
  21001396.500   110363137.366 8  21001395.060    85997273.83048
  23578166.620   123904154.735 6  23578169.280    96548730.90846
  22851999.380   120088069.246 7  22851998.580    93575118.76446
  23760282.840   124861138.090 6  23760284.860    97294403.56946
  23764120.580   124881290.923 6  23764119.360    97310095.01745
  22769419.860   119654192.368 7  22769419.500    93237064.52446
 14  1 10  3 38  0.0000000  0  8G06G31G21G25G16G27G18G29
  22722861.540   119409447.321 7  22722862.160    93046324.34846
  21737849.940   114233173.754 8  21737849.000    89012863.92047
  21003111.820   110372151.371 7  21003110.400    86004297.73448
  23595064.940   123992955.304 6  23595067.480    96617926.15746
  22835972.640   120003847.812 7  22835971.760    93509491.68946
  23746227.240   124787276.291 6  23746229.480    97236848.95946
  23750162.520   124807941.503 6  23750161.220    97252939.58446
  22783285.020   119727053.609 7  22783284.660    93293839.47146
 14  1 10  3 38 30.0000000  0  8G06G31G21G25G16G27G18G29
  22710363.760   119343770.744 7  22710364.360    92995147.81646
  21751100.400   114302805.388 8  21751099.380    89067122.33747
  21004911.300   110381607.515 8  21004909.900    86011666.16448
  23612003.840   124081969.186 6  23612006.320    96687287.60746
  22819967.620   119919740.890 7  22819966.700    93443953.84846
  23732193.920   124713531.454 6  23732196.360    97179385.48846
  23736225.320   124734701.695 7  23736223.940    97195869.62345
  22797160.800   119799969.606 7  22797160.200    93350657.09546
 14  1 10  3 39  0.0000000  0  8G06G31G21G25G16G27G18G29
  22697896.240   119278253.327 7  22697896.780    92944095.30546
  21764426.680   114372836.004 8  21764425.720    89121691.63747
  21006794.640   110391504.471 8  21006793.240    86019378.07648
  23628982.940   124171195.001 6  23628985.540    96756814.20446
  22803984.620   119835749.808 7  22803983.680    93378506.26446
  23718182.760   124639903.097 6  23718185.180    97122012.74646
  23722309.340   124661573.904 6  23722307.980    97138886.93045
  22811046.700   119872939.689 7  22811046.060    93407516.86346
 14  1 10  3 39 30.0000000  0  8G06G31G21G25G16G27G18G29
  22685459.020   119212895.068 7  22685459.440    92893166.79446
  21777828.440   114443263.027 8  21777827.440    89176569.82947
  21008761.720   110401841.399 8  21008760.300    86027432.83548
  23646002.240   124260631.813 6  23646004.820    96826505.22446
  22788023.960   119751876.123 7  22788023.080    93313150.16046
  23704193.800   124566391.154 6  23704196.300    97064730.76746
  23708415.100   124588560.559 6  23708414.100    97081993.38845
  22824942.500   119945962.705 7  22824941.980    93464417.87146
 14  1 10  3 40  0.0000000  0  8G06G31G21G25G16G27G18G29
  22673051.940   119147694.850 7  22673052.180    92842361.45646
  21791305.180   114514083.595 8  21791304.120    89231754.67947
  21010812.260   110412617.125 7  21010810.820    86035829.50948
  23663061.200   124350277.681 6  23663063.880    96896359.15046
  22772085.820   119668120.701 7  22772084.940    93247886.21746
  23690226.820   124492994.828 6  23690229.540    97007538.83646
  23694543.000   124515663.220 6  23694542.460    97025190.28345
  22838848.180   120019037.844 7  22838847.800    93521359.48546
 14  1 10  3 40 30.0000000  0  8G06G31G21G25G16G27G18G29
  22660675.140   119082654.227 7  22660675.280    92791680.45146
  21804856.640   114585296.449 8  21804855.540    89287245.21147
  21012946.360   110423831.967 8  21012944.840    86044568.35347
  23680159.960   124440133.189 6  23680162.840    96966376.41846
  22756170.820   119584486.748 7  22756169.940    93182716.91046
  23676282.180   124419715.592 6  23676284.900    96950438.18846
  23680694.020   124442886.459 6  23680693.540    96968481.08646
  22852763.920   120092165.477 7  22852763.680    93578342.03646
 14  1 10  3 41  0.0000000  0  8G06G31G21G25G16G27G18G29
  22648328.040   119017770.289 7  22648328.360    92741121.54846
  21818481.640   114656895.874 8  21818480.540    89343036.96447
  21015163.160   110435481.682 7  21015161.660    86053646.06748
  23697297.920   124530194.375 6  23697300.900    97036553.99346
  22740278.700   119500972.973 7  22740277.800    93117641.25146
  23662359.340   124346550.584 6  23662361.800    96893426.51846
  23666867.980   124370229.803 6  23666867.440    96911865.51245
  22866689.080   120165342.498 7  22866689.020    93635363.06046
 14  1 10  3 41 30.0000000  0  8G06G31G21G25G16G27G18G29
  22636011.000   118953044.390 7  22636011.400    92690685.78746
  21832180.020   114728881.192 8  21832178.900    89399129.41747
  21017462.840   110447566.837 8  21017461.380    86063063.06948
  23714475.160   124620461.767 6  23714478.220    97106892.21646
  22724410.200   119417583.172 7  22724409.220    93052662.19446
  23648458.640   124273501.169 6  23648460.720    96836504.93946
  23653065.680   124297697.428 6  23653065.100    96855346.78045
  22880623.760   120238569.557 7  22880623.960    93692423.06946
 14  1 10  3 42  0.0000000  0  8G06G31G21G25G16G27G18G29
  22623724.480   118888478.588 7  22623724.940    92640374.79546
  21845951.660   114801251.819 8  21845950.500    89455522.10647
  21019845.620   110460088.433 8  21019844.180    86072820.15748
  23731692.020   124710936.199 6  23731695.080    97177391.77946
  22708565.840   119334320.779 7  22708564.880    92987782.42146
  23634580.120   124200569.322 6  23634582.180    96779674.93746
  23639287.840   124225293.865 6  23639287.280    96798928.39945
  22894568.160   120311847.973 7  22894568.620    93749523.06846
 14  1 10  3 42 30.0000000  0  8G06G31G21G25G16G27G18G29
  22611468.000   118824071.208 7  22611468.620    92590187.26146
  21859795.760   114874003.376 8  21859794.580    89512211.62147
  21022310.980   110473043.937 8  21022309.600    86082915.36148
  23748947.740   124801614.968 6  23748950.760    97248050.54445
  22692745.660   119251185.446 7  22692744.740    92923001.65646
  23620723.800   124127753.296 7  23620725.600    96722935.21346
  23625534.660   124153019.938 6  23625533.980    96742611.06745
  22908521.880   120385175.432 7  22908522.560    93806661.31846
 14  1 10  3 43  0.0000000  0  8G06G31G21G25G16G27G18G29
  22599241.740   118759822.448 7  22599242.460    92540123.30646
  21873711.920   114947133.587 8  21873710.760    89569196.19947
  21024858.840   110486432.906 8  21024857.440    86093348.32848
  23766242.280   124892497.622 6  23766245.160    97318868.17446
  22676950.200   119168179.911 7  22676949.260    92858322.02546
  23606889.640   124055053.646 7  23606891.280    96666286.13546
  23611806.800   124080878.882 7  23611806.020    96686397.25745
  22922484.920   120458552.107 7  22922485.720    93863837.91946
 14  1 10  3 43 30.0000000  0  8G06G31G21G25G16G27G18G29
  22587045.940   118695733.438 7  22587046.680    92490183.82346
  21887699.980   115020640.758 8  21887698.680    89626474.50847
  21027489.040   110500254.676 8  21027487.680    86104118.53648
  23783575.500   124983583.675 6  23783578.100    97389844.33946
  22661179.860   119085306.126 7  22661178.860    92793745.04746
  23593077.680   123982470.962 7  23593079.340    96609728.20246
  23598104.940   124008874.328 7  23598104.020    96630289.77245
  22936457.140   120531977.610 7  22936458.140    93921052.57146
 14  1 10  3 44  0.0000000  0  8G06G31G21G25G16G27G18G29
  22574880.340   118631803.023 7  22574881.100    92440367.91746
  21901759.080   115094521.436 8  21901757.800    89684043.85747
  21030201.280   110514507.623 8  21030199.920    86115224.73448
  23800946.980   125074871.358 6  23800949.540    97460977.59146
  22645434.920   119002565.603 7  22645433.720    92729271.90746
  23579287.900   123910004.454 7  23579289.460    96553260.79946
  23584429.300   123937007.903 7  23584428.460    96574289.98545
  22950438.600   120605450.983 7  22950439.640    93978304.51346
 14  1 10  3 44 30.0000000  0  8G06G31G21G25G16G27G18G29
  22562744.880   118568031.048 7  22562745.700    92390675.48746
  21915888.680   115168772.730 7  21915887.480    89741902.00447
  21032995.300   110529190.347 8  21032993.960    86126665.82248
  23818356.560   125166359.363 6  23818359.100    97532266.96045
  22629715.480   118919959.756 7  22629714.200    92664903.72246
  23565520.120   123837653.888 7  23565521.620    96496883.74046
  23570780.380   123865281.903 7  23570779.500    96518399.57045
  22964429.100   120678971.572 7  22964430.040    94035593.23946
 14  1 10  3 45  0.0000000  0  8G06G31G21G25G16G27G18G29
  22550639.720   118504417.684 7  22550640.480    92341106.63046
  21930088.380   115243392.529 8  21930087.260    89800047.29747
  21035870.960   110544302.089 8  21035869.620    86138441.21048
  23835803.980   125258046.962 6  23835806.660    97603711.82446
  22614021.940   118837490.340 7  22614020.720    92600641.85646
  23551774.420   123765419.592 7  23551775.840    96440597.26546
  23557158.860   123793699.557 7  23557157.640    96462621.11345
  22978428.540   120752539.165 7  22978429.500    94092918.60046
 14  1 10  3 45 30.0000000  0  8G06G31G21G25G16G27G18G29
  22538564.840   118440963.604 7  22538565.500    92291661.89846
  21944357.740   115318378.558 8  21944356.620    89858477.96847
  21038828.260   110559842.803 8  21038826.920    86150550.86148
  23853289.340   125349933.832 6  23853292.120    97675312.00146
  22598354.980   118755160.283 7  22598353.720    92536488.57346
  23538050.800   123693302.283 6  23538052.460    96384401.95046
  23543565.300   123722264.050 7  23543563.900    96406957.07545
  22992436.920   120826153.400 7  22992437.780    94150280.31046
 14  1 10  3 46  0.0000000  0  8G06G31G21G25G16G27G18G29
  22526519.960   118377667.388 7  22526520.580    92242340.19246
  21958695.920   115393726.733 8  21958694.780    89917190.82747
  21041866.640   110575809.445 8  21041865.260    86162992.40748
  23870812.260   125442017.377 6  23870815.020    97747065.42345
  22582714.620   118672969.592 7  22582713.240    92472443.88946
  23524349.340   123621300.483 7  23524351.080    96328296.69246
  23529999.760   123650976.740 6  23529998.440    96351408.51246
  23006453.820   120899812.467 7  23006454.520    94207676.96846
 14  1 10  3 46 30.0000000  0  8G06G31G21G25G16G27G18G29
  22514505.620   118314532.004 7  22514506.360    92193143.80546
  21973103.100   115469437.443 8  21973102.020    89976186.17147
  21044986.380   110592203.811 8  21044985.040    86175767.23948
  23888372.920   125534299.093 6  23888375.620    97818973.24745
  22567101.700   118590922.836 7  22567100.160    92408511.34446
  23510670.240   123549416.645 7  23510672.020    96272283.30846
  23516463.140   123579842.470 7  23516462.120    96295979.21945
  23020479.740   120973518.588 7  23020480.160    94265110.25646
 14  1 10  3 47  0.0000000  0  8G06G31G21G25G16G27G18G29
  22502521.040   118251552.417 7  22502521.740    92144068.80646
  21987578.020   115545503.679 8  21987577.000    90035458.55747
  21048186.480   110609020.515 8  21048185.140    86188871.16948
  23905970.320   125626773.696 6  23905973.020    97891031.36145
  22551515.740   118509017.703 7  22551514.080    92344689.15446
  23497012.880   123477646.616 7  23497014.480    96216358.65146
  23502955.480   123508859.837 7  23502954.640    96240668.06245
  23034513.680   121047267.015 7  23034513.960    94322576.52346
 14  1 10  3 47 30.0000000  0  8G06G31G21G25G16G27G18G29
  22490567.060   118188733.344 7  22490567.700    92095118.88046
  22002120.880   115621926.825 8  22002119.880    90095009.06047
  21051467.520   110626262.576 8  21051466.200    86202306.54548
  23923605.060   125719444.237 7  23923607.760    97963242.18245
  22535957.740   118427259.604 7  22535956.080    92280981.53646
  23483377.860   123405994.543 6  23483379.520    96160525.90246
  23489478.040   123438035.727 7  23489477.240    96185480.44245
  23048556.320   121121061.226 7  23048556.460    94380078.47346
 14  1 10  3 48  0.0000000  0  8G06G31G21G25G16G27G18G29
  22478643.380   118126073.148 7  22478643.860    92046292.76946
  22016730.880   115698702.596 8  22016729.820    90154834.32847
  21054829.000   110643927.243 8  21054827.600    86216071.22147
  23941276.600   125812308.010 6  23941279.180    98035603.56446
  22520427.820   118345649.521 7  22520426.360    92217389.27846
  23469765.100   123334458.768 7  23469766.800    96104783.79846
  23476030.860   123367371.226 6  23476030.240    96130417.21045
  23062607.340   121194899.304 7  23062607.240    94437614.59346
 14  1 10  3 48 30.0000000  0  8G06G31G21G25G16G27G18G29
  22466749.780   118063571.437 7  22466750.200    91997590.16046
  22031407.460   115775828.308 8  22031406.440    90214932.28147
  21058270.700   110662013.399 8  21058269.220    86230164.33347
  23958984.680   125905363.944 6  23958987.260    98108114.68545
  22504926.440   118264189.345 7  22504925.200    92153913.82546
  23456174.300   123263039.304 6  23456176.360    96049132.25446
  23462614.540   123296869.084 6  23462614.100    96075480.47645
  23076666.680   121268780.681 7  23076666.420    94495184.45646
 14  1 10  3 49  0.0000000  0  8G06G31G21G25G16G27G18G29
  22454886.300   118001228.232 7  22454886.760    91949011.06446
  22046149.960   115853300.834 8  22046149.100    90275300.47747
  21061792.340   110680519.551 8  21061790.800    86244584.71147
  23976728.980   125998610.437 6  23976731.600    98180774.28446
  22489453.860   118182880.147 7  22489452.720    92090556.02246
  23442605.560   123191735.670 7  23442607.800    95993571.01946
  23449229.660   123226531.325 7  23449229.280    96020671.81746
  23090734.140   121342704.523 7  23090733.920    94552787.41146
 14  1 10  3 49 30.0000000  0  8G06G31G21G25G16G27G18G29
  22443053.140   117939044.134 7  22443053.500    91900555.94846
  22060958.080   115931118.080 7  22060957.280    90335937.28447
  21065393.800   110699445.348 8  21065392.240    86259332.08848
  23994509.340   126092047.366 6  23994512.080    98253582.28746
  22474010.520   118101724.700 7  22474009.420    92027318.01646
  23429059.100   123120548.820 6  23429061.360    95938100.75946
  23435876.820   123156361.420 7  23435876.480    95965993.97645
  23104809.760   121416671.002 7  23104809.520    94610423.57346
 14  1 10  3 50  0.0000000  0  8G06G31G21G25G16G27G18G29
  22431250.160   117877019.365 7  22431250.440    91852224.97446
  22075831.320   116009278.033 7  22075830.560    90396841.13747
  21069074.920   110718789.633 8  21069073.340    86274405.55647
  24012325.680   126185673.603 6  24012328.540    98326537.78846
  22458596.660   118020724.456 7  22458595.560    91964200.94046
  23415534.860   123049478.738 6  23415537.060    95882721.49546
  23422556.540   123086362.492 7  23422556.140    95911449.37045
  23118893.480   121490680.100 7  23118893.020    94668092.94946
 14  1 10  3 50 30.0000000  0  8G06G31G21G25G16G27G18G29
  22419477.400   117815153.598 7  22419477.720    91804017.91046
  22090769.140   116087777.463 7  22090768.320    90458009.52147
  21072835.480   110738551.404 8  21072833.900    86289804.34148
  24030177.780   126279487.913 6  24030180.780    98399639.85745
  22443212.860   117939882.246 7  22443211.740    91901207.01546
  23402032.840   122978525.381 6  23402034.940    95827433.17746
  23409269.140   123016536.605 7  23409268.640    95857039.55346
  23132985.240   121564730.881 7  23132984.380    94725794.83746
 14  1 10  3 51  0.0000000  0  8G06G31G21G25G16G27G18G29
  22407734.820   117753446.452 7  22407735.160    91755934.43646
  22105771.020   116166613.329 7  22105770.120    90519440.05747
  21076675.060   110758728.438 8  21076673.480    86305526.70847
  24048065.360   126373488.621 6  24048068.600    98472887.16146
  22427859.280   117859198.828 7  22427858.220    91838336.83146
  23388552.860   122907688.094 6  23388554.960    95772235.32146
  23396015.160   122946886.186 7  23396014.680    95802766.51846
  23147084.580   121638822.382 7  23147083.440    94783528.42046
 14  1 10  3 51 30.0000000  0  8G06G31G21G25G16G27G18G29
  22396022.640   117691898.609 7  22396022.960    91707975.08846
  22120836.580   116245783.389 7  22120835.580    90581131.00147
  21080593.540   110779320.284 8  21080592.040    86321572.30248
  24065988.420   126467675.155 6  24065991.700    98546279.26545
  22412536.480   117778676.891 7  22412535.500    91775592.47146
  23375095.100   122836967.524 6  23375097.140    95717128.42146
  23382795.140   122877414.318 7  23382794.780    95748632.59646
  23161191.500   121712954.868 7  23161190.240    94841293.96046
 14  1 10  3 52  0.0000000  0  8G06G31G21G25G16G27G18G29
  22384340.880   117630510.728 7  22384341.200    91660140.40646
  22135965.460   116325285.702 7  22135964.340    90643080.84747
  21084590.840   110800326.266 8  21084589.340    86337940.59648
  24083946.860   126562047.189 6  24083950.120    98619815.92946
  22397244.900   117698318.917 7  22397243.860    91712975.87446
  23361659.700   122766364.420 6  23361661.700    95662113.03946
  23369609.600   122808124.366 7  23369609.240    95694640.43245
  23175306.200   121787128.609 7  23175304.860    94899091.62146
 14  1 10  3 52 30.0000000  0  8G06G31G21G25G16G27G18G29
  22372689.060   117569280.513 7  22372689.460    91612428.57946
  22151156.640   116405115.321 8  22151155.440    90705285.73347
  21088666.400   110821743.544 8  21088664.940    86354629.39047
  24101939.960   126656601.284 6  24101943.040    98693494.45745
  22381984.420   117618124.732 7  22381983.320    91650486.91346
  23348246.340   122695876.514 7  23348248.320    95607187.42946
  23356458.680   122739016.687 7  23356458.280    95640790.27046
  23189428.200   121861341.016 7  23189427.000    94956919.42946
 14  1 10  3 53  0.0000000  0  8G06G31G21G25G16G27G18G29
  22361067.460   117508209.121 7  22361067.960    91564840.49346
  22166409.760   116485270.254 7  22166408.520    90767744.13047
  21092820.140   110843571.572 8  21092818.700    86371638.23848
  24119967.740   126751337.432 6  24119970.680    98767314.82245
  22366755.560   117538096.488 7  22366754.360    91588127.24046
  23334855.160   122625504.986 7  23334857.000    95552352.48946
  23343343.340   122670095.060 7  23343342.880    95587085.11146
  23203557.680   121935592.591 7  23203556.760    95014777.75546
 14  1 10  3 53 30.0000000  0  8G06G31G21G25G16G27G18G29
  22349476.020   117447296.044 7  22349476.500    91517375.78946
  22181724.160   116565747.985 7  22181723.060    90830454.02347
  21097051.740   110865808.977 8  21097050.340    86388966.08248
  24138030.000   126846254.140 6  24138032.700    98841275.88746
  22351558.840   117458237.351 7  22351557.560    91525899.35146
  23321486.000   122555249.465 7  23321487.900    95497607.96246
  23330263.860   122601361.797 7  23330263.620    95533526.75546
  23217694.540   122009882.865 7  23217693.940    95072666.23146
 14  1 10  3 54  0.0000000  0  9G06G31G21G25G16G27G18G22G29
  22337916.380   117386550.160 7  22337916.860    91470041.35646
  22197101.060   116646554.155 7  22197100.080    90893419.86047
  21101362.640   110888462.930 8  21101361.260    86406618.51847
  24156127.920   126941358.947 6  24156130.500    98915383.53546
  22336396.140   117378557.067 7  22336394.840    91463810.82446
  23308140.460   122485118.650 7  23308142.640    95442960.58846
  23317222.440   122532828.499 7  23317222.360    95480124.17746
  24603917.720   129294466.530 6  24603916.500   100748927.72945
  23231840.420   122084220.042 7  23231840.040    95130591.26746
 14  1 10  3 54 30.0000000  0  9G06G31G21G25G16G27G18G22G29
  22326383.620   117325945.436 7  22326384.080    91422816.89246
  22212535.020   116727659.989 7  22212534.080    90956619.20547
  21105747.640   110911506.180 8  21105746.260    86424574.29647
  24174256.220   127036624.531 6  24174258.800    98989616.45246
  22321262.840   117299031.251 7  22321261.580    91401842.66046
  23294813.720   122415086.426 7  23294816.080    95388390.03446
  23304214.540   122464471.279 7  23304214.340    95426858.81046
  24586705.920   129204017.017 6  24586703.600   100678447.61245
  23245989.900   122158577.577 7  23245990.020    95188532.17946
 14  1 10  3 55  0.0000000  0  9G06G31G21G25G16G27G18G22G29
  22314883.060   117265509.685 7  22314883.480    91375724.10946
  22228030.840   116809090.652 7  22228029.840    91020071.66447
  21110211.780   110934965.514 8  21110210.380    86442854.30247
  24192420.300   127132077.868 6  24192422.760    99063995.67145
  22306164.800   117219690.686 7  22306163.600    91340018.85846
  23281511.200   122345180.905 7  23281513.560    95333918.20746
  23291246.160   122396321.162 7  23291245.800    95373754.80745
  24569481.180   129113499.722 6  24569478.420   100607914.70645
  23260148.520   122232983.073 7  23260149.120    95246510.44246
 14  1 10  3 55 30.0000000  0  9G06G31G21G25G16G27G18G22G29
  22303412.780   117205232.339 7  22303412.940    91328754.76146
  22243585.840   116890832.438 7  22243584.800    91083766.55147
  21114752.820   110958828.804 8  21114751.440    86461449.07347
  24210617.700   127227706.704 6  24210620.340    99138511.67445
  22291100.260   117140525.663 7  22291099.000    91278331.82946
  23268230.820   122275391.025 7  23268232.880    95279536.48746
  23278315.500   122328369.460 7  23278315.240    95320805.44146
  24552241.800   129022905.959 6  24552238.740   100537322.16145
  23274314.080   122307424.851 7  23274314.980    95304516.98046
 14  1 10  3 56  0.0000000  0  9G06G31G21G25G16G27G18G22G29
  22291972.760   117145114.859 7  22291972.820    91281909.97246
  22259199.800   116972884.262 7  22259198.720    91147703.02547
  21119370.700   110983096.043 8  21119369.280    86480358.61547
  24228848.500   127323511.495 6  24228851.360    99213164.74145
  22276069.840   117061540.176 7  22276068.620    91216784.71446
  23254972.760   122205718.430 7  23254974.560    95225246.16446
  23265423.420   122260620.728 7  23265423.180    95268014.21946
  24534988.660   128932240.075 6  24534985.660   100466673.45145
  23288487.060   122381904.624 7  23288488.080    95362553.14846
 14  1 10  3 56 30.0000000  0  9G06G31G21G25G16G27G18G22G29
  22280563.200   117085156.878 7  22280563.200    91235189.46746
  22274872.200   117055243.022 7  22274871.020    91211878.67547
  21124065.240   111007765.980 8  21124063.760    86499581.94147
  24247112.680   127419490.792 6  24247115.620    99287953.85346
  22261073.860   116982735.827 7  22261072.680    91155378.73646
  23241736.940   122136162.964 7  23241738.660    95171047.10646
  23252570.340   122193077.442 7  23252570.060    95215383.08145
  24517722.060   128841503.853 6  24517719.140   100395969.90745
  23302667.140   122456421.742 7  23302668.200    95420618.39446
 14  1 10  3 57  0.0000000  0  9G06G31G21G25G16G27G18G22G29
  22269184.040   117025358.211 7  22269183.980    91188593.12546
  22290602.500   117137905.755 7  22290601.260    91276291.19247
  21128836.100   111032837.100 8  21128834.640    86519117.88347
  24265409.920   127515643.185 6  24265412.840    99362877.81045
  22246112.660   116904114.474 7  22246111.500    91094115.35746
  23228523.280   122066724.276 7  23228524.980    95116939.05146
  23239756.640   122125741.570 7  23239756.500    95162913.57246
  24500442.640   128750699.974 6  24500439.920   100325213.65145
  23316854.180   122530975.495 7  23316855.200    95478712.18846
 14  1 10  3 57 30.0000000  0  9G06G31G21G25G16G27G18G22G29
  22257834.800   116965717.326 7  22257834.820    91142119.73346
  22306389.760   117220867.998 7  22306388.480    91340937.08147
  21133682.640   111058306.126 8  21133681.240    86538963.88347
  24283739.640   127611965.794 6  24283742.460    99437934.39746
  22231186.300   116825675.810 7  22231185.000    91032994.31646
  23215331.420   121997400.849 7  23215333.260    95062920.80747
  23226982.700   122058614.648 7  23226982.740    95110606.88646
  24483150.460   128659829.331 6  24483147.880   100254405.41245
  23331047.960   122605563.929 7  23331048.720    95536832.99946
 14  1 10  3 58  0.0000000  0  9G06G31G21G25G16G27G18G22G29
  22246515.880   116906236.216 7  22246515.960    91095770.80146
  22322233.760   117304128.938 7  22322232.540    91405815.73147
  21138605.140   111084173.973 8  21138603.720    86559120.64747
  24302102.060   127708459.431 6  24302104.660    99513124.24745
  22216295.600   116747424.729 7  22216294.260    90972019.45046
  23202161.920   121928194.655 7  23202163.800    95008993.92246
  23214249.360   121991700.791 7  23214249.440    95058466.21846
  24465846.460   128568896.223 6  24465843.960   100183548.47845
  23345248.580   122680188.680 6  23345249.280    95594982.12346
 14  1 10  3 58 30.0000000  0  9G06G31G21G25G16G27G18G22G29
  22235227.400   116846914.629 7  22235227.540    91049546.20746
  22338133.860   117387685.310 7  22338132.820    91470924.58947
  21143603.180   111110438.813 8  21143601.760    86579586.75447
  24320496.560   127805122.589 6  24320499.140    99588446.18746
  22201440.860   116669362.772 7  22201439.620    90911191.96746
  23189014.560   121859105.348 7  23189016.400    94955158.09446
  23201557.020   121925002.404 7  23201557.140    95006493.44945
  24448531.100   128477903.816 6  24448528.520   100112630.51145
  23359455.880   122754848.803 7  23359456.800    95653158.82346
 14  1 10  3 59  0.0000000  0 10G06G31G21G25G16G27G18G22G29G03
  22223969.620   116787754.391 7  22223969.720    91003447.32746
  22354089.960   117471536.175 7  22354089.120    91536262.92147
  21148676.980   111137101.444 8  21148675.500    86600362.83147
  24338923.280   127901955.770 6  24338925.860    99663900.63046
  22186622.740   116591493.462 7  22186621.720    90850514.60547
  23175889.780   121790134.723 7  23175891.580    94901414.77546
  23188906.620   121858523.930 7  23188906.640    94954692.04146
  24431204.840   128386854.375 6  24431202.720   100041682.92746
  23373670.240   122829546.011 6  23373671.360    95711364.41146
  24306473.460   127731387.227 6  24306474.460    99530938.32845
 14  1 10  3 59 30.0000000  0  9G06G31G21G25G16G27G18G22G29
  22212741.600   116728750.420 7  22212741.620    90957470.20646
  22370100.720   117555673.846 7  22370099.920    91601824.73947
  21153825.200   111164155.449 8  21153823.700    86621443.87647
  24357381.020   127998952.802 6  24357383.760    99739482.74945
  22171840.740   116513813.549 7  22171839.880    90789984.82147
  23162786.540   121721277.922 7  23162788.500    94847760.13347
  23176297.680   121792263.207 7  23176297.680    94903060.31846
  24413867.400   128295746.487 6  24413865.420    99970689.79345
  23387890.720   122904275.108 7  23387891.960    95769594.84446
 14  1 10  4  0  0.0000000  0 10G06G31G21G25G16G27G18G22G29G03
  22201543.840   116669905.681 7  22201543.760    90911617.16046
  22386166.260   117640098.351 7  22386165.320    91667610.05447
  21159048.100   111191602.258 8  21159046.700    86642830.99747
  24375870.380   128096115.462 6  24375873.140    99815193.91345
  22157095.860   116436328.330 7  22157094.960    90729606.72246
  23149705.700   121652537.765 7  23149707.660    94794196.39146
  23163731.220   121726225.588 7  23163731.080    94851602.42846
  24396520.140   128204586.031 6  24396517.980    99899655.68845
  23402117.940   122979038.690 7  23402119.140    95827852.14846
  24272255.260   127551565.131 6  24272256.400    99390820.96845
 14  1 10  4  0 30.0000000  0 10G06G31G21G25G16G27G18G22G29G03
  22190376.260   116611219.638 7  22190376.100    90865887.78547
  22402285.700   117724806.199 7  22402284.600    91733616.16847
  21164345.300   111219439.636 8  21164343.980    86664522.46147
  24394390.840   128193441.578 6  24394393.540    99891032.47345
  22142388.360   116359039.394 7  22142387.300    90669381.57546
  23136646.820   121583913.568 7  23136648.960    94740722.99346
  23151207.580   121660412.906 7  23151207.280    94800319.82446
  24379163.280   128113374.331 6  24379160.940    99828581.65645
  23416351.540   123053835.457 7  23416352.460    95886135.33046
  24255159.020   127461722.785 6  24255159.780    99320813.92945
 14  1 10  4  1  0.0000000  0  9G06G31G21G25G16G27G18G22G29
  22179239.340   116552694.908 7  22179239.200    90820284.10347
  22418459.020   117809797.106 7  22418457.760    91799842.83547
  21169717.120   111247668.867 8  21169715.760    86686519.26247
  24412942.800   128290932.799 6  24412945.420    99966999.65045
  22127719.000   116281951.155 7  22127717.800    90609312.82646
  23123610.500   121515408.069 7  23123612.860    94687342.13346
  23138727.720   121594830.536 7  23138727.360    94749216.68346
  24361797.580   128022117.051 6  24361795.280    99757472.06445
  23430591.900   123128668.013 7  23430592.660    95944446.37946
 14  1 10  4  1 30.0000000  0 10G06G31G21G25G16G27G18G22G29G03
  22168132.780   116494329.396 7  22168132.560    90774804.48646
  22434685.240   117895066.263 7  22434683.960    91866286.32747
  21175162.800   111276286.117 8  21175161.360    86708818.42447
  24431525.360   128388585.602 6  24431527.900   100043092.76445
  22113087.780   116205063.649 7  22113086.400    90549400.48546
  23110596.220   121447019.150 6  23110598.940    94634052.05347
  23126291.660   121529478.552 7  23126291.320    94698293.06646
  24344423.080   127930814.393 6  24344420.940    99686327.13246
  23444838.540   123203533.800 7  23444839.240    96002783.31046
  24220993.620   127282170.189 6  24220993.240    99180918.32245
 14  1 10  4  2  0.0000000  0 10G06G31G21G25G16G27G18G22G29G03
  22157056.580   116436123.667 7  22157056.380    90729449.36646
  22450963.820   117980611.010 7  22450962.560    91932944.57947
  21180682.320   111305291.051 8  21180680.820    86731419.67147
  24450138.400   128486399.245 6  24450141.000   100119311.20445
  22098495.180   116128379.425 7  22098493.780    90489646.55146
  23097604.320   121378747.217 6  23097607.140    94580853.17446
  23113900.040   121464360.452 7  23113899.720    94647551.69346
  24327040.420   127839469.128 6  24327038.720    99615149.03445
  23459091.520   123278432.851 7  23459092.160    96061146.18446
  24203923.300   127192465.901 6  24203923.120    99111018.90145
 14  1 10  4  2 30.0000000  0 10G06G31G21G25G16G27G18G22G29G03
  22146010.340   116378075.662 7  22146010.280    90684217.17747
  22467293.960   118066426.566 7  22467292.660    91999813.81847
  21186274.960   111334680.362 8  21186273.400    86754320.43547
  24468781.540   128584370.235 6  24468784.060   100195652.22745
  22083941.120   116051897.694 7  22083939.740    90430050.39347
  23084634.540   121310590.171 7  23084637.260    94527743.81746
  23101553.120   121399476.621 7  23101552.640    94596992.85346
  24309649.880   127748081.865 6  24309648.440    99543938.20846
  23473350.260   123353362.512 7  23473351.060    96119532.90146
  24186861.380   127102807.686 6  24186861.560    99041151.85845
 14  1 10  4  3  0.0000000  0 10G06G31G21G25G16G27G18G22G29G03
  22134994.520   116320187.697 7  22134994.520    90639109.67246
  22483675.580   118152512.534 7  22483674.300    92066893.79147
  21191940.800   111364454.595 8  21191939.240    86777521.13047
  24487455.060   128682499.814 6  24487457.540   100272116.82345
  22069426.620   115975623.795 7  22069425.420    90370616.20247
  23071687.080   121242550.523 7  23071689.680    94474725.92146
  23089251.680   121334831.902 7  23089251.040    94546620.35746
  24292252.420   127656657.616 6  24292250.900    99472698.51845
  23487615.420   123428325.725 7  23487616.200    96177945.75946
  24169808.480   127013194.483 6  24169808.740    98971323.38445
 14  1 10  4  3 30.0000000  0 10G06G31G21G25G16G27G18G22G29G03
  22124008.900   116262458.192 7  22124008.860    90594125.65846
  22500107.760   118238864.228 7  22500106.540    92134180.82347
  21197679.340   111394610.708 8  21197677.760    86801019.39947
  24506158.340   128780785.165 6  24506160.720   100348702.84245
  22054951.720   115899557.918 7  22054950.680    90311344.11547
  23058761.660   121174626.709 7  23058764.180    94421798.31547
  23076995.980   121270427.312 7  23076995.260    94496434.97046
  24274848.320   127565197.639 6  24274846.700    99401431.02245
  23501886.480   123503320.160 7  23501887.220    96236382.95646
  24152764.400   126923626.923 6  24152764.740    98901530.49445
 14  1 10  4  4  0.0000000  0 10G06G31G21G25G16G27G18G22G29G03
  22113053.880   116204889.358 7  22113053.960    90549266.84647
  22516590.420   118325481.125 7  22516589.340    92201674.50547
  21203490.640   111425149.303 8  21203489.020    86824815.70847
  24524891.400   128879226.949 6  24524893.640   100425410.72345
  22040517.200   115823704.059 7  22040516.180    90252237.21046
  23045858.720   121106820.740 7  23045861.100    94368962.51346
  23064786.920   121206267.683 7  23064786.080    94446440.48346
  24257438.020   127473706.292 6  24257436.560    99330139.04645
  23516163.720   123578347.523 7  23516164.520    96294845.78846
  24135729.600   126834107.827 6  24135729.880    98831775.37745
 14  1 10  4  4 30.0000000  0 10G06G31G21G25G16G27G18G22G29G03
  22102129.480   116147481.288 7  22102129.640    90504533.30447
  22533123.000   118412360.238 7  22533121.980    92269372.49947
  21209374.560   111456069.225 8  21209372.860    86848909.15547
  24543653.820   128977824.074 6  24543656.080   100502239.67245
  22026123.480   115748064.784 7  22026122.420    90193297.51947
  23032978.220   121039132.819 7  23032980.500    94316218.71646
  23052624.760   121142355.355 7  23052623.660    94396638.63746
  24240022.140   127382186.265 6  24240020.740    99258824.77945
  23530447.040   123653407.612 7  23530448.000    96353334.14446
  24118704.000   126744637.587 6  24118704.160    98762058.32445
 14  1 10  4  5  0.0000000  0 10G06G31G21G25G16G27G18G22G29G03
  22091235.260   116090231.956 7  22091235.540    90459923.46846
  22549704.520   118499496.564 7  22549703.540    92337270.92947
  21215330.200   111487366.222 8  21215328.500    86873296.43247
  24562445.140   129076572.869 6  24562447.180   100579186.79645
  22011770.440   115672639.254 7  22011769.320    90134524.39546
  23020119.720   120971560.588 7  23020121.800    94263565.06846
  23040509.580   121078690.787 7  23040508.560    94347029.90746
  24222600.960   127290637.903 6  24222599.700    99187488.39145
  23544736.180   123728497.773 7  23544737.160    96411845.95046
  24101687.220   126655213.963 6  24101687.280    98692377.58745
 14  1 10  4  5 30.0000000  0 10G06G31G21G25G16G27G18G22G29G03
  22080371.660   116033143.500 7  22080372.040    90415438.99446
  22566334.840   118586889.431 7  22566333.840    92405369.26447
  21221357.920   111519042.052 8  21221356.220    86897978.89247
  24581265.400   129175474.447 6  24581267.620   100656252.98545
  21997459.100   115597432.258 7  21997457.880    90075921.55146
  23007283.640   120904106.569 7  23007285.740    94211003.52047
  23028442.580   121015278.818 7  23028441.720    94297617.99546
  24205175.420   127199066.351 6  24205173.980    99116133.93745
  23559031.520   123803620.625 7  23559032.580    96470383.20646
  24084679.520   126565839.822 6  24084679.700    98622735.44744
 14  1 10  4  6  0.0000000  0 10G06G31G21G25G16G27G18G22G29G03
  22069537.840   115976211.789 7  22069538.300    90371076.64546
  22583012.560   118674531.872 7  22583011.520    92473662.06947
  21227456.460   111551090.506 8  21227454.860    86922951.71847
  24600113.780   129274523.452 6  24600116.160   100733434.05345
  21983188.920   115522441.872 7  21983187.760    90017487.49146
  22994469.300   120836766.666 7  22994471.400    94158530.90347
  23016423.540   120952118.121 7  23016422.720    94248401.85946
  24187745.320   127107469.880 6  24187743.480    99044760.05245
  23573332.260   123878771.497 7  23573333.320    96528942.30746
  24067681.000   126476511.852 6  24067681.020    98553129.23645
 14  1 10  4  6 30.0000000  0 10G06G31G21G25G16G27G18G22G29G03
  22058734.460   115919439.806 7  22058734.960    90326838.74546
  22599737.760   118762423.851 7  22599736.720    92542149.32347
  21233626.200   111583512.903 8  21233624.660    86948215.92347
  24618990.520   129373721.102 6  24618993.160   100810730.94145
  21968960.740   115447672.573 7  21968959.740    89959225.71647
  22981677.240   120769543.359 7  22981679.240    94106149.14047
  23004453.240   120889213.497 7  23004452.320    94199385.30046
  24170311.580   127015853.807 6  24170309.300    98973370.88645
  23587638.880   123953952.728 7  23587639.920    96587525.07446
  24050691.780   126387232.977 6  24050691.740    98483561.30545
 14  1 10  4  7  0.0000000  0 10G06G31G21G25G16G27G18G22G29G03
  22047961.960   115862829.632 7  22047962.480    90282726.93646
  22616510.220   118850564.359 7  22616509.240    92610830.23547
  21239867.280   111616310.015 8  21239865.780    86973772.11747
  24637895.600   129473068.301 6  24637898.540   100888144.34346
  21954775.500   115373129.033 7  21954774.780    89901139.85547
  22968907.660   120702439.047 7  22968909.680    94053860.09047
  22992532.580   120826569.722 7  22992531.560    94150571.95646
  24152874.980   126924223.007 6  24152872.420    98901970.26945
  23601951.520   124029166.185 6  23601952.600    96646132.95046
  24033712.260   126298005.670 6  24033712.280    98414033.57445
 14  1 10  4  7 30.0000000  0 10G06G31G21G25G16G27G18G22G29G03
  22037219.760   115806378.780 7  22037220.260    90238739.26947
  22633329.000   118938948.157 7  22633328.080    92679700.71447
  21246178.880   111649477.568 8  21246177.380    86999616.96547
  24656828.400   129572561.160 6  24656831.480   100965671.26845
  21940633.140   115298810.490 7  21940632.520    89843229.31247
  22956160.340   120635451.068 7  22956162.200    94001661.70246
  22980661.620   120764186.912 7  22980660.620    94101961.99346
  24135435.560   126832577.484 6  24135432.740    98830558.15345
  23616269.760   124104409.141 6  23616270.940    96704763.78746
  24016742.440   126208827.865 6  24016742.080    98344544.35745
 14  1 10  4  8  0.0000000  0 10G06G31G21G25G16G27G18G22G29G03
  22026507.980   115750088.456 7  22026508.540    90194876.69546
  22650193.820   119027573.355 7  22650192.940    92748759.30847
  21252560.900   111683015.257 8  21252559.400    87025750.23047
  24675788.960   129672199.449 6  24675792.020   101043311.50245
  21926534.240   115224720.323 7  21926533.620    89785496.72247
  22943435.240   120568580.669 7  22943437.040    93949554.92146
  22968841.040   120702068.720 7  22968839.920    94053558.20146
  24117994.080   126740921.331 6  24117991.220    98759137.76446
  23630593.720   124179682.438 6  23630595.000    96763418.27446
  23999782.160   126119700.855 6  23999781.760    98275094.74745
 14  1 10  4  8 30.0000000  0 10G06G31G21G25G16G27G18G22G29G03
  22015826.560   115693957.543 7  22015827.120    90151138.33846
  22667103.780   119116436.044 7  22667103.080    92818002.95047
  21259012.840   111716920.486 8  21259011.300    87052169.89047
  24694776.760   129771980.830 6  24694779.840   101121063.21545
  21912479.000   115150859.389 7  21912478.260    89727942.77447
  22930732.420   120501826.762 7  22930734.180    93897538.91146
  22957070.960   120640216.582 7  22957069.780    94005361.72546
  24100550.720   126649255.527 7  24100547.720    98687709.87346
  23644923.160   124254984.891 6  23644924.660    96822095.44046
  23982831.500   126030624.160 6  23982831.160    98205684.28445
 14  1 10  4  9  0.0000000  0 10G06G31G21G25G16G27G18G22G29G03
  22005175.560   115637986.197 7  22005176.040    90107524.31946
  22684058.440   119205533.095 7  22684057.780    92887429.21546
  21265534.440   111751191.854 8  21265532.920    87078874.85247
  24713791.620   129871903.800 6  24713794.460   101198925.27445
  21898467.760   115077229.652 8  21898466.920    89670568.96447
  22918051.760   120435189.310 7  22918053.420    93845613.64846
  22945351.880   120578632.613 7  22945350.780    93957374.23646
  24083106.080   126557582.761 7  24083102.840    98616276.52646
  23659258.120   124330316.135 6  23659259.740    96880795.09146
  23965890.480   125941598.344 6  23965890.260    98136313.55545
 14  1 10  4  9 30.0000000  0 10G06G31G21G25G16G27G18G22G29G03
  21994555.160   115582175.048 7  21994555.360    90064035.10346
  22701057.380   119294862.476 7  22701056.600    92957036.52346
  21272125.560   111785828.376 8  21272124.040    87105864.35247
  24732833.380   129971967.711 6  24732835.900   101276897.18146
  21884501.140   115003834.201 8  21884500.080    89613377.68847
  22905393.460   120368669.066 7  22905394.980    93793779.72946
  22933684.400   120517320.399 7  22933683.540    93909598.46846
  24065660.620   126465906.441 6  24065657.320    98544840.45546
  23673598.640   124405676.473 6  23673600.180    96939517.39446
  23948959.260   125852624.414 6  23948959.140    98066983.19544
 14  1 10  4 10  0.0000000  0 10G06G31G21G25G16G27G18G22G29G03
  21983965.240   115526524.441 7  21983965.360    90020671.00446
  22718099.920   119384421.602 7  22718099.220    93026822.85047
  21278785.980   111820828.833 8  21278784.440    87133137.44047
  24751901.580   130072171.560 6  24751904.160   101354978.14345
  21870579.520   114930675.381 8  21870578.320    89556370.82847
  22892757.480   120302266.357 7  22892759.060    93742037.38447
  22922069.180   120456282.694 7  22922068.560    93862036.63946
  24048215.040   126374229.738 6  24048211.820    98473404.08046
  23687944.820   124481065.997 6  23687946.160    96998262.46746
  23932038.100   125763703.000 6  23932037.760    97997693.81645
 14  1 10  4 10 30.0000000  0 10G06G31G21G25G16G27G18G22G29G03
  21973405.580   115471033.074 7  21973405.680    89977430.97046
  22735185.260   119474205.801 7  22735184.520    93096784.56446
  21285515.060   111856190.342 8  21285513.560    87160691.85647
  24770995.860   130172512.550 6  24770998.540   101433165.91945
  21856702.940   114857753.900 7  21856701.780    89499548.92347
  22880143.540   120235979.770 7  22880145.300    93690385.50947
  22910506.420   120395520.508 7  22910505.940    93814689.48746
  24030769.500   126282553.716 6  24030766.440    98401968.19645
  23702296.440   124556483.426 7  23702297.500    97057029.27946
  23915126.760   125674832.930 6  23915126.420    97928444.43045
 14  1 10  4 11  0.0000000  0  9G06G31G21G16G27G18G22G29G03
  21962876.200   115415700.917 7  21962876.240    89934315.00146
  22752312.960   119564212.514 7  22752312.200    93166919.65946
  21292312.560   111891911.309 8  21292311.120    87188526.37647
  21842871.960   114785071.817 8  21842870.780    89442913.53847
  22867551.640   120169809.244 7  22867553.460    93638824.06647
  22898996.620   120335036.125 7  22898996.120    93767558.81746
  24013324.780   126190880.863 7  24013321.700    98330534.78746
  23716653.360   124631928.291 7  23716654.200    97115817.43646
  23898225.140   125586014.701 6  23898224.960    97859235.48445
 14  1 10  4 11 30.0000000  0  9G06G31G21G16G27G18G22G29G03
  21952378.660   115360535.861 7  21952378.700    89891329.25146
  22769483.960   119654446.457 7  22769483.060    93237231.81046
  21299179.540   111927997.864 8  21299178.200    87216645.76347
  21829088.480   114712638.907 8  21829087.220    89386472.30847
  22854983.300   120103762.689 7  22854985.140    93587359.22246
  22887541.600   120274839.725 7  22887541.020    93720652.53846
  23995882.660   126099221.643 6  23995879.580    98259112.02546
  23731016.840   124707408.129 7  23731017.660    97174632.88246
  23881334.800   125497256.865 6  23881334.940    97790073.54245
 14  1 10  4 12  0.0000000  0  9G06G31G21G16G27G18G22G29G03
  21941910.900   115305527.172 7  21941910.900    89848465.34047
  22786695.660   119744893.629 7  22786694.600    93307710.13046
  21306113.680   111964437.376 8  21306112.480    87245040.19447
  21815350.780   114640446.336 8  21815349.420    89330218.35247
  22842436.600   120037829.220 7  22842438.400    93535982.51846
  22876139.800   120214923.061 7  22876139.180    93673964.23246
  23978441.480   126007567.923 6  23978438.480    98187693.54445
  23745384.860   124782911.882 6  23745385.560    97233466.95746
  23864453.960   125408548.635 6  23864454.400    97720950.28245
 14  1 10  4 12 30.0000000  0  9G06G31G21G16G27G18G22G29G03
  21931473.800   115250679.555 7  21931473.780    89805726.95547
  22803948.340   119835555.973 7  22803947.060    93378356.09646
  21313115.680   112001233.433 8  21313114.520    87273712.44947
  21801660.080   114568501.466 8  21801658.840    89274157.43747
  22829912.240   119972013.653 7  22829914.120    93484697.67647
  22864792.620   120155293.351 7  22864791.980    93627499.54046
  23961002.840   125915927.262 6  23960999.840    98116285.19545
  23759758.140   124858443.902 6  23759758.880    97292323.02146
  23847583.720   125319895.558 6  23847584.400    97651869.98645
 14  1 10  4 13  0.0000000  0  9G06G31G21G16G27G18G22G29G03
  21921067.100   115195992.153 7  21921067.120    89763113.40847
  22821241.080   119926429.602 7  22821239.800    93449166.71647
  21320185.040   112038383.289 8  21320183.880    87302660.39547
  21788016.620   114496804.963 8  21788015.540    89218290.04247
  22817410.160   119906315.136 7  22817412.160    93433504.03147
  22853500.340   120095952.117 7  22853499.720    93581259.61046
  23943567.040   125824301.231 6  23943563.980    98044888.29246
  23774136.680   124934003.240 7  23774137.360    97351200.36846
  23830723.860   125231296.822 6  23830724.660    97582832.02745
 14  1 10  4 13 30.0000000  0  9G06G31G21G16G27G18G22G29G03
  21910690.740   115141464.452 7  21910690.820    89720624.29847
  22838573.240   120017511.019 7  22838572.180    93520139.25146
  21327321.320   112075884.849 8  21327320.180    87331882.38347
  21774420.840   114425358.859 8  21774419.760    89162617.76147
  22804930.240   119840733.113 7  22804932.240    93382401.17346
  22842263.300   120036900.936 7  22842262.740    93535245.72446
  23926134.280   125732691.895 6  23926131.360    97973504.40846
  23788520.280   125009589.350 7  23788520.880    97410098.60346
  23813874.460   125142752.454 6  23813875.060    97513836.44545
 14  1 10  4 14  0.0000000  0  9G06G31G21G16G27G18G22G29G03
  21900345.220   115087098.504 7  21900345.280    89678261.23647
  22855944.660   120108799.118 7  22855943.900    93591272.82646
  21334524.480   112113738.010 8  21334523.380    87361378.35947
  21760873.480   114354166.915 8  21760872.340    89107143.53047
  22792472.860   119775269.476 7  22792474.820    93331390.56347
  22831082.320   119978144.464 7  22831081.820    93489461.46846
  23908705.420   125641104.010 6  23908702.700    97902137.22546
  23802909.260   125085203.622 7  23802909.740    97469018.77045
  23797035.860   125054264.483 6  23797036.420    97444884.78545
 14  1 10  4 14 30.0000000  0  9G06G31G21G16G27G18G22G29G03
  21890029.640   115032889.797 7  21890029.680    89636020.69347
  22873354.040   120200286.447 7  22873353.480    93662561.65646
  21341793.440   112151937.154 8  21341792.420    87391143.91747
  21747373.940   114283226.448 8  21747372.800    89051865.25447
  22780037.140   119709919.760 7  22780039.300    93280468.72047
  22819956.880   119919680.462 7  22819956.440    93443905.09346
  23891280.460   125549535.697 6  23891277.880    97830785.25745
  23817302.880   125160841.634 7  23817303.140    97527957.43146
  23780207.460   124965829.157 7  23780207.780    97375974.13945
 14  1 10  4 15  0.0000000  0  9G06G31G21G16G27G18G22G29G03
  21879745.240   114978845.115 7  21879745.260    89593907.96647
  22890802.180   120291976.947 7  22890801.560    93734008.80946
  21349129.240   112190487.246 8  21349128.180    87421182.95847
  21733924.100   114212547.154 8  21733922.980    88996790.49847
  22767624.380   119644690.705 7  22767626.680    93229640.93847
  22808888.900   119861518.198 7  22808888.540    93398583.86046
  23873861.040   125457996.014 7  23873858.500    97759455.61946
  23831702.100   125236509.570 7  23831702.260    97586919.42046
  23763390.440   124877453.948 7  23763390.660    97307110.39245
 14  1 10  4 15 30.0000000  0  9G06G31G21G16G27G18G22G29G03
  21869491.400   114924960.651 7  21869491.460    89551920.09147
  22908287.580   120383863.710 7  22908286.940    93805608.86447
  21356530.820   112229382.887 8  21356529.740    87451491.25647
  21720523.580   114142126.785 8  21720522.440    88941917.48947
  22755233.900   119579578.555 7  22755236.200    93178904.21947
  22797878.020   119803655.953 7  22797877.820    93353496.39746
  23856447.020   125366484.304 7  23856444.440    97688147.78246
  23846106.160   125312203.395 6  23846106.280    97645901.59546
  23746584.180   124789134.987 7  23746584.320    97238290.43245
 14  1 10  4 16  0.0000000  0  9G06G31G21G16G27G18G22G29G03
  21859268.500   114871238.860 7  21859268.600    89510058.96347
  22925810.140   120475946.157 7  22925809.580    93877361.42446
  21363998.260   112268624.736 8  21363997.220    87482069.31647
  21707173.180   114071969.839 8  21707172.040    88887249.74747
  22742866.240   119514585.643 7  22742868.460    93128260.39946
  22786925.180   119746098.433 7  22786925.040    93308646.39346
  23839039.240   125275005.482 6  23839036.600    97616865.56746
  23860515.540   125387925.440 7  23860515.780    97704905.74946
  23729788.900   124700874.943 6  23729789.100    97169516.34945
 14  1 10  4 16 30.0000000  0  9G06G31G21G16G27G18G22G29G03
  21849076.140   114817677.859 7  21849076.280    89468323.11847
  22943369.020   120568219.104 7  22943368.460    93949262.41746
  21371530.980   112308209.221 8  21371529.860    87512914.37147
  21693872.740   114002076.175 8  21693871.760    88832787.17547
  22730520.920   119449710.157 7  22730522.980    93077708.08947
  22776030.380   119688845.693 7  22776030.140    93264033.87946
  23821637.820   125183559.848 7  23821635.120    97545609.21945
  23874929.980   125463673.828 6  23874930.420    97763930.42446
  23713004.660   124612672.801 6  23713004.700    97100787.43845
 14  1 10  4 17  0.0000000  0  9G06G31G21G16G27G18G22G29G03
  21838914.480   114764278.133 7  21838914.600    89426712.94847
  22960963.720   120660680.294 7  22960963.180    94021310.09246
  21379128.720   112348135.120 8  21379127.460    87544025.46447
  21680623.060   113932448.679 8  21680622.060    88778531.98347
  22718198.020   119384952.465 7  22718199.860    93027247.56447
  22765194.280   119631901.475 7  22765194.020    93219661.77946
  23804243.360   125092150.603 7  23804240.540    97474381.23646
  23889349.480   125539448.336 7  23889349.740    97822975.43646
  23696231.480   124524529.140 6  23696231.360    97032104.09945
 14  1 10  4 17 30.0000000  0  9G06G31G21G16G27G18G22G29G03
  21828784.080   114711042.842 7  21828784.340    89385230.90847
  22978594.220   120753329.735 7  22978593.760    94093504.47446
  21386791.740   112388403.653 8  21386790.300    87575403.53747
  21667425.160   113863092.978 8  21667424.080    88724488.59247
  22705898.100   119320315.671 7  22705899.920    92976881.26247
  22754417.880   119575270.619 7  22754417.440    93175533.83646
  23786856.940   125000783.918 7  23786854.020    97403186.40046
  23903774.160   125615178.001 6  23903774.840    97881960.19446
  23679469.960   124436447.546 6  23679469.940    96963469.08645
 14  1 10  4 18  0.0000000  0  9G06G31G21G16G27G18G22G29G03
  21818684.040   114657967.194 7  21818684.360    89343873.24847
  22996259.000   120846158.784 7  22996258.540    94165838.79746
  21394518.740   112429008.245 8  21394517.040    87607043.48347
  21654278.360   113794005.907 8  21654277.300    88670654.53147
  22693620.200   119255794.861 7  22693622.040    92926605.31647
  22743700.640   119518950.623 7  22743700.060    93131648.13946
  23769478.080   124909457.311 6  23769475.140    97332022.77146
  23918203.840   125691005.874 6  23918204.340    97941046.80046
  23662719.240   124348423.537 6  23662719.600    96894878.96045
 14  1 10  4 18 30.0000000  0  9G06G31G21G16G27G18G22G29G03
  21808615.000   114605054.158 7  21808615.360    89302642.32947
  23013958.280   120939168.918 7  23013957.680    94238314.21446
  21402309.960   112469950.618 8  21402308.100    87638946.62947
  21641183.540   113725192.198 8  21641182.460    88617033.46347
  22681364.880   119191393.113 7  22681366.700    92876422.15347
  22733043.520   119462946.866 7  22733042.840    93088008.84646
  23752107.720   124818176.538 6  23752105.160    97260894.90946
  23932638.460   125766860.761 6  23932638.780    98000154.49646
  23645980.160   124260460.638 6  23645980.760    96826336.45845
 14  1 10  4 19  0.0000000  0  9G06G31G21G16G27G18G22G29G03
  21798576.860   114552303.389 7  21798577.160    89261537.83647
  23031691.480   121032356.115 7  23031690.580    94310927.61446
  21410164.880   112511228.117 8  21410162.940    87671110.90847
  21628141.180   113656654.107 8  21628140.040    88563627.16047
  22669132.220   119127110.075 7  22669133.920    92826331.50047
  22722446.880   119407261.281 7  22722446.280    93044617.49746
  23734746.500   124726943.813 6  23734744.260    97189804.47146
  23947077.940   125842741.875 6  23947078.340    98059282.59046
  23629252.800   124172558.769 6  23629253.720    96757841.51344
 14  1 10  4 19 30.0000000  0  9G06G31G21G16G27G18G22G29G03
  21788569.180   114499712.655 7  21788569.440    89220558.04747
  23049457.240   121125714.797 7  23049456.180    94383674.62346
  21418082.880   112552837.299 8  21418080.940    87703533.65147
  21615151.120   113588391.267 8  21615150.000    88510435.34747
  22656921.720   119062943.354 7  22656923.400    92776331.48047
  22711910.760   119351893.610 7  22711910.320    93001473.85746
  23717394.520   124635759.475 6  23717392.380    97118751.73446
  23961522.060   125918646.643 6  23961522.540    98118429.13145
  23612536.720   124084715.933 6  23612537.820    96689392.59345
 14  1 10  4 20  0.0000000  0  9G06G31G21G16G27G18G22G29G03
  21778591.900   114447281.784 7  21778592.140    89179702.82547
  23067254.900   121219241.658 7  23067253.700    94456552.69946
  21426063.520   112594776.016 8  21426061.660    87736213.16547
  21602213.840   113520405.704 8  21602212.740    88457459.59647
  22644733.320   118998892.798 7  22644734.920    92726421.96647
  22701435.380   119296845.734 7  22701435.100    92958579.41946
  23700052.260   124544626.043 6  23700050.220    97047738.63946
  23975970.900   125994574.885 6  23975971.100    98177593.95245
  23595832.160   123996932.809 7  23595833.020    96620990.21245
 14  1 10  4 20 30.0000000  0  9G06G31G21G16G27G18G22G29G03
  21768645.520   114395013.147 7  21768645.740    89138974.03147
  23085084.360   121312936.413 7  23085083.140    94529561.59746
  21434106.900   112637044.476 8  21434105.080    87769149.63747
  21589330.180   113452701.672 8  21589329.120    88404703.21347
  22632567.520   118934960.772 7  22632568.920    92676604.81447
  22691021.820   119242122.551 7  22691021.620    92915937.99446
  23682720.880   124453548.598 7  23682718.840    96976769.19246
  23990424.560   126070528.792 6  23990424.480    98236778.79446
  23579139.460   123909212.002 7  23579140.280    96552636.33946
 14  1 10  4 21  0.0000000  0  9G06G31G21G16G27G18G22G29G03
  21758730.240   114342907.844 7  21758730.460    89098372.49847
  23102945.200   121406796.799 7  23102944.200    94602699.56246
  21442212.880   112679642.182 8  21442211.180    87802342.65147
  21576500.680   113385282.218 8  21576499.660    88352168.58247
  22620424.380   118871148.259 7  22620425.860    92626880.80246
  22680670.740   119187727.400 7  22680670.560    92873552.16446
  23665400.940   124362530.806 7  23665398.760    96905846.22846
  24004883.140   126146508.983 6  24004883.080    98295984.07846
  23562458.980   123821554.719 7  23562459.680    96484331.97645
 14  1 10  4 21 30.0000000  0  9G06G31G21G16G27G18G22G29G03
  21748845.960   114290965.801 7  21748846.200    89057898.20647
  23120837.000   121500819.418 7  23120836.060    94675963.94246
  21450381.220   112722567.490 8  21450379.600    87835790.93947
  21563725.780   113318149.379 8  21563724.700    88299857.28947
  22608303.980   118807455.138 7  22608305.420    92577249.81146
  22670382.580   119133662.376 7  22670382.400    92831423.59646
  23648092.720   124271574.952 7  23648090.520    96834971.55146
  24019346.560   126222514.860 6  24019346.720    98355209.40046
  23545790.680   123733961.515 7  23545791.180    96416077.54646
 14  1 10  4 22  0.0000000  0  9G06G31G21G16G27G18G22G29G03
  21738992.560   114239185.517 7  21738992.760    89017549.93247
  23138759.120   121595000.263 7  23138758.100    94749351.61246
  21458611.340   112765817.142 8  21458609.720    87869491.97447
  21551005.660   113251304.037 8  21551004.380    88247770.00447
  22596206.040   118743880.026 7  22596207.420    92527710.77547
  22660157.320   119079927.723 7  22660157.080    92789552.44446
  23630796.580   124180682.495 7  23630794.220    96764146.22746
  24033814.820   126298545.238 6  24033815.060    98414453.81045
  23529134.380   123646431.334 7  23529134.680    96347872.22546
 14  1 10  4 22 30.0000000  0  9G06G31G21G16G27G18G22G29G03
  21729170.020   114187567.085 7  21729170.060    88977327.80247
  23156710.780   121689336.237 7  23156709.620    94822860.15546
  21466902.860   112809389.426 8  21466901.220    87903444.39547
  21538340.560   113184748.196 8  21538339.160    88195908.31647
  22584130.500   118680422.943 7  22584131.880    92478263.70146
  22649995.340   119026525.955 7  22649995.020    92747940.69246
  23613513.060   124089856.022 7  23613510.540    96693372.33046
  24048287.680   126374599.985 6  24048287.940    98473717.23646
  23512490.200   123558964.808 7  23512490.200    96279716.54145
 14  1 10  4 23  0.0000000  0  9G06G31G21G16G27G18G22G29G03
  21719378.620   114136112.741 7  21719378.660    88937233.51147
  23174691.960   121783826.373 7  23174690.520    94896488.84346
  21475255.820   112853284.590 8  21475254.160    87937648.42147
  21525731.340   113118486.413 8  21525729.900    88144275.77047
  22572077.900   118617086.044 7  22572079.220    92428910.28446
  22639897.520   118973461.464 7  22639897.100    92706591.73946
  23596242.920   123999100.333 7  23596240.420    96622653.61745
  24062765.560   126450681.080 6  24062765.880    98533001.17646
  23495858.340   123471564.180 7  23495858.360    96211612.17246
 14  1 10  4 23 30.0000000  0  9G06G31G21G16G27G18G22G29G03
  21709617.740   114084819.323 7  21709617.800    88897264.63147
  23192701.200   121878464.409 7  23192699.640    94970232.73846
  21483669.220   112897497.471 8  21483667.600    87972100.01547
  21513177.660   113052516.582 8  21513176.280    88092870.71947
  22560047.520   118553866.039 7  22560048.740    92379647.93647
  22629863.580   118920733.205 7  22629863.180    92665504.80146
  23578986.060   123908414.827 7  23578983.640    96551989.54646
  24077248.120   126526785.003 6  24077248.280    98592302.89746
  23479238.520   123384226.728 7  23479238.560    96143557.01346
 14  1 10  4 24  0.0000000  0  9G06G31G21G16G27G18G22G29G03
  21699888.220   114033690.413 7  21699888.260    88857423.95147
  23210738.440   121973250.730 7  23210736.920    95044092.19246
  21492143.540   112942030.441 8  21492141.920    88006801.03747
  21500680.880   112986845.481 8  21500679.480    88041698.43747
  22548040.140   118490766.589 7  22548041.220    92330479.54846
  22619894.680   118868346.792 7  22619894.280    92624684.22346
  23561743.840   123817805.784 7  23561741.380    96481385.08946
  24091735.360   126602915.001 6  24091735.340    98651624.94345
  23462631.560   123296956.680 7  23462631.660    96075554.42546
 14  1 10  4 24 30.0000000  0  9G06G31G21G16G27G18G22G29G03
  21690189.900   113982725.382 7  21690189.920    88817710.93647
  23228803.080   122068181.808 7  23228801.800    95118064.46346
  21500678.140   112986880.522 8  21500676.520    88041749.14547
  21488241.040   112921473.857 8  21488239.660    87990759.51147
  22536055.460   118427786.989 7  22536056.500    92281404.55947
  22609991.220   118816304.097 7  22609990.760    92584131.47846
  23544516.560   123727275.302 7  23544514.080    96410841.85246
  24106227.180   126679070.279 6  24106227.240    98710966.67746
  23446037.360   123209753.670 7  23446037.280    96007604.08545
 14  1 10  4 25  0.0000000  0  9G06G31G21G16G27G18G22G29G03
  21680522.720   113931923.935 7  21680522.720    88778125.39447
  23246894.560   122163254.378 7  23246893.540    95192146.97546
  21509272.680   113032045.815 8  21509271.160    88076942.88047
  21475858.520   112856403.661 8  21475857.240    87940055.47047
  22524093.520   118364926.954 7  22524094.560    92232422.72447
  22600153.480   118764606.372 7  22600152.980    92543847.54546
  23527304.740   123636825.692 7  23527302.100    96340361.63446
  24120723.700   126755250.297 6  24120723.820    98770327.70646
  23429455.900   123122617.696 7  23429455.820    95939705.98146
 14  1 10  4 25 30.0000000  0  9G06G31G21G16G27G18G22G29G03
  21670886.780   113881286.647 7  21670886.820    88738667.77247
  23265012.360   122258465.399 7  23265011.700    95266337.39146
  21517926.920   113077524.826 8  21517925.600    88112381.07047
  21463533.800   112791637.388 8  21463532.680    87889588.25347
  22512154.380   118302186.833 7  22512155.740    92183534.35547
  22590381.920   118713256.260 7  22590381.400    92503834.47846
  23510108.840   123546459.878 7  23510106.040    96269946.70046
  24135224.780   126831455.161 6  24135225.180    98829708.10546
  23412887.340   123035549.791 7  23412887.400    95871860.87446
 14  1 10  4 26  0.0000000  0  9G06G31G21G16G27G18G22G29G03
  21661282.100   113830813.883 7  21661282.160    88699338.35247
  23283156.200   122353812.634 7  23283155.720    95340633.93246
  21526640.640   113123316.282 8  21526639.480    88148062.72347
  21451267.440   112727177.822 8  21451266.500    87839360.03647
  22500238.260   118239567.242 7  22500239.800    92134739.88247
  22580677.040   118662256.469 7  22580676.460    92464094.38646
  23492929.460   123456181.191 7  23492926.540    96199599.66146
  24149730.800   126907685.434 6  24149731.320    98889108.30546
  23396331.820   122948550.819 7  23396331.960    95804069.49245
 14  1 10  4 26 30.0000000  0  9G06G31G21G16G27G18G22G29G03
  21651708.060   113780502.095 7  21651708.140    88660134.36747
  23301324.780   122449289.179 7  23301324.320    95415031.23846
  21535412.800   113169414.673 8  21535411.760    88183983.54647
  21439059.120   112663023.180 8  21439058.280    87789369.42447
  22488344.380   118177064.391 7  22488345.920    92086036.37347
  22571038.420   118611605.534 7  22571037.900    92424626.13546
  23475766.300   123365988.647 7  23475763.480    96129319.76446
  24164241.120   126983937.231 6  24164241.640    98948525.26945
  23379788.900   122861617.689 7  23379789.040    95736329.42146
 14  1 10  4 27  0.0000000  0  9G06G31G21G16G27G18G22G29G03
  21642165.620   113730356.355 7  21642165.680    88621059.77947
  23319518.540   122544896.985 7  23319517.960    95489530.81646
  21544244.000   113215822.997 8  21544243.060    88220145.87547
  21426910.200   112599180.280 8  21426909.340    87739621.71447
  22476473.760   118114683.308 7  22476475.260    92037427.75347
  22561467.400   118561309.957 7  22561467.040    92385434.80146
  23458620.840   123275889.742 7  23458618.160    96059112.80546
  24178756.160   127060215.016 6  24178756.800    99007962.46446
  23363259.680   122774755.752 7  23363259.820    95668644.82445
 14  1 10  4 27 30.0000000  0  9G06G31G21G16G27G18G22G29G03
  21632654.280   113680374.249 7  21632654.400    88582112.68947
  23337736.280   122640630.778 7  23337735.540    95564128.55646
  21553133.500   113262537.377 8  21553132.560    88256546.69147
  21414820.640   112535648.903 8  21414819.740    87690116.75547
  22464625.840   118052421.726 7  22464627.280    91988912.24747
  22551964.020   118511369.884 7  22551963.780    92346520.46046
  23441493.340   123185884.884 7  23441490.760    95988979.13146
  24193275.940   127136516.626 6  24193276.580    99067418.21445
  23346743.680   122687963.508 6  23346743.840    95601014.51245
 14  1 10  4 28  0.0000000  0  9G06G31G21G16G27G18G22G29G03
  21623174.120   113630555.901 7  21623174.220    88543293.19347
  23355977.340   122736487.052 7  23355976.360    95638821.74346
  21562080.820   113309555.830 8  21562079.960    88293184.44447
  21402790.880   112472431.512 8  21402789.880    87640856.45947
  22452800.600   117990279.487 7  22452801.880    91940489.72747
  22542528.700   118461787.350 7  22542528.400    92307884.72146
  23424384.200   123095976.666 7  23424381.720    95918920.78846
  24207800.160   127212841.623 6  24207800.780    99126892.19146
  23330240.900   122601241.244 6  23330241.180    95533438.77746
 14  1 10  4 28 30.0000000  0  9G06G31G21G16G27G18G22G29G03
  21613725.420   113580902.547 7  21613725.440    88504602.26247
  23374241.360   122832464.489 7  23374240.120    95713609.35046
  21571085.880   113356877.713 7  21571085.060    88330058.64347
  21390821.400   112409531.142 8  21390820.280    87591843.18147
  22440998.340   117928257.916 7  22440999.540    91892161.23647
  22533162.060   118412565.524 7  22533161.700    92269530.06046
  23407294.240   123006168.890 7  23407291.800    95848940.67446
  24222329.060   127289191.127 6  24222329.860    99186385.29646
  23313751.560   122514590.103 6  23313751.980    95465918.40945
 14  1 10  4 29  0.0000000  0  9G06G31G21G16G27G18G22G29G03
  21604308.320   113531415.169 7  21604308.340    88466040.67747
  23392527.860   122928561.160 7  23392526.620    95788489.87146
  21580148.600   113404502.413 8  21580147.720    88367168.79447
  21378912.780   112346951.037 8  21378911.620    87543079.47147
  22429219.160   117866358.073 7  22429220.460    91843927.59247
  22523864.680   118363707.396 7  22523864.280    92231458.81446
  23390224.220   122916465.374 7  23390221.760    95779041.83246
  24236862.800   127365566.165 6  24236863.520    99245898.31546
  23297276.040   122428011.846 6  23297276.640    95398454.86146
 14  1 10  4 29 30.0000000  0  9G06G31G21G16G27G18G22G29G03
  21594922.660   113482093.153 7  21594922.700    88427607.95247
  23410836.160   123024772.880 7  23410835.160    95863460.03646
  21589268.420   113452427.075 8  21589267.460    88404512.68547
  21367065.280   112284691.765 8  21367064.060    87494565.75747
  22417462.880   117804579.019 7  22417464.400    91795788.08447
  22514636.780   118315214.021 7  22514636.280    92193671.75846
  23373174.380   122826867.874 7  23373171.900    95709225.58246
  24251401.080   127441965.573 6  24251401.900    99305430.28545
  23280814.380   122341506.486 6  23280815.180    95331048.12945
 14  1 10  4 30  0.0000000  0  9G06G31G21G16G27G18G22G29G03
  21585568.420   113432936.805 7  21585568.620    88389304.31447
  23429165.800   123121096.626 7  23429165.060    95938517.49546
  21598445.060   113500650.092 8  21598443.980    88442089.06847
  21355279.620   112222756.957 8  21355278.260    87446304.85847
  22405729.720   117742921.289 7  22405731.380    91747743.10747
  22505478.820   118267087.991 7  22505478.240    92156170.97646
  23356145.320   122737379.460 7  23356142.820    95639494.34446
  24265943.860   127518389.590 6  24265944.980    99364981.42046
  23264367.000   122255074.527 6  23264367.760    95263698.60345
 14  1 10  4 30 30.0000000  0  9G06G31G21G16G27G18G22G29G03
  21576245.040   113383942.982 7  21576245.420    88351127.31547
  23447515.640   123217526.383 7  23447515.000    96013657.55046
  21607677.560   113549166.513 8  21607676.320    88479894.07447
  21343555.160   112161144.368 8  21343553.800    87398295.06247
  22394019.040   117681381.515 7  22394020.740    91699790.05847
  22496390.560   118219328.048 7  22496389.820    92118955.44446
  23339136.960   122647999.339 7  23339134.340    95569847.46146
  24280490.760   127594834.389 6  24280491.740    99424548.78546
  23247932.960   122168713.211 7  23247933.760    95196404.07145
 14  1 10  4 31  0.0000000  0  9G06G31G21G16G27G18G22G29G03
  21566953.080   113335114.118 7  21566953.620    88313078.87247
  23465885.740   123314061.539 7  23465884.880    96088879.75846
  21616966.000   113597977.075 8  21616964.700    88517928.28147
  21331892.880   112099858.838 8  21331891.540    87350540.10847
  22382331.320   117619962.135 7  22382332.940    91651930.80047
  22487372.700   118171938.319 7  22487371.880    92082028.39146
  23322150.220   122558732.718 7  23322147.480    95500289.05246
  24295042.260   127671302.651 6  24295043.020    99484134.40746
  23231512.900   122082425.476 7  23231513.520    95129166.90845
 14  1 10  4 31 30.0000000  0  9G06G31G21G16G27G18G22G29G03
  21557693.420   113286454.555 7  21557694.100    88275162.33947
  23484276.220   123410703.360 7  23484275.120    96164185.04646
  21626310.840   113647083.960 8  21626309.460    88556193.38547
  21320294.000   112038906.725 8  21320292.700    87303044.96347
  22370667.340   117558667.451 7  22370668.920    91604168.71147
  22478426.360   118124925.038 7  22478425.560    92045394.66846
  23305186.360   122469586.520 7  23305183.480    95430824.46846
  24309598.540   127747798.127 6  24309599.540    99543741.28846
  23215107.940   121996215.849 7  23215108.120    95061990.61446
 14  1 10  4 32  0.0000000  0  9G06G31G21G16G27G18G22G29G03
  21548464.800   113237957.834 7  21548465.500    88237372.70047
  23502685.220   123507442.057 7  23502683.780    96239565.81546
  21635710.460   113696478.781 8  21635709.020    88594682.85247
  21308757.700   111978283.729 8  21308756.440    87255806.26747
  22359025.880   117497490.990 7  22359027.440    91556498.75447
  22469550.780   118078283.724 7  22469549.900    92009050.79646
  23288244.500   122380556.807 7  23288241.720    95361450.66646
  24324158.780   127824314.347 6  24324160.120    99603364.25145
  23198716.820   121910078.479 7  23198716.820    94994870.59246
 14  1 10  4 32 30.0000000  0  9G06G31G21G16G27G18G22G29G03
  21539268.260   113189629.162 7  21539268.900    88199714.00247
  23521112.840   123604279.833 7  23521111.200    96315023.79946
  21645165.440   113746164.839 8  21645163.940    88633399.25947
  21297285.500   111917996.982 8  21297284.220    87208829.57747
  22347407.860   117436437.885 7  22347409.460    91508924.92247
  22460747.340   118032021.395 7  22460746.360    91973002.22646
  23271326.380   122291651.629 7  23271323.580    95292173.88046
  24338724.100   127900856.217 6  24338725.560    99663007.26645
  23182340.260   121824019.115 7  23182340.220    94927811.36846
 14  1 10  4 33  0.0000000  0  9G06G31G21G16G27G18G22G29G03
  21530102.560   113141462.711 7  21530103.120    88162181.70647
  23539557.560   123701207.798 7  23539555.700    96390552.06946
  21654674.320   113796134.315 8  21654672.820    88672336.50647
  21285876.460   111858042.167 8  21285875.260    87162111.55547
  22335812.160   117375502.167 7  22335813.860    91461442.56547
  22452015.120   117986133.482 7  22452014.100    91937245.42146
  23254431.320   122202867.684 7  23254428.500    95222991.57946
  24353293.380   127977417.787 6  24353294.920    99722665.62345
  23165977.520   121738032.168 7  23165977.300    94860808.58845
 14  1 10  4 33 30.0000000  0  9G06G31G21G16G27G18G22G29G03
  21520968.620   113093463.359 7  21520969.140    88124779.62447
  23558019.700   123798227.587 7  23558017.860    96466151.89946
  21664237.760   113846390.560 8  21664236.220    88711497.20847
  21274531.980   111798426.449 8  21274530.800    87115657.75347
  22324239.820   117314688.869 7  22324241.520    91414055.58347
  22443355.660   117940627.625 7  22443354.620    91901786.32546
  23237560.800   122114212.363 7  23237557.880    95153909.49346
  24367867.420   128054003.552 6  24367868.760    99782342.84446
  23149629.500   121652122.801 7  23149629.220    94793866.23946
 14  1 10  4 34  0.0000000  0  9G06G31G21G16G27G18G22G29G03
  21511866.620   113045632.084 7  21511867.080    88087508.51547
  23576498.760   123895337.014 7  23576497.140    96541821.55846
  21673855.540   113896932.422 8  21673853.960    88750880.47947
  21263252.500   111739152.618 8  21263251.380    87069470.36047
  22312690.940   117253998.861 7  22312692.620    91366764.68447
  22434769.340   117895506.343 7  22434768.360    91866626.90346
  23220715.440   122025689.339 7  23220712.540    95084930.50746
  24382446.200   128130614.273 6  24382447.260    99842039.47345
  23133296.640   121566292.882 7  23133296.380    94726985.78046
 14  1 10  4 34 30.0000000  0  9G06G31G21G16G27G18G22G29G03
  21502796.760   112997969.650 8  21502797.120    88050368.97347
  23594994.540   123992533.685 7  23594993.160    96617559.19146
  21683527.420   113947758.620 8  21683525.860    88790485.30347
  21252038.780   111680223.683 8  21252037.620    87023551.71047
  22301165.580   117193432.932 7  22301167.200    91319570.45047
  22426256.580   117850771.785 7  22426255.700    91831768.80546
  23203895.800   121937301.786 7  23203893.020    95016057.10646
  24397029.640   128207250.587 6  24397030.660    99901756.10145
  23116979.060   121480543.410 7  23116978.760    94660168.02646
 14  1 10  4 35  0.0000000  0  9G06G31G21G16G27G18G22G29G03
  21493758.380   112950472.624 7  21493758.660    88013358.31847
  23613505.900   124089811.289 7  23613504.560    96693359.90446
  21693252.240   113998863.409 8  21693250.780    88830307.21547
  21240890.280   111621637.977 8  21240889.080    86977900.51147
  22289663.100   117132987.525 7  22289664.720    91272470.14347
  22417817.200   117806422.861 7  22417816.420    91797211.22146
  23187101.840   121849048.967 7  23187099.020    94947288.65546
  24411617.240   128283908.761 6  24411618.240    99961489.74446
  23100676.100   121394871.179 7  23100675.880    94593410.46246
 14  1 10  4 35 30.0000000  0  9G06G31G21G16G27G18G22G29G03
  21484751.800   112903142.498 8  21484752.040    87976477.70447
  23632032.440   124187167.800 7  23632030.780    96769222.11446
  21703030.040   114050246.529 8  21703028.680    88870346.00547
  21229807.700   111563398.805 8  21229806.520    86932519.33847
  22278183.880   117072664.145 7  22278185.480    91225464.92547
  22409451.700   117762462.301 7  22409451.020    91762956.25346
  23170334.320   121760934.900 7  23170331.400    94878628.31046
  24426209.140   128360590.086 6  24426210.160   100021241.41545
  23084388.400   121309278.480 7  23084388.100    94526714.86946
 14  1 10  4 36  0.0000000  0  9G06G31G21G16G27G18G22G29G03
  21475777.360   112855981.193 8  21475777.560    87939728.64547
  23650573.940   124284602.518 7  23650572.100    96845145.23346
  21712860.940   114101908.309 8  21712859.600    88910601.93647
  21218791.900   111505510.501 8  21218790.740    86887411.57647
  22266728.180   117012464.614 7  22266729.780    91178556.21747
  22401160.860   117718894.176 7  22401160.280    91729007.06746
  23153594.000   121672964.119 7  23153591.060    94810079.65846
  24440805.700   128437296.081 6  24440806.800   100081012.31245
  23068116.180   121223767.279 7  23068115.740    94460082.78546
 14  1 10  4 36 30.0000000  0  9G06G31G21G16G27G18G22G29G03
  21466834.520   112808986.057 8  21466834.640    87903109.07147
  23669129.100   124382109.373 7  23669127.240    96921124.55146
  21722743.900   114153843.694 8  21722742.580    88951071.06247
  21207842.860   111447972.487 8  21207841.580    86842576.75847
  22255295.560   116952386.266 7  22255297.180    91131741.92647
  22392944.440   117675717.112 7  22392944.080    91695362.62046
  23136880.920   121585136.509 7  23136878.060    94741642.54346
  24455406.600   128514023.916 6  24455407.620   100140800.24445
  23051859.220   121138335.773 7  23051858.460    94393512.77846
 14  1 10  4 37  0.0000000  0  9G06G31G21G16G27G18G22G29G03
  21457923.900   112762160.341 8  21457924.020    87866621.50447
  23687697.800   124479688.075 7  23687696.000    96997159.89146
  21732679.260   114206054.205 8  21732677.880    88991754.57247
  21196961.240   111390789.277 8  21196959.900    86798018.41547
  22243886.640   116892432.225 7  22243888.300    91085024.47247
  22384803.420   117632935.877 7  22384803.120    91662026.59246
  23120196.220   121497457.974 7  23120193.480    94673321.59846
  24470012.180   128590776.544 6  24470012.840   100200607.43745
  23035617.920   121052987.211 7  23035617.180    94327007.44446
 14  1 10  4 37 30.0000000  0  9G06G31G21G16G27G18G22G29G03
  21449045.460   112715503.346 8  21449045.500    87830265.41247
  23706279.280   124577335.635 7  23706277.820    97073248.86046
  21742666.500   114258537.012 8  21742664.980    89032650.26547
  21186147.460   111333962.433 8  21186146.140    86753737.76147
  22232501.300   116832601.815 7  22232502.880    91038403.38147
  22376738.120   117590552.158 7  22376737.840    91629000.33646
  23103540.360   121409930.379 7  23103537.580    94605118.28746
  24484622.360   128667553.127 6  24484622.940   100260433.29946
  23019392.420   120967721.659 7  23019391.660    94260566.75846
 14  1 10  4 38  0.0000000  0  9G06G31G21G16G27G18G22G29G03
  21440198.780   112669013.986 8  21440198.880    87794039.94647
  23724873.020   124675047.176 7  23724871.840    97149387.71746
  21752704.880   114311288.865 8  21752703.300    89073755.59847
  21175401.560   111277492.478 8  21175400.320    86709735.20747
  22221139.380   116772893.881 7  22221140.660    90991877.70847
  22368748.580   117548566.382 7  22368748.200    91596284.15146
  23086913.380   121322555.067 7  23086910.580    94537033.64346
  24499236.780   128744352.223 6  24499237.640   100320276.72446
  23003182.560   120882538.157 7  23003181.800    94194189.99945
 14  1 10  4 38 30.0000000  0  9G06G31G21G16G27G18G22G29G03
  21431384.400   112622694.774 8  21431384.600    87757947.06547
  23743478.780   124772822.301 7  23743477.980    97225576.10546
  21762794.600   114364310.728 8  21762793.040    89115071.33747
  21164724.400   111221383.881 8  21164723.240    86666014.22547
  22209801.260   116713311.002 7  22209802.280    90945449.49447
  22360835.480   117506982.301 7  22360835.040    91563880.98646
  23070316.380   121235337.125 7  23070313.400    94469071.58246
  24513856.040   128821176.261 6  24513856.820   100380139.59546
  22986988.620   120797440.007 6  22986988.340    94127879.79146
 14  1 10  4 39  0.0000000  0  9G06G31G21G16G27G18G22G29G03
  21422601.980   112576543.095 8  21422602.280    87721984.73447
  23762095.560   124870655.133 7  23762095.120    97301809.44445
  21772934.680   114417597.655 8  21772933.240    89156593.61347
  21154115.960   111165636.403 8  21154114.860    86622574.63147
  22198486.320   116653850.394 7  22198487.260    90899116.55547
  22352998.560   117465799.213 7  22352998.160    91531790.27646
  23053749.280   121148276.472 7  23053746.340    94401232.10546
  24528479.460   128898022.103 6  24528480.340   100440019.42046
  22970810.520   120712425.054 6  22970810.640    94061634.38246
 14  1 10  4 39 30.0000000  0  9G06G31G21G16G27G18G22G29G03
  21413851.920   112530561.461 8  21413852.160    87686154.89247
  23780723.360   124968545.306 7  23780723.080    97378087.45246
  21783125.420   114471150.520 8  21783124.060    89198323.11547
  21143577.100   111110254.356 8  21143575.960    86579419.79847
  22187195.100   116594514.672 7  22187196.180    90852880.92347
  22345238.680   117425021.029 7  22345238.220    91500015.06346
  23037213.140   121061378.238 7  23037210.260    94333519.19046
  24543107.380   128974892.087 6  24543108.440   100499918.07245
  22954649.000   120627495.998 7  22954649.200    93995455.94445
 14  1 10  4 40  0.0000000  0  9G06G31G21G16G27G18G22G29G03
  21405134.240   112484749.770 8  21405134.360    87650457.47247
  23799361.600   125066489.308 7  23799361.280    97454407.41146
  21793366.320   114524966.952 8  21793364.980    89240258.00147
  21133108.080   111055239.130 8  21133106.780    86536550.78647
  22175927.560   116535303.549 7  22175928.740    90806742.39247
  22337556.060   117384648.990 7  22337555.700    91468556.34046
  23020708.420   120974644.895 7  23020705.460    94265934.76446
  24557739.800   129051786.057 6  24557741.020   100559835.42346
  22938503.860   120542653.104 6  22938504.180    93929344.60845
 14  1 10  4 40 30.0000000  0  9G06G31G21G16G27G18G22G29G03
  21396449.200   112439109.424 8  21396449.240    87614893.57547
  23818009.720   125164485.407 6  23818009.380    97530767.97446
  21803657.280   114579046.428 8  21803655.960    89282397.84647
  21122709.500   111000594.136 8  21122708.120    86493970.28047
  22164684.040   116476218.497 7  22164685.360    90760702.10247
  22329951.500   117344686.590 7  22329951.160    91437416.81146
  23004235.840   120888080.401 7  23004232.820    94198481.89646
  24572376.920   129128705.241 6  24572378.100   100619772.40245
  22922375.300   120457898.394 6  22922375.800    93863302.00846
 14  1 10  4 41  0.0000000  0  9G06G31G21G16G27G18G22G29G03
  21387796.180   112393637.397 8  21387796.220    87579460.84147
  23836666.660   125262527.676 6  23836666.260    97607164.51546
  21813997.380   114633383.855 8  21813996.040    89324738.69247
  21112381.200   110946318.501 8  21112379.860    86451677.57547
  22153464.000   116417256.395 7  22153465.320    90714757.61947
  22322424.680   117305132.368 7  22322424.260    91406595.35746
  22987795.260   120801684.210 7  22987792.300    94131160.20146
  24587018.120   129205645.839 6  24587019.460   100679726.09445
  22906263.140   120373229.536 7  22906263.780    93797326.27645
 14  1 10  4 41 30.0000000  0  8G06G31G21G16G27G18G22G03
  21379175.540   112348335.760 8  21379175.640    87544160.86547
  23855332.120   125360614.902 6  23855331.720    97683596.09546
  21824386.500   114687979.396 7  21824385.200    89367280.66147
  21102123.880   110892415.884 8  21102122.560    86409675.54047
  22142267.780   116358419.320 7  22142269.140    90668910.54247
  22314976.040   117265989.669 7  22314975.580    91376094.56246
  22971387.520   120715460.823 7  22971384.580    94063973.11946
  22890168.000   120288648.973 7  22890168.660    93731419.34045
 14  1 10  4 42  0.0000000  0  8G06G31G21G16G27G18G22G03
  21370587.580   112303205.796 8  21370587.720    87508994.66047
  23874005.760   125458745.267 6  23874005.260    97760061.27146
  21834824.660   114742832.341 8  21834823.380    89410023.21247
  21091938.140   110838889.298 8  21091936.820    86367966.51447
  22131095.540   116299708.419 7  22131096.880    90623161.80947
  22307606.260   117227261.311 7  22307605.800    91345916.62546
  22955013.400   120629414.071 7  22955010.360    93996923.70046
  22874090.020   120204157.727 7  22874090.460    93665581.99145
 14  1 10  4 42 30.0000000  0  8G06G31G21G16G27G18G22G03
  21362031.920   112258245.534 8  21362032.100    87473960.69547
  23892686.820   125556913.660 7  23892685.940    97836556.08446
  21845310.980   114797938.406 8  21845309.740    89452963.00347
  21081824.020   110785739.071 8  21081822.660    86326550.75147
  22119946.900   116241121.810 7  22119948.180    90577509.92247
  22300315.340   117188947.060 7  22300314.760    91316061.37746
  22938672.960   120543544.626 7  22938669.980    93930012.44246
  22858028.820   120119754.821 7  22858029.020    93599813.50146
 14  1 10  4 43  0.0000000  0  8G06G31G21G16G27G18G22G03
  21353509.120   112213457.957 8  21353509.240    87439061.28947
  23911375.200   125655119.812 7  23911373.900    97913080.31046
  21855845.660   114853298.639 7  21855844.480    89496100.84147
  21071782.400   110732969.639 8  21071781.020    86285431.70947
  22108822.460   116182662.284 7  22108823.580    90531957.04647
  22293104.000   117151050.874 7  22293103.240    91286531.89146
  22922367.440   120457858.282 7  22922364.520    93863243.87146
  22841985.020   120035443.486 7  22841985.180    93534116.35346
 14  1 10  4 43 30.0000000  0  8G06G31G21G16G27G18G22G03
  21345018.480   112168839.145 8  21345018.520    87404293.38647
  23930069.340   125753356.379 7  23930067.700    97989628.22046
  21866427.600   114908907.319 7  21866426.480    89539432.27047
  21061812.740   110680578.730 8  21061811.540    86244607.63647
  22097721.480   116124325.935 7  22097722.460    90486500.16847
  22285971.720   117113570.487 7  22285970.900    91257326.40146
  22906096.360   120372352.852 7  22906093.420    93796616.25946
  22825958.060   119951220.778 7  22825958.220    93468488.28746
 14  1 10  4 44  0.0000000  0  8G06G31G21G16G27G18G22G03
  21336560.620   112124392.484 8  21336560.600    87369659.63647
  23948769.140   125851623.965 6  23948767.360    98066200.32346
  21877057.020   114964765.466 7  21877055.900    89582958.09747
  21051916.080   110628571.562 8  21051915.000    86204082.56647
  22086644.420   116066116.139 7  22086645.520    90441141.89947
  22278919.480   117076510.755 7  22278918.680    91228448.69646
  22889860.900   120287034.581 7  22889857.980    93730134.49046
  22809948.660   119867090.164 7  22809948.660    93402931.94846
 14  1 10  4 44 30.0000000  0  8G06G31G21G16G27G18G22G03
  21328135.740   112080119.525 8  21328135.780    87335161.22647
  23967474.280   125949920.660 7  23967472.680    98142795.09646
  21887733.820   115020872.637 7  21887732.720    89626677.96347
  21042093.180   110576952.103 8  21042092.180    86163859.62347
  22075591.700   116008034.460 7  22075593.020    90395883.45847
  22271947.840   117039874.629 7  22271947.060    91199901.07046
  22873661.760   120201907.697 7  22873658.940    93663801.85046
  22793957.080   119783053.658 7  22793957.060    93337448.95646
 14  1 10  4 45  0.0000000  0  8G06G31G21G16G27G18G22G03
  21319743.700   112036019.314 8  21319743.820    87300797.43847
  23986184.280   126048243.280 6  23986183.040    98219410.07446
  21898457.460   115077225.869 7  21898456.380    89670589.56747
  21032344.280   110525721.322 8  21032343.240    86123939.53647
  22064563.120   115950079.903 7  22064564.660    90350724.07947
  22265056.960   117003662.726 7  22265056.220    91171684.01546
  22857499.400   120116973.890 7  22857496.680    93597619.66546
  22777983.320   119699110.659 7  22777983.340    93272038.85846
