     2.11           OBSERVATION DATA    G (GPS)             RINEX VERSION / TYPE
teqc  2015Nov6      RinexTools-CRAAG    20161009 23:07:02UTCPGM / RUN BY / DATE
Linux2.4.20-8|i386|gcc|Win32-MinGW32|=                      COMMENT
BIT 2 OF LLI FLAGS DATA COLLECTED UNDER A/S CONDITION       COMMENT
ABZH                                                        MARKER NAME
ABZH                                                        MARKER NUMBER
-Unknown-           C.R.A.A.G.                              OBSERVER / AGENCY
462405              LEICA GRX1200PRO    8.20/2.127          REC # / TYPE / VERS
                    LEIAT504        NONE                    ANT # / TYPE
  5106718.0001   270608.4113  3799529.0032                  APPROX POSITION XYZ
        0.0770        0.0000        0.0000                  ANTENNA: DELTA H/E/N
     1     1                                                WAVELENGTH FACT L1/2
     4    C1    L1    P2    L2                              # / TYPES OF OBSERV
    30.0000                                                 INTERVAL
SPIDER                                                      COMMENT
Made by Spider v4.0.0                                       COMMENT
Project creator:                                            COMMENT
                                                            COMMENT
 SNR is mapped to RINEX snr flag value [0-9]                COMMENT
  L1 & L2: min(max(int(snr_dBHz/6), 0), 9)                  COMMENT
teqc edited: all GLONASS satellites excluded                COMMENT
  2014     1     9     7    37    0.0000000     GPS         TIME OF FIRST OBS
                                                            END OF HEADER
 14  1  9  7 37  0.0000000  0 11G19G06G11G16G32G01G27G18G22G03G14
  20717675.840   108872133.331 8  20717673.640    84835414.72948
  21089791.280   110827602.462 8  21089792.240    86359167.97847
  21882873.520   114995272.101 8  21882872.560    89606703.81746
  23031280.460   121030166.604 7  23031281.580    94309209.08346
  22559639.480   118551712.152 7  22559641.300    92377962.72646
  23286898.920   122373461.868 7  23286902.980    95355973.70446
  20567845.600   108084758.779 8  20567847.600    84221899.54748
  24719337.200   129900960.045 6  24719335.840   101221526.95244
  21857260.760   114860680.022 8  21857257.360    89501824.51447
  19896695.380   104557836.266 8  19896695.860    81473641.33548
  23733071.060   124718131.215 6  23733073.720    97182974.55245
 14  1  9  7 37 30.0000000  0 11G19G06G11G16G32G01G27G18G22G03G14
  20711133.080   108837750.961 8  20711130.960    84808623.27048
  21099222.360   110877163.133 8  21099223.340    86397786.65947
  21869840.320   114926781.786 8  21869839.380    89553334.73946
  23050601.140   121131697.232 7  23050602.140    94388323.80246
  22540079.800   118448925.779 7  22540081.700    92297869.48346
  23273221.320   122301585.774 7  23273225.480    95299966.34946
  20573426.900   108114088.674 8  20573428.880    84244753.99148
  24736845.020   129992963.551 6  24736843.360   101293217.90544
  21869452.780   114924749.598 8  21869449.400    89551748.83347
  19900567.840   104578185.871 8  19900568.240    81489498.14848
  23721605.220   124657877.073 6  23721607.540    97136023.27446
 14  1  9  7 38  0.0000000  0 11G19G06G11G16G32G01G27G18G22G03G14
  20704652.100   108803693.263 8  20704650.040    84782084.80048
  21108721.940   110927083.718 8  21108722.920    86436685.79447
  21856842.640   114858478.446 7  21856841.780    89500111.35146
  23069957.800   121233417.067 7  23069958.640    94467585.92546
  22520575.740   118346432.043 7  22520577.780    92218004.28146
  23259571.080   122229853.187 7  23259575.340    95244070.82946
  20579086.680   108143831.047 8  20579088.640    84267929.84648
  24754373.820   130085076.579 6  24754371.460   101364994.06544
  21881714.120   114989183.464 8  21881710.840    89601957.01147
  19904537.440   104599046.157 8  19904537.840    81505752.89048
  23710194.100   124597910.069 6  23710196.040    97089295.77345
 14  1  9  7 38 30.0000000  0 11G19G06G11G16G32G01G27G18G22G03G14
  20698233.300   108769962.115 8  20698231.200    84755800.78048
  21118289.960   110977364.026 8  21118290.920    86475865.23747
  21843880.600   114790362.955 7  21843879.900    89447034.33247
  23089350.120   121335323.495 7  23089350.700    94546993.45846
  22501127.900   118244233.671 7  22501129.940    92138369.21546
  23245948.180   122158264.361 7  23245952.460    95188287.29046
  20584825.100   108173986.422 8  20584827.060    84291427.50848
  24771923.020   130177297.181 6  24771920.540   101436854.13143
  21894044.480   115053979.578 8  21894041.300    89652447.45947
  19908604.260   104620417.493 8  19908604.680    81522405.85648
  23698838.040   124538233.305 6  23698839.900    97042794.40745
 14  1  9  7 39  0.0000000  0 11G19G06G11G16G32G01G27G18G22G03G14
  20691876.880   108736558.763 8  20691874.680    84729772.18048
  21127926.420   111028003.752 8  21127927.340    86515324.74947
  21830954.300   114722435.242 7  21830953.720    89394103.65546
  23108777.420   121437413.229 7  23108777.760    94626543.83346
  22481736.640   118142332.614 7  22481738.620    92058965.82646
  23232352.680   122086818.809 7  23232356.760    95132615.43546
  20590642.120   108204554.561 8  20590644.040    84315246.81248
  24789492.300   130269623.298 6  24789489.880   101508796.28845
  21906443.220   115119135.228 8  21906440.060    89703218.07147
  19912768.260   104642299.414 8  19912768.680    81539456.68548
  23687537.600   124478848.675 6  23687539.380    96996520.65945
 14  1  9  7 39 30.0000000  0 11G19G06G11G16G32G01G27G18G22G03G14
  20685583.220   108703485.146 8  20685581.040    84704000.52948
  21137631.260   111079002.891 8  21137632.160    86555064.31247
  21818064.120   114654696.986 7  21818063.640    89341320.59946
  23128239.200   121539684.399 7  23128239.280    94706235.57346
  22462402.620   118040732.118 7  22462404.540    91979796.66046
  23218784.540   122015517.329 7  23218788.440    95077055.82246
  20596537.840   108235536.532 8  20596539.760    84339388.58548
  24807081.280   130362053.166 6  24807078.940   101580819.39442
  21918910.180   115184648.970 8  21918907.060    89754267.71947
  19917029.620   104664692.896 8  19917030.040    81556906.12948
  23676293.400   124419759.957 6  23676295.080    96950477.46845
 14  1  9  7 40  0.0000000  0 11G19G06G11G16G32G01G27G18G22G03G14
  20679352.460   108670742.100 8  20679350.240    84678486.46348
  21147404.340   111130360.569 8  21147405.200    86595083.26447
  21805209.940   114587147.987 7  21805209.540    89288685.01947
  23147734.680   121642132.721 7  23147734.460    94786065.35546
  22443126.140   117939433.818 7  22443127.980    91900862.96346
  23205243.740   121944359.249 7  23205247.460    95021607.94846
  20602512.180   108266931.890 8  20602514.100    84363852.47048
  24824689.540   130454584.159 6  24824687.360   101652921.29644
  21931444.760   115250518.102 8  21931441.780    89805594.28547
  19921388.220   104687597.331 8  19921388.680    81574753.72248
  23665105.820   124360969.290 6  23665107.600    96904666.51346
 14  1  9  7 40 30.0000000  0 11G19G06G11G16G32G01G27G18G22G03G14
  20673184.880   108638331.228 8  20673182.620    84653231.23948
  21157245.680   111182076.749 8  21157246.480    86635381.57547
  21792392.040   114519789.003 7  21792391.500    89236197.49546
  23167263.320   121744755.797 7  23167263.080    94866031.30846
  22423907.780   117838440.379 7  22423909.520    91822166.78646
  23191730.120   121873344.773 7  23191733.960    94966271.97846
  20608565.340   108298741.088 8  20608567.240    84388638.83348
  24842316.760   130547214.882 6  24842314.740   101725100.84344
  21944046.480   115316740.579 8  21944043.680    89857196.18947
  19925844.080   104711012.789 8  19925844.540    81592999.51148
  23653975.520   124302479.589 6  23653977.460    96859090.10846
 14  1  9  7 41  0.0000000  0 11G19G06G11G16G32G01G27G18G22G03G14
  20667080.680   108606253.417 8  20667078.420    84628235.53648
  21167155.120   111234150.591 8  21167155.800    86675958.56747
  21779610.260   114452620.272 7  21779609.620    89183858.23946
  23186824.540   121847550.418 7  23186824.440    94946130.94546
  22404747.800   117737753.736 7  22404749.500    91743709.69346
  23178243.780   121802473.325 7  23178247.540    94911047.47246
  20614697.080   108330963.783 8  20614699.020    84413747.40248
  24859962.380   130639942.405 6  24859960.740   101797355.91745
  21956714.860   115383313.670 8  21956712.200    89909071.30447
  19930397.160   104734938.994 8  19930397.560    81611643.28748
  23642903.380   124244292.043 6  23642904.480    96813741.89946
 14  1  9  7 41 30.0000000  0 11G19G06G11G16G32G01G27G18G22G03G14
  20661040.300   108574511.334 8  20661038.120    84603501.43748
  21177132.780   111286583.309 8  21177133.420    86716815.20047
  21766864.960   114385643.981 7  21766864.440    89131668.91747
  23206418.100   121950515.384 7  23206418.240    95026363.31746
  22385646.880   117637377.837 7  22385648.500    91665494.72746
  23164784.880   121731746.510 7  23164788.660    94855935.67046
  20620907.840   108363601.810 8  20620909.860    84439179.60048
  24877626.420   130732766.671 6  24877625.160   101869686.30344
  21969449.860   115450236.802 8  21969447.220    89961219.17847
  19935047.640   104759377.269 8  19935047.980    81630686.07648
  23631889.260   124186412.764 6  23631890.480    96768641.15245
 14  1  9  7 42  0.0000000  0 11G19G06G11G16G32G01G27G18G22G03G14
  20655064.020   108543105.731 8  20655061.880    84579029.54348
  21187178.260   111339372.799 8  21187178.960    86757949.84547
  21754156.180   114318859.277 7  21754155.740    89079628.88446
  23226043.080   122053646.064 7  23226043.680    95106724.79646
  22366605.300   117537313.719 7  22366606.900    91587522.71046
  23151353.180   121661162.881 7  23151357.060    94800935.41546
  20627197.440   108396653.875 8  20627199.500    84464934.43048
  24895308.140   130825683.844 6  24895307.200   101942089.10644
  21982250.780   115517506.243 8  21982248.120    90013636.90647
  19939795.320   104784326.511 8  19939795.640    81650127.01948
  23620934.000   124128841.974 7  23620935.400    96723780.77845
 14  1  9  7 42 30.0000000  0 10G19G06G11G16G32G01G27G22G03G14
  20649151.740   108512036.585 8  20649149.580    84554819.81748
  21197291.320   111392517.827 8  21197292.100    86799361.53147
  21741483.900   114252265.818 7  21741483.480    89027737.87646
  23245698.840   122156938.505 7  23245699.800    95187212.34546
  22347623.240   117437562.463 7  22347624.880    91509794.47846
  23137948.580   121590721.251 7  23137952.560    94746045.83746
  20633565.680   108430119.040 8  20633567.740    84491011.14248
  21995116.940   115585118.588 8  21995114.340    90066321.82647
  19944640.020   104809785.474 8  19944640.360    81669965.14948
  23610037.680   124071581.526 7  23610039.240    96679162.24545
 14  1  9  7 43  0.0000000  0 10G19G06G11G16G32G01G27G22G03G14
  20643305.800   108481315.913 8  20643303.680    84530881.63148
  21207474.000   111446028.571 8  21207474.820    86841058.19247
  21728850.080   114185874.764 7  21728849.740    88976004.59447
  23265386.960   122260400.829 7  23265388.160    95267832.26146
  22328703.340   117338137.362 7  22328704.960    91432320.39346
  23124572.960   121520432.377 7  23124577.040    94691275.25546
  20640014.640   108464008.235 8  20640016.700    84517418.28148
  22008049.960   115653082.248 8  22008047.480    90119280.49247
  19949583.720   104835764.698 8  19949584.100    81690208.67648
  23599202.880   124014644.712 6  23599204.580    96634795.83746
 14  1  9  7 43 30.0000000  0 10G19G06G11G16G32G01G27G22G03G14
  20637523.640   108450930.260 8  20637521.500    84507204.50148
  21217723.460   111499890.070 8  21217724.340    86883028.16047
  21716252.060   114119672.019 7  21716251.920    88924418.04947
  23285103.980   122364014.718 7  23285105.400    95348570.28146
  22309843.080   117239025.859 7  22309844.700    91355090.67846
  23111223.700   121450281.484 7  23111227.660    94636612.21446
  20646541.540   108498306.840 8  20646543.560    84544144.43648
  22021046.620   115721380.378 7  22021044.340    90172499.77547
  19954623.520   104862249.034 8  19954623.960    81710845.80048
  23588427.260   123958019.180 6  23588429.240    96590672.03345
 14  1  9  7 44  0.0000000  0 10G19G06G11G16G32G01G27G22G03G14
  20631806.200   108420884.973 8  20631804.060    84483792.58348
  21228040.320   111554105.659 8  21228041.280    86925274.04947
  21703690.760   114053662.107 7  21703690.720    88872981.77746
  23304850.220   122467781.431 7  23304851.600    95429427.38646
  22291043.580   117140234.061 7  22291045.220    91278110.07946
  23097901.380   121380272.278 7  23097905.320    94582059.55746
  20653147.020   108533018.580 8  20653149.020    84571192.51448
  22034107.240   115790014.502 8  22034105.100    90225980.89047
  19959760.200   104889242.477 8  19959760.620    81731879.63048
  23577712.260   123901711.369 6  23577714.260    96546795.80546
 14  1  9  7 44 30.0000000  0 10G19G06G11G16G32G01G27G22G03G14
  20626154.320   108391184.085 8  20626152.200    84460649.03048
  21238424.940   111608677.108 8  21238425.940    86967797.22547
  21691166.820   113987848.251 8  21691166.760    88821698.27147
  23324625.500   122571700.958 7  23324626.760    95510403.55746
  22272305.880   117041766.917 7  22272307.460    91201382.44746
  23084606.420   121310407.186 7  23084610.500    94527619.20947
  20659831.620   108568146.311 8  20659833.600    84598564.74248
  22047231.920   115858984.922 8  22047229.800    90279724.04347
  19964994.300   104916747.737 8  19964994.700    81753312.27448
  23567058.800   123845726.510 7  23567060.580    96503171.26645
 14  1  9  7 45  0.0000000  0 10G19G06G11G16G32G01G27G22G03G14
  20620567.980   108361827.242 8  20620565.840    84437773.55948
  21248877.080   111663602.925 8  21248878.020    87010596.53747
  21678680.100   113922229.637 8  21678679.920    88770566.88846
  23344429.000   122675768.754 7  23344430.100    95591495.25446
  22253630.120   116943625.486 7  22253631.740    91124908.62546
  23071338.760   121240685.046 7  23071343.020    94473290.26747
  20666595.120   108603688.794 8  20666597.120    84626260.14648
  22060419.940   115928287.925 8  22060417.720    90333726.34447
  19970325.480   104944763.141 8  19970325.920    81775142.42748
  23556467.080   123790066.044 7  23556468.440    96459799.51745
 14  1  9  7 45 30.0000000  0 10G19G06G11G16G32G01G27G22G03G14
  20615047.700   108332817.738 8  20615045.540    84415168.74348
  21259396.840   111718883.841 8  21259397.660    87053672.53847
  21666230.920   113856808.253 8  21666230.540    88719589.19447
  23364260.420   122779983.209 7  23364261.400    95672701.24346
  22235016.980   116845813.466 7  22235018.740    91048691.49546
  23058098.600   121171107.013 7  23058102.840    94419073.61646
  20673437.800   108639647.385 8  20673439.900    84654279.80148
  22073671.020   115997922.660 8  22073668.800    90387987.14847
  19975753.940   104973289.822 8  19975754.420    81797370.98448
  23545937.840   123734734.042 7  23545939.060    96416683.70645
 14  1  9  7 46  0.0000000  0 10G19G06G11G16G32G01G27G22G03G14
  20609594.080   108304158.625 8  20609591.860    84392836.95448
  21269984.360   111774521.090 8  21269985.080    87097026.21047
  21653819.640   113791586.449 7  21653819.080    88668767.00546
  23384119.460   122884342.832 7  23384120.260    95754020.34046
  22216467.280   116748334.555 7  22216469.080    90972733.92246
  23044886.080   121101674.625 7  23044890.160    94364970.45246
  20680360.000   108676023.716 8  20680362.180    84682624.95948
  22086985.020   116067888.305 7  22086982.820    90442505.78347
  19981279.940   105002329.240 8  19981280.400    81819999.07348
  23535471.780   123679734.404 7  23535473.080    96373826.92545
 14  1  9  7 46 30.0000000  0 10G19G06G11G16G32G01G27G22G03G14
  20604206.880   108275848.650 8  20604204.660    84370777.22348
  21280639.060   111830511.798 8  21280639.840    87140655.29747
  21641445.940   113726562.464 8  21641445.280    88618098.96946
  23404005.160   122988842.615 7  23404005.880    95835448.66246
  22197981.000   116651188.831 7  22197982.840    90897035.98346
  23031700.920   121032385.519 7  23031704.740    94310978.95346
  20687361.300   108712815.551 8  20687363.520    84711293.89548
  22100361.120   116138180.369 7  22100359.020    90497278.79347
  19986903.000   105031878.778 8  19986903.460    81843024.66448
  23525068.900   123625067.713 7  23525070.380    96331229.56345
 14  1  9  7 47  0.0000000  0 10G19G06G11G16G32G01G27G22G03G14
  20598886.540   108247890.511 8  20598884.360    84348991.64248
  21291361.100   111886856.698 8  21291362.020    87184560.38947
  21629110.280   113661738.199 8  21629109.580    88567586.54647
  23423917.260   123093480.987 7  23423917.960    95916984.96646
  22179558.840   116554379.950 7  22179560.680    90821600.51046
  23018543.160   120963241.095 7  23018546.960    94257100.18746
  20694441.960   108750024.300 8  20694444.120    84740287.69648
  22113799.200   116208798.045 7  22113797.240    90552305.50547
  19992623.460   105061939.743 8  19992623.880    81866448.76648
  23514730.080   123570737.682 7  23514731.780    96288894.53645
 14  1  9  7 47 30.0000000  0 10G19G06G11G16G32G01G27G22G03G14
  20593633.420   108220285.274 8  20593631.280    84327481.05548
  21302150.460   111943554.984 8  21302151.420    87228740.84347
  21616812.700   113597113.917 8  21616812.080    88517229.94247
  23443855.040   123198254.575 7  23443855.880    95998626.63546
  22161201.200   116457909.807 7  22161203.060    90746428.99346
  23005412.860   120894240.810 7  23005416.700    94203333.74847
  20701601.820   108787649.608 8  20701604.000    84769606.08948
  22127298.640   116279738.533 7  22127296.860    90607583.76647
  19998441.140   105092511.561 8  19998441.540    81890270.93748
  23504455.780   123516746.384 7  23504457.600    96246823.47845
 14  1  9  7 50 30.0000000  3  0
 14  1  9  7 50 30.0000000  0 10G01G19G03G27G22G06G32G16G14G11
  22927206.260   120483280.864 7  22927210.460    93883093.96246
  20563539.220   108062125.819 8  20563536.920    84204244.69048
  20035384.580   105286655.315 8  20035385.160    82041552.26648
  20746225.140   109022148.125 8  20746227.360    84952331.98548
  22209561.760   116712032.386 7  22209559.940    90944434.59447
  21368292.380   112291133.590 8  21368293.560    87499588.64347
  22052432.680   115886314.299 7  22052434.120    90301031.91946
  23563991.120   123829605.199 7  23563991.980    96490608.61046
  23444190.380   123200052.270 7  23444192.560    96000046.62146
  21543833.260   113213607.020 8  21543832.880    88218390.53347
 14  1  9  7 51  0.0000000  0 10G01G19G03G27G22G06G32G16G14G11
  22914267.860   120415288.861 7  22914271.920    93830113.19146
  20558763.440   108037029.188 8  20558761.200    84184688.85648
  20041881.160   105320794.923 8  20041881.720    82068154.53248
  20753939.860   109062689.207 8  20753942.080    84983922.40248
  22223479.300   116785169.266 7  22223477.440    91001424.32647
  21379549.660   112350290.714 8  21379550.700    87545685.07347
  22034538.340   115792278.687 7  22034539.760    90227757.45146
  23584093.780   123935244.560 7  23584094.460    96572924.90145
  23434380.880   123148503.980 7  23434383.280    95959879.18746
  21531805.660   113150401.786 8  21531805.280    88169139.69847
 14  1  9  7 51 30.0000000  0 10G01G19G03G27G22G06G32G16G14G11
  22901357.100   120347442.462 7  22901361.140    93777245.86546
  20554057.240   108012298.038 8  20554055.080    84165417.81748
  20048474.780   105355444.525 8  20048475.280    82095154.20348
  20761734.140   109103648.365 8  20761736.340    85015838.59648
  22237455.120   116858612.643 7  22237453.160    91058652.88447
  21390873.660   112409798.421 8  21390874.540    87592054.68747
  22016712.200   115698601.473 7  22016713.500    90154762.24946
  23604218.020   124040997.658 7  23604218.680    96655329.80646
  23424639.960   123097316.416 7  23424642.500    95919992.84846
  21519817.500   113087403.751 8  21519817.120    88120050.32647
 14  1  9  7 52  0.0000000  0 10G01G19G03G27G22G06G32G16G14G11
  22888473.220   120279736.924 7  22888477.140    93724488.33346
  20549420.020   107987929.337 8  20549417.900    84146429.20348
  20055164.440   105390598.892 8  20055164.980    82122547.19748
  20769607.080   109145020.891 8  20769609.320    85048076.89648
  22251487.920   116932355.476 7  22251485.860    91116114.79147
  21402263.400   112469651.638 8  21402264.240    87638693.51547
  21998953.760   115605280.302 7  21998955.040    90082044.49247
  23624362.420   124146857.127 7  23624363.160    96737817.60546
  23414967.560   123046487.719 6  23414969.900    95880386.15646
  21507868.140   113024609.099 8  21507867.680    88071119.42247
 14  1  9  7 52 30.0000000  0 10G01G19G03G27G22G06G32G16G14G11
  22875616.660   120212175.571 7  22875620.540    93671843.14247
  20544852.600   107963927.499 8  20544850.560    84127726.46548
  20061950.780   105426261.354 8  20061951.360    82150336.10548
  20777559.320   109186809.989 8  20777561.560    85080639.79448
  22265577.920   117006398.513 8  22265575.660    91173810.62147
  21413719.360   112529852.935 8  21413720.300    87685603.58247
  21981264.060   115512320.582 7  21981265.380    90009608.38546
  23644527.120   124252823.327 7  23644527.980    96820388.58445
  23405364.640   122996023.435 7  23405366.760    95841063.44846
  21495958.220   112962021.663 8  21495957.700    88022349.99947
 14  1  9  7 53  0.0000000  0 10G01G19G03G27G22G06G32G16G14G11
  22862787.880   120144760.219 7  22862791.740    93619311.70947
  20540355.600   107940295.670 8  20540353.580    84109312.03948
  20068834.100   105462433.511 8  20068834.720    82178522.16848
  20785591.180   109229017.438 8  20785593.400    85113528.69148
  22279725.040   117080741.692 7  22279722.560    91231740.32647
  21425241.780   112590403.627 8  21425242.840    87732785.90447
  21963643.880   115419726.458 7  21963645.360    89937457.16746
  23664711.840   124358895.180 7  23664712.960    96903041.85346
  23395831.860   122945927.778 6  23395833.800    95802027.95146
  21484088.040   112899644.051 8  21484087.600    87973744.05747
 14  1  9  7 53 30.0000000  0 10G01G19G03G27G22G06G32G16G14G11
  22849986.360   120077487.751 7  22849990.240    93566891.61447
  20535928.700   107917032.232 8  20535926.680    84091184.67348
  20075813.720   105499111.630 8  20075814.300    82207102.50448
  20793702.000   109271639.977 8  20793704.220    85146741.03148
  22293928.260   117155379.757 7  22293925.720    91289899.79147
  21436829.940   112651299.979 8  21436831.120    87780237.57047
  21946093.000   115327496.891 7  21946094.680    89865590.02347
  23684915.600   124465066.826 7  23684916.940    96985772.90646
  23386369.060   122896200.205 7  23386370.820    95763279.28545
  21472257.300   112837473.534 8  21472256.920    87925299.50547
 14  1  9  7 54  0.0000000  0 10G01G19G03G27G22G06G32G16G14G11
  22837212.620   120010361.263 7  22837216.480    93514585.28247
  20531572.680   107894141.371 8  20531570.700    84073347.62848
  20082890.180   105536298.439 8  20082890.740    82236079.22048
  20801892.360   109314680.733 8  20801894.640    85180279.24348
  22308187.740   117230313.289 7  22308185.100    91348289.49747
  21448484.420   112712544.401 8  21448485.640    87827960.46047
  21928612.580   115235637.378 7  21928614.400    89794011.21147
  23705138.460   124571338.439 7  23705139.900    97068581.84646
  23376977.200   122846846.376 6  23376978.980    95724821.84846
  21460466.860   112775514.435 8  21460466.460    87877019.69647
 14  1  9  7 54 30.0000000  0 10G01G19G03G27G22G06G32G16G14G11
  22824466.460   119943379.372 7  22824470.300    93462391.60347
  20527287.740   107871623.692 8  20527285.680    84055801.35948
  20090063.080   105573992.115 8  20090063.640    82265450.89348
  20810162.000   109358138.113 8  20810164.260    85214142.10048
  22322502.780   117305538.719 7  22322500.160    91406906.65647
  21460204.820   112774135.054 8  21460205.960    87875953.12947
  21911202.740   115144148.575 7  21911204.720    89722721.28147
  23725379.620   124677705.809 7  23725381.240    97151465.40746
  23367656.580   122797867.348 6  23367658.460    95686656.46846
  21448716.580   112713765.986 8  21448716.040    87828904.01447
 14  1  9  7 55  0.0000000  0 10G01G19G03G27G22G06G32G16G14G11
  22811747.500   119876540.681 7  22811751.320    93410309.51047
  20523073.780   107849478.846 8  20523071.680    84038545.62148
  20097332.080   105612190.981 8  20097332.700    82295216.22248
  20818510.700   109402010.644 8  20818512.900    85248328.45748
  22336872.560   117381052.231 7  22336869.940    91465748.29647
  21471990.740   112836070.013 8  21471991.820    87924214.09647
  21893863.620   115053031.241 7  21893865.620    89651720.81247
  23745638.180   124784164.551 7  23745640.060    97234420.16845
  23358407.460   122749263.709 6  23358409.380    95648783.60546
  21437006.200   112652227.414 8  21437005.640    87780951.88547
 14  1  9  7 55 30.0000000  0 10G01G19G03G27G22G06G32G16G14G11
  22799056.020   119809846.185 7  22799059.800    93358339.76946
  20518931.180   107827708.918 8  20518929.060    84021582.02548
  20104697.320   105650895.415 8  20104697.940    82325375.50848
  20826938.560   109446299.221 8  20826940.760    85282839.00648
  22351296.980   117456852.628 7  22351294.360    91524813.47847
  21483842.200   112898349.394 8  21483843.240    87972743.45047
  21876595.940   114962288.684 7  21876597.800    89581012.37147
  23765913.880   124890713.335 7  23765915.920    97317445.07445
  23349230.780   122701039.696 7  23349232.640    95611206.55745
  21425336.080   112590900.559 8  21425335.540    87733164.71547
 14  1  9  7 56  0.0000000  0 10G01G19G03G27G22G06G32G16G14G11
  22786391.760   119743295.160 7  22786395.540    93306481.83646
  20514860.100   107806314.904 8  20514857.940    84004911.35248
  20112158.520   105690104.288 8  20112159.140    82355927.85648
  20835445.420   109491002.883 8  20835447.600    85317673.00148
  22365775.560   117532937.328 7  22365772.900    91584100.18147
  21495758.900   112960971.754 8  21495759.960    88021540.05447
  21859399.860   114871922.232 8  21859401.500    89510597.01046
  23786205.960   124997348.129 7  23786207.940    97400537.02945
  23340126.680   122653196.619 7  23340128.400    95573926.33946
  21413706.220   112529785.306 8  21413705.780    87685542.44247
 14  1  9  7 56 30.0000000  0 10G01G19G03G27G22G06G32G16G14G11
  22773755.100   119676889.702 7  22773758.920    93254737.33747
  20510861.120   107785300.073 8  20510858.920    83988536.13648
  20119716.040   105729819.534 8  20119716.720    82386874.77648
  20844031.660   109536123.663 8  20844033.820    85352832.02248
  22380308.080   117609305.640 7  22380305.300    91643607.87646
  21507741.160   113023938.653 8  21507742.220    88070605.12947
  21842276.180   114781936.200 7  21842277.520    89440478.06747
  23806514.280   125104068.240 7  23806516.260    97483695.41045
  23331095.880   122605739.145 7  23331097.460    95536946.57546
  21402117.200   112468884.770 8  21402116.900    87638087.48447
 14  1  9  7 57  0.0000000  0 10G01G19G03G27G22G06G32G16G14G11
  22761145.900   119610628.547 7  22761149.880    93203105.27547
  20506934.300   107764664.450 8  20506932.060    83972456.41348
  20127369.480   105770038.691 8  20127370.200    82418214.36048
  20852696.960   109581660.028 8  20852699.080    85388314.87148
  22394893.900   117685954.402 7  22394891.000    91703334.10547
  21519788.580   113087248.170 8  21519789.620    88119937.17347
  21825224.980   114692331.358 7  21825226.180    89370656.17347
  23826838.120   125210869.705 7  23826839.940    97566917.22046
  23322138.560   122558668.071 7  23322139.980    95500267.92346
  21390568.920   112408198.341 8  21390568.780    87590799.35747
 14  1  9  7 57 30.0000000  0 10G01G19G03G27G22G06G32G16G14G11
  22748564.360   119544512.361 7  22748568.240    93151586.17646
  20503080.040   107744410.156 8  20503077.820    83956673.82648
  20135118.960   105810762.144 8  20135119.640    82449946.89748
  20861441.500   109627612.554 8  20861443.600    85424122.00348
  22409532.840   117762882.015 7  22409529.820    91763277.64447
  21531901.260   113150900.563 8  21531902.220    88169536.39747
  21808246.840   114603110.652 7  21808248.020    89301133.59247
  23847176.980   125317750.314 6  23847178.400    97650200.70946
  23313255.380   122511986.816 7  23313256.620    95463892.99046
  21379061.720   112347727.316 8  21379061.660    87543679.08847
 14  1  9  7 58  0.0000000  0 10G01G19G03G27G22G06G32G16G14G11
  22736010.000   119478538.998 7  22736013.840    93100178.38846
  20499298.140   107724536.355 8  20499295.980    83941187.73148
  20142963.840   105851986.972 8  20142964.520    82482070.11748
  20870264.740   109673978.812 8  20870266.860    85460251.52048
  22424223.960   117840083.994 7  22424221.040    91823434.95847
  21544078.480   113214892.493 8  21544079.480    88219400.19647
  21791341.760   114514273.927 8  21791343.060    89231910.21147
  23867529.960   125424705.493 7  23867531.060    97733542.28445
  23304446.320   122465695.421 7  23304447.420    95427821.85446
  21367595.260   112287470.276 8  21367595.120    87496725.55447
 14  1  9  7 58 30.0000000  0 10G01G19G03G27G22G06G32G16G14G11
  22723483.660   119412712.789 7  22723487.460    93048885.25146
  20495589.700   107705048.463 8  20495587.540    83926002.34148
  20150904.820   105893717.088 8  20150905.560    82514587.07048
  20879167.520   109720762.961 8  20879169.640    85496706.66648
  22438967.560   117917562.253 7  22438964.940    91883807.55047
  21556321.120   113279227.898 8  21556322.140    88269531.64147
  21774510.880   114425827.645 7  21774512.300    89162991.08347
  23887897.280   125531736.301 7  23887898.300    97816942.79145
  23295712.600   122419800.440 7  23295713.700    95392059.57646
  21356170.480   112227432.567 8  21356170.240    87449942.93047
 14  1  9  7 59  0.0000000  0 10G01G19G03G27G22G06G32G16G14G11
  22710984.580   119347029.688 7  22710988.320    92997703.64646
  20491954.280   107685944.055 8  20491952.080    83911115.77348
  20158941.100   105935948.132 8  20158941.920    82547494.35748
  20888149.000   109767960.678 8  20888151.080    85533484.07948
  22453762.720   117995310.989 7  22453760.280    91944390.90047
  21568628.200   113343901.888 8  21568629.260    88319926.91547
  21757753.960   114337769.827 7  21757755.420    89094374.62947
  23908277.640   125638835.666 7  23908278.520    97900396.70645
  23287054.000   122374300.404 7  23287055.300    95356605.06846
  21344786.840   112167610.791 8  21344786.460    87403328.55547
 14  1  9  7 59 30.0000000  0 10G01G19G03G27G22G06G32G16G14G11
  22698512.680   119281489.630 7  22698516.460    92946633.45947
  20488392.040   107667224.308 8  20488389.800    83896528.93248
  20167072.560   105978679.277 8  20167073.400    82580791.33048
  20897209.120   109815571.704 8  20897211.160    85570583.55048
  22468608.900   118073327.358 7  22468606.460    92005182.83047
  21580999.600   113408913.737 8  21581000.640    88370585.45147
  21741071.360   114250102.506 7  21741072.860    89026062.46747
  23928670.660   125746001.042 7  23928671.300    97983902.07545
  23278471.200   122329197.664 7  23278472.620    95321460.08646
  21333444.380   112108005.536 8  21333443.880    87356882.90047
 14  1  9  8  0  0.0000000  0 10G01G19G03G27G22G06G32G16G14G11
  22686068.440   119216094.949 7  22686072.300    92895676.58946
  20484903.640   107648892.797 8  20484901.480    83882244.62148
  20175299.580   106021912.549 8  20175300.400    82614479.56948
  20906348.240   109863598.054 8  20906350.280    85608006.64948
  22483505.960   118151611.543 7  22483503.500    92066183.43446
  21593435.560   113474265.024 8  21593436.640    88421508.48347
  21724463.940   114162830.062 8  21724465.480    88958058.00047
  23949076.080   125853231.975 6  23949076.720    98067458.49946
  23269964.940   122284496.527 7  23269966.420    95286628.06646
  21322143.700   112048619.943 8  21322143.120    87310608.39647
 14  1  9  8  0 30.0000000  0 10G01G19G03G27G22G06G32G16G14G11
  22673651.740   119150844.960 7  22673655.620    92844832.44247
  20481489.240   107630950.167 8  20481487.160    83868263.33148
  20183621.880   106065646.344 8  20183622.660    82648557.82848
  20915566.260   109912038.863 8  20915568.320    85645752.69948
  22498453.440   118230160.865 7  22498450.920    92127390.64447
  21605935.860   113539954.302 8  21605936.980    88472694.89347
  21707931.960   114075953.968 8  21707933.480    88890362.38147
  23969493.380   125960525.103 7  23969494.060    98151063.40545
  23261535.440   122240198.954 7  23261536.900    95252110.49745
  21310884.920   111989454.616 8  21310884.260    87264505.53147
 14  1  9  8  1  0.0000000  0 10G01G19G03G27G22G06G32G16G14G11
  22661262.780   119085740.983 7  22661266.720    92794102.07847
  20478149.360   107613398.787 8  20478147.280    83854586.91248
  20192039.560   106109881.220 8  20192040.320    82683026.54048
  20924863.320   109960895.133 8  20924865.500    85683822.48548
  22513451.140   118308974.071 7  22513448.700    92188803.48147
  21618500.540   113605982.015 8  21618501.740    88524145.01847
  21691476.000   113989477.464 7  21691477.480    88822978.12147
  23989922.240   126067878.633 6  23989922.940    98234715.38146
  23253183.200   122196308.206 7  23253184.760    95217909.92746
  21299668.300   111930511.045 8  21299667.580    87218575.47247
 14  1  9  8  1 30.0000000  0 10G01G19G03G27G22G06G32G16G14G11
  22648901.240   119020780.941 7  22648905.200    92743483.87646
  20474883.820   107596238.164 8  20474881.780    83841214.98248
  20200552.120   106154614.512 8  20200552.840    82717883.62948
  20934238.940   110010164.396 8  20934241.260    85722214.08748
  22528498.260   118388047.362 7  22528496.040    92250418.96547
  21631129.140   113672345.491 8  21631130.400    88575856.77247
  21675096.000   113903400.516 8  21675097.480    88755905.20647
  24010361.700   126175287.738 7  24010362.440    98318410.66545
  23244908.400   122152824.470 7  23244910.180    95184026.50746
  21288493.600   111871788.092 8  21288492.960    87172817.31847
 14  1  9  8  2  0.0000000  0 10G01G19G03G27G22G06G32G16G14G11
  22636567.280   118955966.058 7  22636571.300    92692978.81147
  20471693.160   107579470.733 8  20471691.100    83828149.43548
  20209159.600   106199846.799 8  20209160.240    82753129.54448
  20943693.360   110059847.690 8  20943695.700    85760928.31248
  22543594.600   118467379.122 7  22543592.380    92312235.88446
  21643821.720   113739045.228 8  21643823.020    88627830.54647
  21658792.620   113817726.459 7  21658794.140    88689146.23747
  24030811.420   126282750.917 6  24030812.280    98402148.08445
  23236711.860   122109751.760 7  23236713.600    95150463.35646
  21277361.300   111813287.860 8  21277360.780    87127232.71947
 14  1  9  8  2 30.0000000  0 10G01G19G03G27G22G06G32G16G14G11
  22624260.640   118891294.397 7  22624264.720    92642585.32747
  20468577.220   107563095.890 8  20468575.040    83815389.80348
  20217861.480   106245575.385 8  20217862.060    82788762.18448
  20953226.140   110109942.671 8  20953228.480    85799963.32748
  22558739.420   118546965.426 7  22558737.100    92374251.14946
  21656577.760   113806078.371 8  21656579.040    88680064.11747
  21642565.860   113732455.240 7  21642567.460    88622701.16447
  24051270.420   126390263.419 6  24051271.720    98485923.92945
  23228593.540   122067089.851 7  23228595.240    95117220.28645
  21266271.220   111755009.185 8  21266270.780    87081820.76947
 14  1  9  8  3  0.0000000  0 10G01G19G03G27G22G06G32G16G14G11
  22611981.440   118826766.405 7  22611985.520    92592303.77147
  20465536.240   107547115.062 8  20465533.940    83802937.19548
  20226657.680   106291799.948 8  20226658.300    82824781.30248
  20962837.260   110160449.455 8  20962839.580    85839319.23348
  22573932.360   118626804.725 7  22573930.020    92436463.54946
  21669397.240   113873444.699 8  21669398.360    88732557.31547
  21626416.320   113647589.328 8  21626417.880    88556571.90747
  24071738.340   126497822.981 6  24071739.960    98569736.43345
  23220554.080   122024841.862 7  23220555.540    95084299.75146
  21255223.660   111696953.288 8  21255223.200    87036582.40647
 14  1  9  8  3 30.0000000  0 10G01G19G03G27G22G06G32G16G14G11
  22599729.640   118762382.073 7  22599733.600    92542134.15047
  20462570.400   107531529.596 8  20462568.080    83790792.65848
  20235548.160   106338519.710 8  20235548.780    82861186.28648
  20972526.700   110211367.691 8  20972528.960    85878995.74348
  22589172.880   118706894.217 7  22589170.560    92498870.88446
  21682279.900   113941143.201 8  21682280.860    88785309.35347
  21610344.340   113563130.701 7  21610345.880    88490760.01447
  24092214.760   126605426.716 7  24092216.640    98653583.37345
  23212593.900   121983009.622 7  23212595.040    95051703.20946
  21244218.600   111639120.900 8  21244218.080    86991518.19347
 14  1  9  8  4  0.0000000  0 11G01G19G03G27G22G06G32G16G14G20G11
  22587506.700   118698149.291 7  22587510.520    92492082.64447
  20459681.500   107516348.001 8  20459679.160    83778962.81948
  20244534.260   106385742.029 8  20244534.920    82897982.87648
  20982295.920   110262704.905 8  20982298.100    85918998.73448
  22604462.160   118787239.728 7  22604459.800    92561477.71846
  21695227.100   114009180.886 8  21695227.940    88838325.68647
  21594351.760   113479089.175 8  21594353.340    88425273.13147
  24112700.480   126713079.646 6  24112702.620    98737468.63446
  23204714.740   121941603.427 7  23204715.660    95019438.60246
  24658270.780   129580082.004 6  24658273.220   100971502.49345
  21233257.700   111581520.848 8  21233257.160    86946635.03347
 14  1  9  8  4 30.0000000  0 11G01G19G03G27G22G06G32G16G14G20G11
  22575308.700   118634048.206 7  22575312.540    92442133.75847
  20456866.080   107501552.980 8  20456863.800    83767434.22048
  20253612.020   106433446.084 8  20253612.740    82935154.83248
  20992141.020   110314440.768 8  20992143.160    85959312.36148
  22619796.040   118867819.278 7  22619793.500    92624266.93346
  21708234.920   114077537.286 8  21708235.760    88891590.36647
  21578435.220   113395446.704 8  21578436.680    88360097.19047
  24133191.320   126820759.243 7  24133193.640    98821374.65945
  23196913.120   121900605.450 7  23196913.980    94987492.09846
  24637624.760   129471586.210 6  24637627.140   100886960.38145
  21222337.220   111524133.629 8  21222336.780    86901917.72947
 14  1  9  8  5  0.0000000  0 11G01G19G03G27G22G06G32G16G14G20G11
  22563140.080   118570101.124 7  22563143.800    92392304.86847
  20454128.600   107487167.485 8  20454126.320    83756224.72448
  20262785.620   106481653.591 8  20262786.380    82972719.09948
  21002066.100   110366597.295 8  21002068.280    85999953.77548
  22635178.280   118948652.983 7  22635175.560    92687254.18646
  21721307.380   114146233.624 8  21721308.280    88945119.94047
  21562599.300   113312227.792 8  21562600.680    88295251.31547
  24153691.000   126928484.945 7  24153693.220    98905316.60945
  23189193.800   121860040.281 7  23189194.680    94955882.84145
  24616999.680   129363201.627 6  24617002.400   100802504.97845
  21211461.700   111466982.717 8  21211461.300    86857384.54647
 14  1  9  8  5 30.0000000  0 11G01G19G03G27G22G06G32G16G14G20G11
  22550999.020   118506299.355 7  22551002.600    92342589.22447
  20451467.540   107473183.728 8  20451465.380    83745328.28248
  20272053.220   106530354.885 8  20272053.960    83010668.13048
  21012069.420   110419165.301 8  21012071.740    86040915.81948
  22650606.640   119029729.746 7  22650603.960    92750430.82546
  21734442.720   114215260.851 8  21734443.800    88998907.33447
  21546842.660   113229425.465 8  21546843.980    88230730.05247
  24174197.380   127036245.352 6  24174199.380    98989285.62045
  23181555.440   121819901.480 7  23181556.520    94924605.82646
  24596394.480   129254921.248 6  24596397.500   100718130.74144
  21200629.660   111410060.338 8  21200629.240    86813029.44247
 14  1  9  8  6  0.0000000  0 11G01G19G03G27G22G06G32G16G14G20G11
  22538885.260   118442641.561 7  22538888.740    92292985.76847
  20448882.980   107459601.871 8  20448880.900    83734745.00248
  20281414.420   106579548.018 8  20281415.120    83049000.42348
  21022150.740   110472143.079 8  21022153.140    86082197.16448
  22666080.580   119111046.117 7  22666078.040    92813794.17846
  21747640.560   114284616.021 8  21747641.740    89052950.27647
  21531165.420   113147040.466 8  21531166.580    88166533.96147
  24194709.620   127144036.379 6  24194711.280    99073278.46045
  23173998.340   121780189.676 7  23173999.680    94893661.54745
  24575809.340   129146745.473 6  24575812.420   100633838.07745
  21189841.040   111353365.818 8  21189840.560    86768851.89147
 14  1  9  8  6 30.0000000  0 11G01G19G03G27G22G06G32G16G14G20G11
  22526798.860   118379127.528 7  22526802.340    92243494.32247
  20446375.020   107446422.718 8  20446373.020    83724475.52248
  20290868.980   106629231.832 8  20290869.640    83087715.05548
  21032309.940   110525529.918 8  21032312.320    86123797.25748
  22681599.620   119192599.446 7  22681597.240    92877342.16746
  21760900.780   114354298.637 8  21760902.000    89107248.37047
  21515567.740   113065074.272 8  21515568.840    88102664.23047
  24215227.020   127251855.119 6  24215228.540    99157292.93445
  23166523.020   121740906.662 7  23166524.400    94863051.35946
  24555244.320   129038675.831 6  24555247.500   100549628.11044
  21179095.860   111296899.718 8  21179095.420    86724852.32947
 14  1  9  8  7  0.0000000  0 11G01G19G03G27G22G06G32G16G14G20G11
  22514740.100   118315758.740 7  22514743.700    92194116.05246
  20443944.220   107433649.038 8  20443942.360    83714521.99648
  20300416.960   106679406.653 8  20300417.620    83126812.28148
  21042547.220   110579326.859 8  21042549.500    86165716.92248
  22697163.720   119274388.897 7  22697161.400    92941074.13746
  21774223.400   114424308.908 8  21774224.520    89161801.77847
  21500050.420   112983530.329 8  21500051.500    88039123.49947
  24235749.380   127359699.953 6  24235750.740    99241327.73045
  23159130.120   121702056.258 7  23159131.520    94832778.27246
  24534700.040   128930715.613 6  24534703.300   100465503.43445
  21168394.640   111240664.578 8  21168394.220    86681032.72447
 14  1  9  8  7 30.0000000  0 11G01G19G03G27G22G06G32G16G14G20G11
  22502711.580   118252548.682 7  22502715.180    92144861.48447
  20441593.440   107421295.463 8  20441591.600    83704895.82348
  20310060.840   106730085.390 8  20310061.520    83166302.17848
  21052864.920   110633546.930 8  21052867.300    86207966.29448
  22712775.040   119356426.115 7  22712772.740    93004999.18146
  21787610.860   114494659.747 7  21787611.920    89216620.55847
  21484616.340   112902424.040 8  21484617.500    87975923.81547
  24256278.660   127467581.861 6  24256279.940    99325391.40945
  23151822.560   121663654.007 7  23151823.820    94802854.38946
  24514179.500   128822879.844 6  24514182.680   100381475.69845
  21157740.060   111184674.474 8  21157739.660    86637404.06847
 14  1  9  8  8  0.0000000  0 11G01G19G03G27G22G06G32G16G14G20G11
  22490705.460   118189456.642 7  22490709.120    92095698.86847
  20439315.060   107409322.498 8  20439313.280    83695566.23348
  20319792.600   106781226.063 8  20319793.300    83206152.01847
  21063255.320   110688148.885 8  21063257.780    86250513.22648
  22728425.200   119438667.917 7  22728422.980    93069083.63246
  21801055.020   114565309.200 7  21801056.160    89271672.03147
  21469258.140   112821716.412 8  21469259.380    87913034.77647
  24276806.620   127575457.126 6  24276808.060    99409449.89445
  23144593.020   121625661.209 7  23144594.020    94773249.55245
  24493675.260   128715129.354 6  24493678.140   100297514.44544
  21147124.480   111128889.503 8  21147124.140    86593935.25547
 14  1  9  8  8 30.0000000  0 11G01G19G03G27G22G06G32G16G14G20G11
  22478729.320   118126522.177 7  22478733.020    92046659.04746
  20437116.900   107397771.045 8  20437115.080    83686565.08448
  20329619.660   106832867.533 8  20329620.360    83246392.09647
  21073725.880   110743171.786 8  21073728.400    86293388.16148
  22744121.300   119521151.618 7  22744119.180    93133356.57246
  21814563.320   114636296.059 7  21814564.640    89326986.41947
  21453983.720   112741448.875 8  21453985.020    87850488.66247
  24297340.220   127683362.735 6  24297341.900    99493532.02445
  23137449.240   121588119.459 7  23137450.100    94743996.18546
  24473195.060   128607505.542 6  24473197.760   100213651.81045
  21136555.520   111073349.798 8  21136555.300    86550657.55347
 14  1  9  8  9  0.0000000  0 11G01G19G03G27G22G06G32G16G14G20G11
  22466781.080   118063733.813 7  22466784.740    91997733.05946
  20434996.900   107386630.204 8  20434995.000    83677883.90848
  20339539.680   106884997.603 8  20339540.400    83287012.89748
  21084274.260   110798603.655 8  21084276.780    86336581.78948
  22759860.840   119603863.514 7  22759858.860    93197807.32546
  21828133.420   114707607.652 7  21828134.920    89382553.83947
  21438791.320   112661611.801 8  21438792.560    87788277.97347
  24317877.000   127791284.402 6  24317878.820    99577626.68945
  23130389.280   121551019.316 7  23130390.240    94715086.91946
  24452737.120   128499998.857 6  24452739.520   100129880.48345
  21126031.380   111018045.184 8  21126031.200    86507563.04147
 14  1  9  8  9 30.0000000  0 12G01G19G03G27G22G06G32G16G14G20G11G28
  22454860.520   118001091.110 7  22454864.120    91948920.56446
  20432955.260   107375901.043 8  20432953.280    83669523.51648
  20349552.420   106937614.752 8  20349553.120    83328013.24247
  21094900.240   110854443.531 8  21094902.800    86380093.33348
  22775643.340   119686801.017 7  22775641.540    93262433.86246
  21841765.180   114779242.882 8  21841766.720    89438373.44247
  21423681.040   112582206.465 8  21423682.180    87726403.70847
  24338416.360   127899219.134 6  24338418.380    99661731.52145
  23123413.640   121514362.535 7  23123414.880    94686523.11846
  24432301.620   128392610.454 6  24432303.940   100046201.28045
  21115552.100   110962975.852 8  21115551.820    86464651.85647
  25047530.000   131625656.921 5
 14  1  9  8 10  0.0000000  0 12G01G19G03G27G22G06G32G16G14G20G11G28
  22442966.740   117938589.231 7  22442970.340    91900217.78546
  20430991.260   107365579.796 8  20430989.160    83661480.96548
  20359656.640   106990712.868 8  20359657.340    83369388.36047
  21105602.840   110910686.039 8  21105605.420    86423918.61748
  22791467.500   119769957.071 7  22791465.680    93327230.71046
  21855457.500   114851196.010 8  21855459.020    89494440.73647
  21408652.360   112503229.896 8  21408653.400    87664863.55547
  24358956.720   128007159.260 6  24358958.980    99745840.50945
  23116521.920   121478145.952 7  23116523.180    94658302.33245
  24411887.980   128285336.927 6  24411890.360    99962611.56645
  21105116.860   110908137.767 8  21105116.520    86421920.86747
  25032710.060   131547772.232 5  25032709.600   102504763.03644
 14  1  9  8 10 30.0000000  0 11G01G19G03G27G22G06G32G16G14G20G11
  22431101.920   117876238.853 7  22431105.440    91851633.06647
  20429107.120   107355678.219 8  20429104.860    83653765.44148
  20369854.180   107044301.542 8  20369855.000    83411145.73748
  21116384.040   110967341.186 8  21116386.600    86468065.44048
  22807334.740   119853339.857 7  22807332.960    93392204.23346
  21869212.200   114923476.834 7  21869213.620    89550763.40347
  21393707.520   112424694.439 8  21393708.580    87603667.11747
  24379499.700   128115112.195 6  24379502.020    99829959.51045
  23109716.540   121442382.322 7  23109717.660    94630434.52046
  24391498.520   128178190.771 6  24391500.960    99879121.12145
  21094727.780   110853542.374 8  21094727.420    86379378.99647
 14  1  9  8 11  0.0000000  0 11G01G19G03G27G22G06G32G16G14G20G11
  22419263.860   117814028.379 7  22419267.160    91803157.37947
  20427300.920   107346186.067 8  20427298.480    83646368.93848
  20380142.800   107098368.620 8  20380143.720    83453275.89447
  21127241.520   111024396.909 8  21127243.980    86512524.39748
  22823242.460   119936935.744 7  22823240.900    93457343.78647
  21883026.720   114996072.395 7  21883028.080    89607331.30347
  21378844.640   112346590.234 8  21378845.760    87542806.70847
  24400042.540   128223064.066 6  24400044.800    99914077.68145
  23102995.540   121407062.136 7  23102996.560    94602912.23746
  24371131.480   128071162.055 6  24371133.760    99795722.13344
  21084382.840   110799179.179 8  21084382.480    86337018.04847
 14  1  9  8 11 30.0000000  0 11G01G19G03G27G22G06G32G16G14G20G11
  22407453.620   117751965.370 7  22407456.900    91754796.58047
  20425574.080   107337111.690 8  20425571.720    83639297.97648
  20390523.780   107152920.755 8  20390524.740    83495784.01647
  21138176.480   111081860.088 8  21138178.920    86557300.85248
  22839191.780   120020749.950 7  22839190.400    93522653.46646
  21896902.460   115068989.318 7  21896903.680    89664149.61947
  21364065.560   112268926.661 8  21364066.860    87482289.65547
  24420586.040   128331019.725 6  24420588.240    99998198.80445
  23096360.540   121372194.815 7  23096361.480    94575742.86446
  24350788.620   127964260.064 6  24350790.900    99712421.91745
  21074083.620   110745056.184 8  21074083.280    86294844.28247
 14  1  9  8 12  0.0000000  0 11G01G19G03G27G22G06G32G16G14G20G11
  22395671.020   117690046.882 7  22395674.180    91706548.38747
  20423926.440   107328453.288 8  20423924.160    83632551.15848
  20400996.300   107207953.754 8  20400997.200    83538666.83347
  21149188.260   111139727.183 8  21149190.620    86602392.04848
  22855181.780   120104777.536 7  22855180.460    93588129.42846
  21910838.540   115142223.734 7  21910839.760    89721215.32047
  21349370.040   112191702.396 8  21349371.580    87422114.93047
  24441129.180   128438973.546 6  24441131.400   100082318.45945
  23089811.400   121337779.183 7  23089812.400    94548925.44346
  24330469.680   127857483.421 6  24330472.040    99629219.32645
  21063829.700   110691171.284 8  21063829.380    86252856.03447
 14  1  9  8 12 30.0000000  0 12G01G19G03G27G22G06G32G16G14G20G11G28
  22383916.200   117628274.111 7  22383919.220    91658413.76047
  20422358.420   107320213.563 8  20422356.240    83626130.58148
  20411560.320   107263467.673 8  20411561.140    83581924.38947
  21160276.980   111197998.782 8  21160279.380    86647798.43148
  22871212.200   120189017.318 7  22871210.820    93653770.73646
  21924835.060   115215775.812 7  21924836.320    89778528.56847
  21334758.780   112114920.340 8  21334760.480    87362284.75647
  24461671.600   128546923.564 6  24461673.800   100166435.14246
  23083348.840   121303818.398 7  23083349.880    94522462.46746
  24310175.200   127750835.172 6  24310177.620    99546116.82345
  21053621.520   110637526.689 8  21053621.160    86211055.04747
  24959508.020   131163101.021 5  24959504.560   102204998.55655
 14  1  9  8 13  0.0000000  0 12G01G19G03G27G22G06G32G16G14G20G11G28
  22372188.700   117566645.619 7  22372191.920    91610391.55547
  20420869.800   107312391.259 8  20420867.760    83620035.26448
  20422215.320   107319459.860 8  20422216.080    83625554.62847
  21171442.340   111256672.806 8  21171444.760    86693518.39848
  22887282.180   120273465.588 7  22887280.720    93719574.52046
  21938891.580   115289643.049 7  21938892.800    89836087.38747
  21320231.800   112038580.784 8  21320233.600    87302799.40447
  24482212.600   128654865.745 6  24482214.760   100250545.74045
  23076973.040   121270313.419 7  23076974.060    94496354.63646
  24289905.220   127644315.485 6  24289907.620    99463114.44545
  21043458.920   110584121.776 8  21043458.540    86169440.80647
  24945050.880   131087126.627 5  24945050.440   102145797.69745
 14  1  9  8 13 30.0000000  0 11G01G19G03G27G22G06G32G16G14G20G11
  22360489.240   117505164.794 7  22360492.700    91562484.41447
  20419461.580   107304991.294 8  20419459.640    83614269.04248
  20432961.760   107375932.418 8  20432962.460    83669559.18247
  21182684.800   111315751.980 8  21182687.240    86739554.07748
  22903391.920   120358123.637 7  22903390.480    93785541.74446
  21953008.560   115363827.810 7  21953009.640    89893893.62847
  21305790.100   111962688.718 8  21305791.880    87243662.74347
  24502752.340   128762801.018 6  24502754.440   100334650.93245
  23070684.980   121237269.131 7  23070686.060    94470605.81346
  24269660.440   127537924.276 6  24269663.280    99380213.08445
  21033342.740   110530960.563 8  21033342.340    86128016.47247
 14  1  9  8 14  0.0000000  0 11G01G19G03G27G22G06G32G16G14G20G11
  22348817.320   117443828.320 7  22348820.860    91514689.75747
  20418133.340   107298011.367 8  20418131.480    83608830.12948
  20443798.820   107432881.301 8  20443799.480    83713934.89247
  21194003.540   111375232.318 8  21194006.040    86785902.34948
  22919540.520   120442985.873 7  22919539.160    93851668.07246
  21967185.140   115438325.778 7  21967186.180    89951943.92347
  21291433.300   111887242.478 8  21291434.920    87184873.46847
  24523289.520   128870723.072 6  24523291.400   100418745.85744
  23064484.240   121204683.626 7  23064485.500    94445214.50446
  24249440.840   127431669.808 6  24249443.960    99297417.39746
  21023272.560   110478040.942 8  21023272.100    86086780.38647
 14  1  9  8 14 30.0000000  0 11G01G19G03G27G22G06G32G16G14G20G11
  22337173.040   117382637.205 7  22337176.520    91467008.36247
  20416885.420   107291453.519 8  20416883.660    83603720.09348
  20454726.540   107490306.675 8  20454727.200    83758681.89647
  21205398.640   111435114.138 8  21205401.260    86832563.45547
  22935728.000   120528051.055 7  22935726.560    93917952.56246
  21981421.300   115513136.931 7  21981422.460    90010238.26747
  21277161.900   111812244.722 8  21277163.300    87126433.66847
  24543823.720   128978630.262 6  24543825.700   100502829.17345
  23058371.380   121172560.161 7  23058372.760    94420183.24446
  24229246.840   127325549.858 6  24229249.820    99214726.50845
  21013248.600   110425364.354 8  21013248.060    86045733.67347
 14  1  9  8 15  0.0000000  0 11G01G19G03G27G22G06G32G16G14G20G11
  22325556.540   117321591.849 7  22325559.920    91419440.53647
  20415718.140   107285319.316 8  20415716.360    83598940.17048
  20465744.640   107548207.342 8  20465745.360    83803799.26247
  21216870.100   111495397.122 8  21216872.760    86879537.16247
  22951953.700   120613317.248 7  22951952.280    93984393.66546
  21995716.860   115588260.482 7  21995718.200    90068776.02147
  21262976.140   111737697.493 8  21262977.380    87068344.93047
  24564354.680   129086520.352 6  24564356.680   100586899.11745
  23052346.780   121140900.872 7  23052348.240    94395513.68046
  24209078.720   127219566.515 6  24209081.700    99132142.07145
  21003271.080   110372932.151 8  21003270.560    86004877.39847
 14  1  9  8 15 30.0000000  0 11G01G19G03G27G22G06G32G16G14G20G11
  22313967.500   117260691.033 7  22313970.880    91371985.34947
  20414631.440   107279608.327 8  20414629.580    83594490.02448
  20476852.700   107606580.833 8  20476853.540    83849285.05047
  21228417.560   111556079.297 8  21228420.220    86926821.93147
  22968217.040   120698781.056 7  22968215.540    94050988.75246
  22010071.400   115663694.012 7  22010072.900    90127555.32647
  21248876.080   111663601.007 8  21248877.240    87010607.42347
  24584881.740   129194389.516 6  24584883.660   100670952.82945
  23046410.600   121109706.193 7  23046412.040    94371206.16646
  24188936.820   127113719.925 6  24188939.740    99049664.22545
  20993339.980   110320743.981 8  20993339.600    85964211.28447
 14  1  9  8 16  0.0000000  0 12G01G19G03G27G22G06G32G16G14G20G11G28
  22302406.560   117199937.704 7  22302409.820    91324645.08947
  20413626.080   107274324.544 8  20413624.100    83590372.76648
  20488051.100   107665428.885 8  20488052.040    83895140.63447
  21240041.420   111617162.918 8  21240044.020    86974419.51048
  22984518.140   120784443.337 7  22984516.540    94117738.49546
  22024485.260   115739439.618 7  22024486.920    90186577.80647
  21234862.600   111589959.938 8  21234863.740    86953224.77847
  24605404.760   129302237.679 6  24605406.640   100754990.10944
  23040563.800   121078981.141 7  23040565.120    94347264.57846
  24168821.960   127008014.873 6  24168824.420    98967296.69544
  20983456.020   110268803.775 8  20983455.800    85923738.38647
  24859625.100   130638208.441 5  24859625.080   101796011.88045
 14  1  9  8 16 30.0000000  0 11G01G19G03G27G22G06G32G16G14G20G11
  22290872.980   117139328.135 7  22290876.160    91277416.84947
  20412701.460   107269465.245 8  20412699.440    83586586.26448
  20499338.920   107724746.593 8  20499339.920    83941362.17947
  21251740.840   111678643.465 8  21251743.380    87022326.38447
  23000855.880   120870298.228 7  23000854.180    94184638.32846
  22038957.500   115815492.162 7  22038959.220    90245839.44547
  21220935.320   111516771.997 8  21220936.460    86896195.22647
  24625922.500   129410058.300 6  24625924.500   100839005.94645
  23034805.820   121048723.419 7  23034807.220    94323687.14646
  24148733.740   126902449.406 6  24148735.520    98885037.90444
  20973618.740   110217108.533 8  20973618.480    85883456.35547
 14  1  9  8 17  0.0000000  0 11G01G19G03G27G22G06G32G16G14G20G11
  22279367.220   117078864.798 7  22279370.460    91230302.54447
  20411858.120   107265033.431 8  20411856.100    83583132.87348
  20510716.380   107784535.444 8  20510717.400    83987950.84947
  21263516.140   111740522.697 8  21263518.600    87070543.91747
  23017230.300   120956345.844 7  23017228.600    94251688.32746
  22053488.520   115891853.143 7  22053490.300    90305341.43247
  21207095.040   111444041.250 8  21207096.160    86839521.91947
  24646435.080   129517851.650 6  24646436.860   100923000.53745
  23029137.620   121018937.253 7  23029139.040    94300477.17146
  24128672.840   126797027.409 6  24128674.520    98802890.99845
  20963828.660   110165661.397 8  20963828.320    85843367.65947
 14  1  9  8 17 30.0000000  0 11G01G19G03G27G22G06G32G16G14G20G11
  22267889.060   117018546.531 7  22267892.320    91183301.29547
  20411096.200   107261029.397 8  20411094.160    83580012.82148
  20522183.040   107844792.981 8  20522184.040    84034904.73547
  21275366.940   111802798.657 8  21275369.360    87119070.59147
  23033640.800   121042582.584 7  23033638.980    94318885.69946
  22068077.920   115968520.395 7  22068079.580    90365082.07847
  21193341.840   111371768.004 8  21193342.980    86783205.11447
  24666941.540   129625613.331 6  24666943.400   101006970.44445
  23023559.400   120989623.391 7  23023560.880    94277635.22746
  24108639.460   126691749.607 6  24108640.920    98720856.38445
  20954085.780   110114462.296 8  20954085.380    85803472.24347
 14  1  9  8 18  0.0000000  0 11G01G19G03G27G22G06G32G16G14G20G11
  22256439.100   116958376.804 7  22256442.400    91136415.78347
  20410416.560   107257457.565 8  20410414.460    83577229.54048
  20533739.300   107905521.203 8  20533740.260    84082225.38947
  21287293.720   111865473.951 8  21287296.080    87167908.43847
  23050087.540   121129009.977 7  23050085.620    94386231.61346
  22082726.080   116045496.002 7  22082727.540    90425062.99947
  21179676.700   111299957.235 8  21179677.800    86727248.68347
  24687442.000   129733344.196 6  24687444.020   101090916.31745
  23018072.040   120960786.833 7  23018073.560    94255165.20146
  24088634.240   126586620.513 6  24088635.600    98638937.66945
  20944390.940   110063515.478 8  20944390.500    85763773.41647
 14  1  9  8 18 30.0000000  0 11G01G19G03G27G22G06G32G16G14G20G11
  22245017.020   116898353.534 7  22245020.360    91089644.39347
  20409818.880   107254316.669 8  20409816.820    83574782.06148
  20545384.480   107966716.777 8  20545385.440    84129910.21347
  21299295.940   111928545.762 8  21299298.300    87217055.26147
  23066569.720   121215623.785 7  23066567.780    94453722.77746
  22097432.320   116122776.867 7  22097433.660    90485281.78347
  21166099.560   111228608.454 8  21166100.620    86671652.23247
  24707935.660   129841039.860 6  24707938.200   101174834.77945
  23012675.360   120932427.248 7  23012676.840    94233066.82546
  24068657.120   126481640.110 6  24068658.640    98557134.81645
  20934743.880   110012819.505 8  20934743.460    85724270.04647
 14  1  9  8 19  0.0000000  0 12G01G19G03G27G22G06G32G16G14G20G11G28
  22233622.580   116838475.739 7  22233626.080    91042986.37947
  20409303.220   107251606.690 8  20409301.180    83572670.35448
  20557118.200   108028377.603 8  20557119.180    84177957.56547
  21311373.240   111992012.257 8  21311375.620    87266509.62647
  23083086.700   121302420.559 7  23083084.860    94521356.51446
  22112196.200   116200360.776 7  22112197.560    90545736.69747
  21152610.380   111157721.972 8  21152611.460    86616416.02147
  24728421.860   129948696.293 6  24728424.740   101258722.64845
  23007369.480   120904545.170 7  23007371.040    94211340.54146
  24048708.200   126376808.800 6  24048710.060    98475448.15745
  20925144.460   109962374.026 8  20925144.100    85684961.86047
  24776517.040   130201472.317 6
 14  1  9  8 19 30.0000000  0 12G01G19G03G27G22G06G32G16G14G20G11G28
  22222256.300   116778746.055 7  22222259.920    90996443.75447
  20408870.260   107249331.165 8  20408868.140    83570897.18248
  20568940.780   108090504.955 8  20568941.680    84226368.44547
  21323525.980   112055875.182 8  21323528.440    87316272.89747
  23099638.560   121389400.847 7  23099636.860    94589133.23146
  22127017.940   116278249.035 7  22127019.400    90606428.77247
  21139209.940   111087301.956 8  21139211.000    86561543.27947
  24748900.660   130056313.395 6  24748903.880   101342579.88845
  23002155.320   120877144.940 7  23002156.880    94189989.71646
  24028788.160   126272130.824 6  24028790.400    98393880.94445
  20915593.480   109912183.384 8  20915593.160    85645852.25247
  24762898.580   130129904.741 6
 14  1  9  8 20  0.0000000  0 12G01G19G03G27G22G06G32G16G14G20G11G28
  22210917.200   116719159.231 7  22210920.920    90950012.46947
  20408519.060   107247485.596 8  20408516.960    83569459.03648
  20580850.880   108153092.414 8  20580851.740    84275137.85547
  21335753.020   112120128.472 8  21335755.520    87366340.35047
  23116224.080   121476557.373 7  23116222.360    94657047.27446
  22141896.340   116356435.329 7  22141897.880    90667353.07347
  21125897.500   111017344.517 8  21125898.540    86507030.97747
  24769370.560   130163883.267 6  24769373.980   101426400.26745
  22997032.180   120850222.658 7  22997033.780    94169011.31046
  24008896.680   126167602.574 6  24008899.300    98312430.43845
  20906089.940   109862242.326 8  20906089.620    85606937.11747
  24749346.420   130058687.223 6  24749348.460   101344425.24542
 14  1  9  8 20 30.0000000  0 12G01G19G03G27G22G06G32G16G14G20G11G28
  22199606.260   116659720.161 7  22199610.080    90903696.32047
  20408250.780   107246075.820 8  20408248.680    83568360.47648
  20592849.080   108216143.305 8  20592849.920    84324268.37647
  21348055.120   112184776.154 8  21348057.620    87416715.11947
  23132843.520   121563892.679 7  23132841.920    94725100.60946
  22156832.200   116434923.485 7  22156833.760    90728512.59947
  21112674.260   110947856.006 8  21112675.360    86452884.07947
  24789831.900   130271408.303 6  24789835.500   101510185.77545
  22992001.340   120823785.100 7  22992002.820    94148410.61146
  23989035.040   126063230.123 6  23989037.880    98231101.31745
  20896635.040   109812556.838 8  20896634.720    85568221.13447
  24735862.180   129987826.843 6  24735862.900   101289209.27244
 14  1  9  8 21  0.0000000  0 12G01G19G03G27G22G06G32G16G14G20G11G28
  22188322.540   116600423.954 7  22188326.440    90857491.49447
  20408064.640   107245097.779 8  20408062.580    83567598.34048
  20604934.200   108279650.952 8  20604935.040    84373754.81647
  21360431.140   112249812.434 8  21360433.660    87467392.69047
  23149495.660   121651399.742 7  23149494.140    94793287.79446
  22171824.280   116513707.282 7  22171825.880    90789902.49347
  21099539.600   110878832.991 8  21099540.720    86399099.90747
  24810283.420   130378881.046 6  24810287.140   101593930.49045
  22987062.140   120797828.793 7  22987063.480    94128184.90346
  23969202.780   125959010.673 6  23969205.600    98149891.42945
  20887228.140   109763122.995 8  20887227.760    85529701.22847
  24722445.400   129917320.712 6  24722445.660   101234269.42043
 14  1  9  8 21 30.0000000  0 12G01G19G03G27G22G06G32G16G14G20G11G28
  22177067.180   116541276.769 7  22177071.140    90811402.78147
  20407962.000   107244558.386 8  20407959.960    83567177.99748
  20617107.140   108343620.186 8  20617108.000    84423600.92547
  21372882.120   112315242.510 8  21372884.700    87518377.11847
  23166181.180   121739082.421 7  23166179.820    94861611.81646
  22186873.460   116592791.485 7  22186875.160    90851526.46547
  21086494.880   110810282.809 8  21086496.000    86345684.18347
  24830725.600   130486304.628 6  24830729.560   101677636.89044
  22982215.960   120772361.380 7  22982217.180    94108340.17246
  23949401.220   125854951.674 6  23949403.600    98068806.56945
  20877870.500   109713947.844 8  20877870.020    85491382.90047
  24709097.560   129847176.940 6  24709097.820   101179611.87645
 14  1  9  8 22  0.0000000  0 12G01G19G03G27G22G06G32G16G14G20G11G28
  22165839.760   116482275.625 7  22165843.660    90765427.86347
  20407942.520   107244455.732 8  20407940.460    83567097.97448
  20629367.180   108408047.076 8  20629368.100    84473803.65847
  21385407.280   112381062.457 8  21385409.900    87569665.34747
  23182899.100   121826935.479 7  23182897.980    94930068.60146
  22201979.000   116672171.933 7  22201980.800    90913381.28647
  21073539.840   110742203.890 8  21073540.940    86292635.65847
  24851157.400   130593673.366 6  24851161.440   101761300.56246
  22977462.500   120747381.319 7  22977463.700    94088875.19246
  23929629.960   125751051.770 6  23929631.880    97987845.68646
  20868561.580   109665029.066 8  20868561.080    85453264.35347
  24695818.240   129777394.058 6  24695818.580   101125235.58645
 14  1  9  8 22 30.0000000  0 12G01G19G03G27G22G06G32G16G14G20G11G28
  22154640.320   116423421.807 7  22154644.080    90719567.75047
  20408006.540   107244791.847 8  20408004.500    83567359.85348
  20641714.220   108472931.372 8  20641715.260    84524362.81247
  21398006.620   112447272.749 8  21398009.360    87621257.72747
  23199649.340   121914958.350 7  23199648.440    94998657.71746
  22217140.860   116751848.760 7  22217142.860    90975467.04547
  21060674.940   110674598.881 8  21060676.100    86239956.41447
  24871578.680   130700985.943 6  24871582.800   101844920.50245
  22972802.180   120722891.424 7  22972803.440    94069792.14146
  23909889.480   125647313.717 6  23909891.040    97907010.90846
  20859301.800   109616368.764 8  20859301.420    85415347.22947
  24682608.260   129707975.904 6  24682608.820   101071143.48345
 14  1  9  8 23  0.0000000  0 12G01G19G03G27G22G06G32G16G14G20G11G28
  22143468.440   116364713.316 7  22143472.200    90673820.87947
  20408153.760   107245565.207 8  20408151.760    83567962.44048
  20654147.700   108538269.971 8  20654148.820    84575275.96447
  21410679.660   112513870.339 8  21410682.480    87673151.90847
  23216431.020   122003146.668 7  23216430.300    95067375.74546
  22232358.560   116831818.463 7  22232360.680    91037781.01147
  21047900.100   110607467.101 8  21047901.380    86187645.92347
  24891988.500   130808237.673 6  24891992.740   101928492.97144
  22968234.940   120698891.310 7  22968236.340    94051090.74246
  23890179.560   125543737.121 6  23890180.980    97826301.95345
  20850091.080   109567965.894 8  20850090.760    85377630.68847
  24669467.680   129638922.029 6  24669468.620   101017335.30946
 14  1  9  8 23 30.0000000  0 12G01G19G03G27G22G06G32G16G14G20G11G28
  22132325.300   116306156.030 7  22132329.080    90628191.81547
  20408385.500   107246782.785 8  20408383.540    83568911.17448
  20666668.420   108604066.710 8  20666669.600    84626546.10647
  21423427.400   112580860.151 8  21423430.200    87725351.70947
  23233244.860   122091504.328 7  23233244.420    95136225.73046
  22247632.940   116912085.590 7  22247635.060    91100326.74547
  21035216.720   110540815.610 8  21035218.060    86135709.68047
  24912387.260   130915431.830 6  24912391.700   102012020.57945
  22963762.300   120675388.200 7  22963763.760    94032776.63546
  23870501.500   125440329.615 6  23870503.140    97745724.74445
  20840930.580   109519827.029 8  20840930.220    85340119.86747
  24656397.820   129570240.484 6  24656399.220   100963817.18346
 14  1  9  8 24  0.0000000  0 12G01G19G03G27G22G06G32G16G14G20G11G28
  22121209.160   116247740.588 7  22121212.960    90582673.29747
  20408700.140   107248436.077 8  20408698.220    83570199.42948
  20679274.280   108670310.764 8  20679275.460    84678164.80347
  21436247.880   112648231.869 8  21436250.580    87777849.10547
  23250088.700   122180019.494 7  23250088.440    95205198.45846
  22262962.060   116992640.242 7  22262964.160    91163096.51147
  21022623.260   110474636.394 8  21022624.640    86084141.44647
  24932772.960   131022556.690 6  24932777.200   102095494.23845
  22959382.820   120652374.301 7  22959384.320    94014843.73946
  23850854.100   125337083.258 6  23850856.020    97665273.09845
  20831818.720   109471943.847 8  20831818.260    85302808.27747
  24643397.640   129501923.882 6  24643399.220   100910583.46245
 14  1  9  8 24 30.0000000  0 12G01G19G03G27G22G06G32G16G14G20G11G28
  22110121.160   116189472.933 7  22110124.940    90537269.93247
  20409098.940   107250531.685 8  20409097.000    83571832.34248
  20691966.200   108737006.952 8  20691967.300    84730135.81647
  21449141.960   112715990.383 8  21449144.620    87830647.90147
  23266963.240   122268695.831 7  23266963.120    95274296.77046
  22278346.720   117073486.569 7  22278348.720    91226093.56346
  21010121.080   110408936.658 8  21010122.480    86032946.84547
  24953146.140   131129615.137 6  24953150.140   102178916.10345
  22955097.860   120629856.702 7  22955099.420    93997297.58346
  23831238.540   125234005.059 6  23831240.980    97584952.52446
  20822756.820   109424323.036 8  20822756.340    85265701.13347
  24630468.320   129433979.986 6  24630469.940   100857640.19745
 14  1  9  8 25  0.0000000  0 11G01G19G03G27G22G06G32G14G20G11G28
  22099062.120   116131357.170 7  22099065.880    90491984.90647
  20409582.800   107253074.284 8  20409580.840    83573813.56148
  20704744.560   108804157.729 8  20704745.660    84782461.05947
  21462110.200   112784138.794 8  21462112.900    87883750.50647
  23283868.940   122357535.475 7  23283868.840    95343522.33746
  22293787.340   117154626.873 7  22293789.180    91289319.69747
  20997711.140   110343721.634 8  20997712.540    85982129.93047
  22950908.440   120607840.820 7  22950909.940    93980142.38746
  23811656.220   125131100.821 6  23811658.880    97504767.47545
  20813745.840   109376969.591 8  20813745.320    85228802.32247
  24617611.040   129366414.611 6  24617612.420   100804991.83445
 14  1  9  8 25 30.0000000  0 11G01G19G03G27G22G06G32G14G20G11G28
  22088030.400   116073385.146 7  22088034.260    90446811.87347
  20410150.340   107256056.499 8  20410148.360    83576137.33248
  20717607.600   108871753.658 8  20717608.760    84835133.16047
  21475150.920   112852667.925 8  21475153.680    87937149.78147
  23300803.780   122446528.110 7  23300803.600    95412867.12346
  22309282.120   117236051.906 7  22309283.860    91352767.69446
  20985392.160   110278984.411 8  20985393.540    85931685.34347
  22946813.260   120586320.189 7  22946814.840    93963373.08846
  23792106.000   125028364.084 6  23792108.780    97424712.97146
  20804784.240   109329875.813 8  20804783.760    85192105.85147
  24604824.740   129299221.796 6  24604826.060   100752633.75545
 14  1  9  8 26  0.0000000  0 11G01G19G03G27G22G06G32G14G20G11G28
  22077026.880   116015560.992 7  22077030.640    90401754.08547
  20410802.460   107259483.449 8  20410800.520    83578807.66248
  20730555.860   108939796.987 8  20730557.080    84888153.88747
  21488264.680   112921580.833 8  21488267.500    87990848.10247
  23317768.060   122535675.578 7  23317767.760    95482332.56946
  22324831.680   117317764.872 7  22324833.440    91416440.04346
  20973165.100   110214730.320 8  20973166.420    85881617.22647
  22942813.240   120565299.947 7  22942814.820    93946993.71046
  23772588.760   124925800.548 7  23772591.660    97344793.40045
  20795873.080   109283047.125 8  20795872.600    85155615.94247
  24592110.340   129232407.572 6  24592111.880   100700570.72446
 14  1  9  8 26 30.0000000  0 11G01G19G03G27G22G06G32G14G20G11G28
  22066051.320   115957883.210 7  22066054.840    90356810.35247
  20411539.000   107263354.245 8  20411537.140    83581823.83848
  20743588.760   109008284.876 8  20743589.980    84941521.03547
  21501450.900   112990874.995 8  21501453.800    88044843.49847
  23334761.100   122624974.398 7  23334760.760    95551915.94546
  22340435.480   117399762.711 7  22340437.220    91480334.39446
  20961029.840   110150959.014 8  20961031.140    85831925.30647
  22938908.360   120544779.880 7  22938910.000    93931004.08046
  23753104.560   124823409.821 6  23753107.240    97265008.52445
  20787012.240   109236482.784 8  20787011.780    85119332.01947
  24579467.900   129165972.024 6  24579469.760   100648802.72745
 14  1  9  8 27  0.0000000  0 11G01G19G03G27G22G06G32G14G20G11G28
  22055104.000   115900354.064 7  22055107.320    90311982.42047
  20412360.580   107267671.591 8  20412358.740    83585187.97548
  20756706.380   109077217.911 8  20756707.580    84995235.04147
  21514709.840   113060551.513 8  21514712.900    88099136.83947
  23351782.980   122714424.524 7  23351782.640    95621617.20646
  22356093.600   117482046.117 7  22356095.420    91544451.25047
  20948987.060   110087673.794 8  20948988.300    85782612.15347
  22935099.360   120524763.691 7  22935101.000    93915407.08746
  23733653.920   124721195.815 6  23733656.380    97185361.33445
  20778202.280   109190185.835 8  20778201.860    85083256.44647
  24566898.300   129099919.237 6  24566900.360   100597333.03145
 14  1  9  8 27 30.0000000  0 11G01G19G03G27G22G06G32G14G20G11G28
  22044184.400   115842971.055 7  22044187.760    90267268.36047
  20413266.860   107272433.861 8  20413265.020    83588898.81148
  20769907.840   109146591.800 8  20769908.980    85049292.56947
  21528040.940   113130606.893 8  21528044.100    88153725.38347
  23368832.800   122804021.381 7  23368832.460    95691432.81846
  22371805.340   117564611.674 7  22371807.400    91608787.95546
  20937036.500   110024873.419 8  20937037.620    85733676.79647
  22931386.020   120505250.118 7  22931387.660    93900201.74446
  23714236.900   124619157.667 7  23714238.800    97105851.16645
  20769442.840   109144154.656 8  20769442.480    85047387.97347
  24554401.580   129034248.800 6  24554403.600   100546161.16445
 14  1  9  8 28  0.0000000  0 11G01G19G03G27G22G06G32G14G20G11G28
  22033292.920   115785735.747 7  22033296.320    90222669.39047
  20414258.100   107277642.721 8  20414256.260    83592957.63448
  20783193.200   109216406.501 8  20783194.280    85103693.58047
  21541444.300   113201041.468 8  21541447.420    88208609.42147
  23385910.400   122893764.107 7  23385910.040    95761362.10546
  22387570.760   117647459.384 7  22387572.920    91673344.52446
  20925178.620   109962560.469 8  20925179.720    85685121.24947
  22927768.900   120486241.819 7  22927770.420    93885390.11346
  23694853.640   124517298.145 6  23694855.300    97026480.21946
  20760734.400   109098391.432 8  20760733.960    85011728.28747
  24541978.240   128968964.000 6  24541980.220   100495289.89345
 14  1  9  8 28 30.0000000  0 11G01G19G03G27G22G06G32G14G20G11G28
  22022429.640   115728648.505 7  22022433.000    90178185.81247
  20415334.700   107283300.095 8  20415332.800    83597365.94848
  20796562.260   109286660.824 8  20796563.260    85158437.16347
  21554919.720   113271854.597 8  21554922.760    88263788.42147
  23403015.480   122983651.279 7  23403015.020    95831403.95246
  22403389.660   117730587.970 7  22403391.840    91738119.94346
  20913413.820   109900736.461 8  20913415.020    85636946.70447
  22924248.160   120467740.300 7  22924249.720    93870973.36246
  23675504.600   124415619.158 6  23675506.080    96947249.90645
  20752077.220   109052897.699 8  20752076.700    84976278.59047
  24529628.960   128904066.847 6  24529630.540   100444720.66945
 14  1  9  8 29  0.0000000  0 11G01G19G03G27G22G06G32G14G20G11G28
  22011594.340   115671708.301 7  22011597.660    90133816.80447
  20416496.480   107289405.314 8  20416494.620    83602123.23548
  20810014.420   109357352.244 8  20810015.400    85213521.33547
  21568466.740   113343044.029 8  21568469.720    88319260.65347
  23420147.380   123073679.535 7  23420146.820    95901555.73246
  22419261.520   117813995.207 7  22419263.700    91803112.50346
  20901742.100   109839401.272 8  20901743.400    85589153.05347
  22920823.860   120449745.832 7  22920825.480    93856951.74146
  23656189.980   124314121.106 6  23656191.500    96868160.57946
  20743471.240   109007673.087 8  20743470.720    84941038.60447
  24517353.700   128839558.178 6  24517354.800   100394454.14745
 14  1  9  8 29 30.0000000  0 11G01G19G03G27G22G06G32G14G20G11G28
  22000787.360   115614917.301 7  22000790.760    90089564.06447
  20417743.980   107295960.797 8  20417742.100    83607231.36548
  20823549.840   109428481.322 8  20823550.900    85268946.54247
  21582085.440   113414610.765 8  21582088.460    88375026.86747
  23437306.140   123163848.741 7  23437305.540    95971817.33246
  22435186.540   117897681.555 7  22435188.660    91868322.55746
  20890164.100   109778558.151 8  20890165.460    85541742.82947
  22917496.660   120432261.882 7  22917498.440    93843327.90246
  23636910.640   124212807.711 6  23636912.260    96789215.15246
  20734916.980   108962720.518 8  20734916.620    84906010.61047
  24505152.960   128775441.956 6  24505153.900   100344493.43445
 14  1  9  8 30  0.0000000  0 11G01G19G03G27G22G06G32G14G20G11G28
  21990008.240   115558272.830 7  21990011.820    90045425.49747
  20419076.740   107302964.396 8  20419074.920    83612688.68648
  20837167.700   109500043.617 8  20837168.840    85324709.32247
  21595775.180   113486550.945 8  21595778.220    88431084.10047
  23454490.860   123254154.209 7  23454490.240    96042185.11446
  22451163.980   117981642.951 7  22451166.020    91933746.92346
  20878679.460   109718205.424 8  20878680.780    85494714.72447
  22914266.280   120415286.836 7  22914268.000    93830100.61446
  23617666.240   124111677.594 7  23617667.920    96710412.54545
  20726414.140   108918038.074 8  20726413.980    84871193.10447
  24493026.840   128711717.357 6  24493027.460   100294837.85545
 14  1  9  8 30 30.0000000  0 11G01G19G03G27G22G06G32G14G20G11G28
  21979257.620   115501778.287 7  21979261.340    90001403.76547
  20420495.620   107310420.471 8  20420493.820    83618498.57848
  20850868.340   109572040.627 8  20850869.540    85380810.83347
  21609536.440   113558866.812 8  21609539.460    88487434.06147
  23471701.880   123344597.463 7  23471701.100    96112660.27146
  22467194.280   118065881.719 7  22467196.140    91999387.42946
  20867289.000   109658347.596 8  20867290.280    85448072.25547
  22911133.620   120398825.085 7  22911135.180    93817273.26546
  23598457.660   124010735.635 7  23598459.280    96631756.51246
  20717963.580   108873630.162 8  20717963.500    84836589.51047
  24480976.280   128648389.360 6  24480976.600   100245491.32245
 14  1  9  8 31  0.0000000  0 11G01G19G03G27G22G06G32G14G20G11G28
  21968534.900   115445430.481 7  21968538.660    89957496.36547
  20422000.040   107318326.207 8  20421998.300    83624658.86148
  20864650.920   109644468.156 8  20864652.140    85437247.81647
  21623368.500   113631553.958 8  21623371.360    88544073.33547
  23488938.020   123435172.663 7  23488937.020    96183238.22646
  22483276.400   118150392.945 7  22483278.140    92065240.26046
  20855992.120   109598982.233 8  20855993.380    85401813.51847
  22908098.320   120382874.350 7  22908099.680    93804844.09646
  23579284.480   123909979.876 7  23579286.300    96553245.58846
  20709564.820   108829494.381 8  20709564.760    84802197.95747
  24469000.880   128585456.341 6  24469001.080   100196452.56045
 14  1  9  8 31 30.0000000  0 11G01G19G03G27G22G06G32G14G20G11G28
  21957841.080   115389233.810 7  21957844.700    89913706.74547
  20423591.020   107326686.698 8  20423589.320    83631173.50348
  20878515.700   109717327.999 8  20878516.980    85494021.66647
  21637271.800   113704615.560 8  21637274.560    88601004.37947
  23506199.680   123525882.334 7  23506198.560    96253920.97446
  22499410.760   118235179.277 7  22499412.520    92131307.43646
  20844789.980   109540114.886 8  20844791.260    85355942.85247
  22905161.360   120367440.174 7  22905162.620    93792817.45646
  23560147.860   123809416.288 6  23560149.780    96474884.38446
  20701218.900   108785636.033 8  20701218.840    84768022.60547
  24457101.600   128522925.023 6  24457102.120   100147726.82744
 14  1  9  8 32  0.0000000  0 11G01G19G03G27G22G06G32G14G20G11G28
  21947175.580   115333185.934 7  21947179.180    89870033.07047
  20425268.120   107335499.676 8  20425266.360    83638040.72448
  20892462.040   109790616.345 8  20892463.320    85551129.40647
  21651245.660   113778047.933 8  21651248.360    88658224.33847
  23523485.920   123616721.912 7  23523484.900    96324704.94646
  22515596.820   118320237.375 7  22515598.720    92197586.38646
  20833682.320   109481743.910 8  20833683.580    85310458.96447
  22902322.440   120352521.280 7  22902323.680    93781192.31546
  23541047.600   123709043.684 6  23541049.480    96396672.02946
  20692925.460   108742053.368 8  20692925.320    84734062.06047
  24445278.580   128460794.235 6  24445279.100   100099313.22445
 14  1  9  8 32 30.0000000  0 11G01G19G03G27G22G06G32G14G20G11G28
  21936538.500   115277287.560 7  21936542.100    89826475.87047
  20427031.580   107344766.789 8  20427029.800    83645261.81248
  20906489.720   109864332.258 8  20906490.980    85608570.32147
  21665289.960   113851850.694 8  21665292.640    88715732.91647
  23540796.600   123707690.234 7  23540795.740    96395589.25846
  22531834.320   118405566.510 7  22531836.400    92264076.52746
  20822669.520   109423871.129 8  20822670.700    85265363.27247
  22899581.840   120338119.522 7  22899583.160    93769970.13946
  23521984.140   123608864.570 7  23521986.000    96318610.42645
  20684684.740   108698748.223 8  20684684.620    84700317.78147
  24433532.180   128399066.357 6  24433532.520   100051213.52245
 14  1  9  8 33  0.0000000  0 11G01G19G03G27G22G06G32G14G20G11G28
  21925929.680   115221537.577 7  21925933.360    89783034.31347
  20428881.360   107354487.317 8  20428879.560    83652836.21248
  20920598.240   109938472.937 8  20920599.460    85666342.23347
  21679404.200   113926021.397 8  21679406.980    88773528.18947
  23558131.040   123798783.707 7  23558130.400    96466571.09146
  22548122.960   118491163.931 7  22548125.200    92330775.72146
  20811751.440   109366496.203 8  20811752.600    85220655.51947
  22896939.580   120324234.667 7  22896941.100    93759150.74146
  23502957.460   123508879.238 7  23502959.280    96240699.79345
  20676496.720   108655720.022 8  20676496.620    84666789.27847
  24421862.680   128337742.145 7  24421862.900   100003428.41945
 14  1  9  8 33 30.0000000  0 11G01G19G03G27G22G06G32G14G20G11G28
  21915349.300   115165937.108 7  21915353.020    89739709.25247
  20430817.740   107364662.924 8  20430815.960    83660765.21548
  20934787.360   110013037.347 8  20934788.620    85724444.29747
  21693588.420   114000559.911 8  21693591.300    88831610.08447
  23575489.200   123890001.382 7  23575488.640    96537649.68746
  22564462.620   118577029.250 7  22564465.020    92397683.65846
  20800928.500   109309621.022 8  20800929.620    85176337.17447
  22894396.140   120310868.548 7  22894397.660    93748735.54446
  23483968.160   123409089.888 7  23483969.840    96162941.87045
  20668361.920   108612970.818 8  20668361.780    84633478.18347
  24410270.380   128276824.510 6  24410270.900    99955960.08546
 14  1  9  8 34  0.0000000  0 11G01G19G03G27G22G06G32G14G20G11G28
  21904797.120   115110485.868 7  21904801.120    89696500.47147
  20432840.740   107375293.669 8  20432838.980    83669048.87448
  20949056.820   110088023.716 8  20949058.160    85782875.17247
  21707842.320   114075464.572 8  21707845.260    88889977.27947
  23592870.680   123981340.974 7  23592870.100    96608823.27646
  22580852.880   118663160.067 7  22580855.300    92464798.48246
  20790200.780   109253246.279 8  20790201.920    85132408.78047
  22891951.660   120298021.943 7  22891953.080    93738725.15646
  23465016.380   123309497.383 7  23465017.920    96085337.37646
  20660280.300   108570501.200 8  20660280.120    84600384.94847
  24398755.640   128216314.614 6  24398756.340    99908809.48245
 14  1  9  8 34 30.0000000  0 11G01G19G03G27G22G06G32G14G20G11G28
  21894273.440   115055184.080 7  21894277.500    89653408.15247
  20434950.500   107386380.227 8  20434948.720    83677687.71248
  20963406.300   110163430.172 8  20963407.660    85841633.38847
  21722165.700   114150734.318 8  21722168.680    88948628.94947
  23610275.020   124072800.453 7  23610274.420    96680090.28146
  22597293.640   118749555.838 7  22597295.900    92532119.76946
  20779568.480   109197372.955 8  20779569.680    85088871.10347
  22889606.300   120285696.363 7  22889607.600    93729120.76746
  23446102.440   123210103.742 7  23446103.880    96007887.81846
  20652251.980   108528312.118 8  20652251.840    84567510.31247
  24387318.780   128156214.344 6  24387319.580    99861978.10745
 14  1  9  8 35  0.0000000  0 11G01G19G03G27G22G06G32G14G20G11G28
  21883778.480   115000032.495 7  21883782.400    89610432.88547
  20437147.160   107397923.617 8  20437145.360    83686682.51848
  20977835.540   110239255.617 8  20977836.920    85900718.09047
  21736558.440   114226368.598 8  21736561.420    89007564.67647
  23627701.940   124164378.532 7  23627701.320    96751449.73546
  22613784.560   118836215.453 7  22613786.740    92599646.63646
  20769031.860   109142002.522 8  20769033.140    85045725.28047
  22887360.300   120273893.112 7  22887361.560    93719923.38946
  23427226.700   123110910.862 7  23427228.020    95930594.68345
  20644277.320   108486405.026 8  20644277.180    84534855.40047
  24375960.240   128096526.290 6  24375961.260    99815467.94745
 14  1  9  8 35 30.0000000  0 11G01G19G03G27G22G06G32G14G20G11G28
  21873312.040   114945030.654 7  21873315.840    89567574.28147
  20439430.760   107409923.908 8  20439428.960    83696033.35348
  20992344.020   110315497.971 8  20992345.420    85960127.65447
  21751020.160   114302365.579 8  21751023.160    89066783.01447
  23645150.820   124256072.668 7  23645150.380    96822899.59146
  22630325.220   118923136.724 7  22630327.420    92667377.41146
  20758591.000   109087135.343 8  20758592.320    85002971.61047
  22885213.720   120262612.498 7  22885215.000    93711133.27846
  23408389.340   123011919.691 7  23408390.480    95853458.71446
  20636356.460   108444780.376 8  20636356.200    84502420.56547
  24364680.420   128037251.308 6  24364681.460    99769279.61745
 14  1  9  8 36  0.0000000  0 11G01G19G03G27G22G06G32G14G20G11G28
  21862874.220   114890179.439 7  21862878.120    89524833.05847
  20441801.580   107422382.523 8  20441799.780    83705741.32248
  21006931.620   110392156.324 8  21006933.040    86019861.36647
  21765550.880   114378724.757 8  21765553.860    89126283.60747
  23662621.420   124347881.800 7  23662621.280    96894439.02746
  22646915.580   119010319.226 7  22646917.760    92735311.72446
  20748246.240   109032773.008 8  20748247.620    84960611.32447
  22883166.920   120251856.396 7  22883168.180    93702751.84146
  23389590.640   122913132.255 7  23389591.840    95776481.52445
  20628489.700   108403439.976 8  20628489.360    84470207.22947
  24353479.760   127978391.737 6  24353480.880    99723414.95745
 14  1  9  8 36 30.0000000  0 11G01G19G03G27G22G06G32G14G20G11G28
  21852464.860   114835477.815 7  21852468.820    89482208.38347
  20444259.400   107435298.457 8  20444257.620    83715805.64348
  21021597.860   110469227.741 8  21021599.280    86079916.95047
  21780150.140   114455443.711 8  21780153.020    89186064.53547
  23680113.240   124439802.221 7  23680113.400    96966065.19846
  22663555.140   119097760.139 7  22663557.240    92803447.40646
  20737997.520   108978915.176 8  20737998.800    84918644.15247
  22881219.780   120241624.207 7  22881220.960    93694778.67146
  23370830.680   122814548.959 7  23370832.020    95699663.39646
  20620676.900   108362383.222 8  20620676.560    84438214.92947
  24342358.360   127919948.268 6  24342359.480    99677874.54845
 14  1  9  8 37  0.0000000  0 11G01G19G03G27G22G06G32G14G20G11G28
  21842084.500   114780928.734 7  21842088.520    89439702.58147
  20446804.940   107448675.102 8  20446803.160    83726228.95648
  21036342.840   110546712.910 8  21036344.260    86140294.93747
  21794818.180   114532524.038 8  21794820.880    89246127.05947
  23697626.600   124531835.111 7  23697626.960    97037779.01746
  22680244.140   119185460.833 7  22680246.240    92871785.50846
  20727845.460   108925565.549 8  20727846.660    84877072.98747
  22879373.080   120231920.129 7  22879374.320    93687217.01346
  23352110.300   122716174.062 7  23352111.840    95623007.63246
  20612918.880   108321614.155 8  20612918.560    84406446.79647
  24331316.880   127861925.432 6  24331318.220    99632661.92245
 14  1  9  8 37 30.0000000  0 11G01G19G03G27G22G06G32G14G20G11G28
  21831732.340   114726527.903 7  21831736.360    89397312.28847
  20449437.460   107462508.841 8  20449435.660    83737008.45248
  21051165.400   110624605.792 8  21051166.840    86200990.61547
  21809553.840   114609959.960 8  21809556.520    89306466.67147
  23715160.180   124623974.059 7  23715160.700    97109575.45546
  22696981.440   119273415.494 7  22696983.620    92940321.50146
  20717789.360   108872720.458 8  20717790.540    84835894.97347
  22877626.200   120222740.389 7  22877627.520    93680063.93646
  23333428.980   122618004.424 6  23333430.680    95546511.83446
  20605214.960   108281129.624 8  20605214.740    84374900.38447
  24320355.000   127804320.382 6  24320356.400    99587774.84645
 14  1  9  8 38  0.0000000  0 11G01G19G03G27G22G06G32G14G20G11G28
  21821408.840   114672277.518 7  21821412.800    89355039.24147
  20452157.340   107476801.818 8  20452155.580    83748145.79748
  21066065.640   110702906.824 8  21066067.060    86262004.34347
  21824357.280   114687752.323 8  21824360.020    89367084.02147
  23732713.900   124716219.150 7  23732714.560    97181454.58246
  22713767.140   119361624.693 7  22713769.340    93009055.83546
  20707829.840   108820382.798 8  20707831.020    84795112.36547
  22875979.820   120214087.863 7  22875981.020    93673321.69046
  23314787.620   122520043.776 7  23314789.320    95470178.86045
  20597565.680   108240932.297 8  20597565.480    84343577.76947
  24309473.400   127747137.033 6  24309474.840    99543216.34945
 14  1  9  8 38 30.0000000  0 11G01G19G03G27G22G06G32G14G20G11G28
  21811114.120   114618178.622 7  21811118.080    89312884.24147
  20454964.880   107491555.435 8  20454963.160    83759642.07748
  21081043.360   110781614.917 8  21081044.700    86323335.25247
  21839228.440   114765900.709 8  21839231.240    89427978.79447
  23750287.680   124808569.335 7  23750288.340    97253415.60646
  22730601.160   119450087.800 7  22730603.460    93077988.01846
  20697967.140   108768554.131 8  20697968.360    84754726.38647
  22874434.060   120205964.274 7  22874435.060    93666991.57646
  23296186.500   122422294.588 7  23296188.200    95394010.70646
  20589971.360   108201023.800 8  20589971.140    84312480.21247
  24298672.460   127690377.568 6  24298674.020    99498988.19045
 14  1  9  8 39  0.0000000  0 11G01G19G03G27G22G06G32G14G20G11G28
  21800847.960   114564229.674 7  21800851.980    89270846.07547
  20457859.840   107506768.550 8  20457858.180    83771496.40948
  21096097.860   110860726.496 8  21096099.140    86384980.56947
  21854166.740   114844402.100 8  21854169.660    89489148.64847
  23767880.800   124901020.867 7  23767881.340    97325455.60346
  22747482.860   119538801.627 7  22747485.240    93147115.57346
  20688201.160   108717233.583 8  20688202.460    84714736.34147
  22872988.780   120198368.719 7  22872989.700    93661072.92546
  23277625.660   122324756.003 7  23277627.200    95318006.63345
  20582431.920   108161403.565 8  20582431.640    84281607.26947
  24287952.200   127634042.006 6  24287953.800    99455090.37046
 14  1  9  8 39 30.0000000  0 11G01G19G03G27G22G06G32G14G20G11G28
  21790610.860   114510432.901 7  21790614.860    89228926.49547
  20460842.720   107522443.627 8  20460841.120    83783710.70848
  21111229.200   110940241.909 8  21111230.520    86446940.55647
  21869172.420   114923257.216 8  21869175.380    89550594.11547
  23785493.240   124993573.894 7  23785493.700    97397574.67746
  22764412.460   119627766.802 7  22764414.920    93216438.98046
  20678532.360   108666423.872 8  20678533.740    84675144.34647
  22871644.520   120191304.333 7  22871645.460    93655568.17346
  23259105.600   122227431.800 7  23259107.060    95242169.60646
  20574947.960   108122074.665 8  20574947.600    84250961.33847
  24277313.260   127578134.189 6  24277314.900    99411525.85345
 14  1  9  8 40  0.0000000  0 11G01G19G03G27G22G06G32G14G20G11G28
  21780402.500   114456786.966 7  21780406.340    89187124.44147
  20463913.320   107538579.492 8  20463911.720    83796284.06248
  21126436.780   111020157.961 8  21126438.140    86509212.73447
  21884244.940   115002463.257 8  21884247.880    89612313.03247
  23803124.440   125086225.022 7  23803124.620    97469770.18046
  22781389.280   119716980.328 7  22781391.900    93285955.90346
  20668960.600   108616124.254 8  20668962.100    84635949.83547
  22870401.160   120184770.114 7  22870402.200    93650476.54346
  23240626.240   122130321.856 7  23240627.900    95166499.55246
  20567519.280   108083036.359 8  20567518.960    84220541.85247
  24266755.900   127522653.994 6  24266757.200    99368294.50245
 14  1  9  8 40 30.0000000  0 11G01G19G03G27G22G06G32G14G20G11G28
  21770223.220   114403294.221 7  21770227.020    89145441.75847
  20467072.140   107555178.853 8  20467070.500    83809218.58748
  21141720.640   111100474.790 8  21141722.000    86571797.20547
  21899384.400   115082021.054 7  21899387.340    89674306.05147
  23820774.420   125178974.785 7  23820774.420    97542042.53046
  22798413.460   119806442.719 7  22798416.120    93355666.74846
  20659486.480   108566337.604 8  20659488.040    84597155.03647
  22869259.320   120178769.100 7  22869260.320    93645800.41846
  23222188.280   122033429.643 7  23222189.980    95090999.14146
  20560146.520   108044292.128 8  20560146.240    84190351.52047
  24256280.540   127467605.306 6  24256281.780    99325399.38845
 14  1  9  8 41  0.0000000  0 11G01G19G03G27G22G06G32G14G20G11G28
  21760072.740   114349952.994 7  21760076.540    89103877.13747
  20470318.840   107572240.059 8  20470317.160    83822512.98448
  21157080.020   111181188.593 8  21157081.400    86634690.99847
  21914590.180   115161927.455 8  21914593.180    89736570.68947
  23838442.280   125271819.054 7  23838442.280    97614388.51146
  22815484.480   119896150.799 7  22815487.080    93425569.03646
  20650109.820   108517062.787 8  20650111.340    84558759.05847
  22868218.680   120173300.046 7  22868219.740    93641538.80346
  23203791.680   121936755.073 7  23203793.380    95015668.30346
  20552829.500   108005840.976 8  20552829.240    84160389.55247
  24245887.300   127412987.862 6  24245888.500    99282840.31245
 14  1  9  8 41 30.0000000  0 11G01G19G03G27G22G06G32G14G20G11G28
  21749951.120   114296763.388 8  21749954.980    89062430.66847
  20473653.420   107589763.272 8  20473651.780    83836167.39448
  21172514.480   111262297.375 8  21172515.980    86697892.57447
  21929862.000   115242180.977 8  21929865.080    89799105.83447
  23856127.780   125364755.747 7  23856127.740    97686806.52846
  22832601.880   119986102.794 7  22832604.420    93495661.38946
  20640830.700   108468300.333 8  20640832.100    84520762.32847
  22867279.400   120168363.552 7  22867280.300    93637692.17246
  23185436.720   121840299.307 7  23185438.400    94940507.99746
  20545568.380   107967683.415 8  20545568.140    84130656.35947
  24235576.440   127358803.071 6  24235577.500    99240618.39445
 14  1  9  8 42  0.0000000  0 11G01G19G03G27G22G06G32G14G20G11G28
  21739858.900   114243727.772 8  21739862.700    89021104.19247
  20477076.460   107607751.429 8  20477074.880    83850184.10148
  21188024.240   111343801.583 8  21188025.800    86761402.27547
  21945199.980   115322782.507 7  21945203.140    89861912.14247
  23873830.900   125457785.272 6  23873830.900    97759296.89346
  22849765.840   120076299.558 7  22849768.320    93565944.48546
  20631649.640   108420053.143 8  20631650.900    84483167.10747
  22866441.900   120163962.523 7  22866442.820    93634262.77446
  23167124.020   121744065.703 7  23167125.680    94865520.79346
  20538363.780   107929823.099 8  20538363.540    84101154.78847
  24225348.600   127305054.894 6  24225349.580    99198736.68445
 14  1  9  8 42 30.0000000  0 11G01G19G03G27G22G06G32G14G20G11G28
  21729795.540   114190844.220 8  21729799.360    88979896.19447
  20480587.640   107626202.437 8  20480586.020    83864561.46448
  21203608.560   111425697.390 8  21203610.120    86825217.11047
  21960603.460   115403728.474 7  21960606.740    89924986.84547
  23891550.800   125550903.927 7  23891551.120    97831856.71746
  22866975.600   120166737.142 7  22866978.140    93636415.21346
  20622566.280   108372319.590 8  20622567.480    84445972.11747
  22865705.940   120160095.589 7  22865707.080    93631249.55946
  23148853.480   121648053.611 7  23148855.080    94790706.18345
  20531215.400   107892258.427 8  20531215.200    84071883.59247
  24215203.680   127251742.469 6  24215204.620    99157194.52945
 14  1  9  8 43  0.0000000  0 11G01G19G03G27G22G06G32G14G20G11G28
  21719761.220   114138113.817 7  21719765.180    88938807.53447
  20484187.080   107645117.419 8  20484185.500    83879300.37348
  21219267.200   111507983.797 8  21219268.720    86889336.31447
  21976072.440   115485018.463 7  21976075.860    89988329.62147
  23909287.540   125644110.652 7  23909287.940    97904485.14346
  22884231.140   120257415.155 7  22884233.740    93707073.28846
  20613580.940   108325101.226 8  20613582.080    84409178.56847
  22865071.860   120156764.160 7  22865073.280    93628653.61146
  23130625.660   121552265.343 7  23130627.060    94716065.98145
  20524123.760   107854991.331 8  20524123.540    84042844.27047
  24205142.120   127198868.439 6  24205143.080    99115994.00445
 14  1  9  8 43 30.0000000  0 11G01G19G03G27G22G06G32G14G20G11G28
  21709755.780   114085535.132 7  21709759.780    88897837.09947
  20487874.600   107664495.383 8  20487873.100    83894400.04748
  21234999.440   111590657.060 8  21235001.020    86953756.96347
  21991606.340   115566649.388 7  21991609.800    90051938.05647
  23927040.420   125737401.952 6  23927040.840    97977179.49846
  22901531.780   120348330.222 7  22901534.380    93777916.10746
  20604693.380   108278396.961 8  20604694.520    84372785.61647
  22864539.680   120153967.488 7  22864541.180    93626474.34546
  23112440.340   121456700.654 7  23112441.700    94641600.01346
  20517088.640   107818021.460 8  20517088.480    84014036.56047
  24195163.920   127146432.484 6  24195164.880    99075134.75345
 14  1  9  8 44  0.0000000  0 11G01G19G03G27G22G06G32G14G20G11G28
  21699779.940   114033112.036 7  21699783.920    88856987.90747
  20491651.000   107684340.237 8  20491649.480    83909863.53048
  21250805.640   111673719.008 8  21250807.260    87018480.48047
  22007205.580   115648623.477 7  22007208.980    90115813.89047
  23944809.620   125830779.331 6  23944810.080    98049940.93145
  22918877.800   120439484.548 7  22918880.680    93848945.34146
  20595904.440   108232211.101 8  20595905.600    84336796.62247
  22864110.020   120151709.588 7  22864111.520    93624714.90046
  23094298.500   121361364.250 7  23094299.760    94567311.91446
  20510110.880   107781353.257 8  20510110.780    83985463.91247
  24185270.060   127094439.788 7  24185271.020    99034620.95245
 14  1  9  8 44 30.0000000  0 11G01G19G03G27G22G06G32G14G20G11G28
  21689833.280   113980842.117 7  21689837.320    88816258.07347
  20495515.720   107704649.188 8  20495514.140    83925688.64248
  21266684.880   111757164.943 8  21266686.540    87083503.20947
  22022869.420   115730936.771 7  22022872.720    90179954.04347
  23962594.240   125924238.547 6  23962594.800    98122766.13946
  22936268.620   120530873.784 7  22936271.640    93920157.60946
  20587213.800   108186541.595 8  20587215.000    84301209.99447
  22863782.560   120149988.356 7  22863783.960    93623373.63346
  23076199.860   121266255.444 7  23076201.300    94493201.16646
  20503190.200   107744984.975 8  20503190.120    83957124.97047
  24175460.200   127042889.269 7  24175461.180    98994451.69045
 14  1  9  8 45  0.0000000  0 11G01G19G03G27G22G06G32G14G20G11G28
  21679915.840   113928725.552 7  21679919.960    88775647.73047
  20499468.880   107725422.958 8  20499467.240    83941875.95648
  21282636.920   111840993.174 8  21282638.600    87148823.83147
  22038597.480   115813587.706 7  22038600.720    90244357.28947
  23980393.900   126017777.556 6  23980394.840    98195653.55346
  22953704.020   120622496.838 7  22953707.020    93991552.07446
  20578621.520   108141388.764 8  20578622.720    84266025.96647
  22863557.420   120148804.441 7  22863558.720    93622451.04946
  23058144.800   121171375.445 7  23058146.340    94419268.68546
  20496326.840   107708917.625 8  20496326.700    83929020.51547
  24165734.840   126991782.187 7  24165735.920    98954627.98546
 14  1  9  8 45 30.0000000  0 11G01G19G03G27G22G06G32G14G20G11G28
  21670027.780   113876763.535 7  21670031.980    88735157.82647
  20503510.720   107746662.761 8  20503509.080    83958426.41148
  21298661.540   111925202.627 8  21298663.220    87214441.50247
  22054389.720   115896575.864 7  22054392.920    90309023.32147
  23998208.540   126111395.414 6  23998209.940    98268602.38845
  22971183.740   120714352.691 7  22971186.680    94063127.95246
  20570127.940   108096754.191 8  20570129.100    84231245.77247
  22863434.700   120148159.336 7  22863436.060    93621948.30046
  23040133.700   121076726.502 7  23040135.460    94345516.27846
  20489521.160   107673153.433 8  20489521.100    83901152.29747
  24156094.300   126941121.198 7  24156095.540    98915151.87245
 14  1  9  8 46  0.0000000  0 11G01G19G03G27G22G06G32G14G20G11G28
  21660169.080   113824955.814 7  21660173.240    88694788.14947
  20507641.200   107768368.225 8  20507639.540    83975339.71648
  21314758.160   112009790.665 8  21314759.860    87280354.17847
  22070245.660   115979899.376 7  22070248.880    90373950.64747
  24016037.980   126205089.958 6  24016039.660    98341610.98846
  22988707.340   120806439.297 7  22988710.360    94134883.66546
  20561732.940   108052637.855 8  20561734.100    84196869.39947
  22863414.400   120148053.066 7  22863416.000    93621865.43346
  23022166.600   120982308.962 7  23022168.480    94271944.17146
  20482773.140   107637692.382 8  20482773.180    83873520.29148
  24146538.900   126890907.201 7  24146540.040    98876024.03445
 14  1  9  8 46 30.0000000  0 11G01G19G03G27G22G06G32G14G20G11G28
  21650339.620   113773301.858 7  21650343.740    88654538.29947
  20511860.160   107790538.844 8  20511858.560    83992615.48048
  21330926.320   112094754.633 8  21330928.040    87346559.78347
  22086164.960   116063555.930 7  22086168.120    90439137.49547
  24033881.740   126298858.670 6  24033883.640    98414677.39046
  23006274.400   120898754.395 7  23006277.520    94206817.37246
  20553436.480   108009039.495 8  20553437.660    84162896.64547
  22863496.680   120148485.371 7  22863498.320    93622202.22846
  23004243.720   120888123.894 7  23004245.600    94198553.23046
  20476082.880   107602534.779 8  20476082.960    83846124.74647
  24137068.640   126841140.654 7  24137069.860    98837244.85846
 14  1  9  8 47  0.0000000  0 11G01G19G03G27G22G06G32G14G20G11G28
  21640539.580   113721802.298 7  21640543.620    88614408.74947
  20516167.660   107813174.983 8  20516166.140    84010253.99348
  21347165.720   112180092.898 8  21347167.400    87413057.04347
  22102147.400   116147544.469 7  22102150.660    90504583.02747
  24051739.320   126392700.064 6  24051741.400    98487800.40545
  23023884.660   120991296.641 7  23023887.840    94278928.11346
  20545238.700   107965959.884 8  20545239.880    84129328.11047
  22863681.620   120149456.836 7  22863683.180    93622959.11946
  22986365.400   120794173.080 7  22986367.280    94125344.80946
  20469450.580   107567682.038 8  20469450.720    83818966.75647
  24127683.980   126791823.710 7  24127685.140    98798816.04545
 14  1  9  8 47 30.0000000  0 11G01G19G03G27G22G06G32G14G20G11G28
  21630769.300   113670458.660 8  21630773.320    88574400.70947
  20520564.060   107836278.397 8  20520562.580    84028256.61048
  21363476.300   112265804.955 8  21363477.880    87479845.56847
  22118193.020   116231864.808 7  22118196.440    90570287.10047
  24069610.720   126486613.943 6  24069612.840    98560979.90946
  23041538.140   121084065.874 7  23041541.400    94351215.72146
  20537139.880   107923400.705 8  20537141.160    84096165.10147
  22863969.520   120150969.379 7  22863971.140    93624137.63946
  22968532.140   120700459.005 7  22968533.860    94052320.86146
  20462876.840   107533136.623 8  20462876.940    83792048.22648
  24118385.320   126742958.738 7  24118386.400    98760739.39745
 14  1  9  8 48  0.0000000  0 11G01G19G03G27G22G06G32G14G20G11G28
  21621028.460   113619269.624 8  21621032.340    88534513.13247
  20525049.160   107859847.549 8  20525047.680    84046622.13648
  21379857.400   112351887.304 8  21379858.880    87546922.63647
  22134301.260   116316513.912 7  22134304.740    90636247.36547
  24087495.240   126580596.295 6  24087497.240    98634212.77845
  23059234.280   121177058.790 7  23059237.560    94423677.60446
  20529139.880   107881360.818 8  20529141.260    84063406.73547
  22864360.180   120153022.049 7  22864361.900    93625737.04446
  22950743.940   120606981.412 7  22950745.600    93979481.17446
  20456361.500   107498897.991 8  20456361.520    83765368.75247
  24109172.580   126694545.693 6  24109173.700    98723014.92246
 14  1  9  8 48 30.0000000  0 11G01G19G03G27G22G06G32G14G20G11G28
  21611317.300   113568236.672 8  21611321.140    88494747.18547
  20529623.160   107883883.773 8  20529621.680    84065351.62148
  21396308.800   112438339.175 8  21396310.260    87614287.64447
  22150472.120   116401491.528 7  22150475.540    90702463.60747
  24105392.700   126674646.779 6  24105394.500    98707498.73445
  23076972.940   121270275.131 7  23076976.120    94496313.59146
  20521239.060   107839841.999 8  20521240.580    84031054.40147
  22864853.780   120155616.276 7  22864855.660    93627758.45246
  22933001.160   120513742.944 7  22933002.720    93906827.82046
  20449904.940   107464968.195 8  20449904.880    83738929.92547
  24100046.340   126646587.254 6  24100047.440    98685644.66546
 14  1  9  8 49  0.0000000  0 11G01G19G03G27G22G06G32G14G20G11G28
  21601635.420   113517357.891 7  21601639.240    88455101.38247
  20534285.640   107908385.079 8  20534284.160    84084443.51148
  21412829.620   112525156.242 8  21412831.160    87681937.21447
  22166704.800   116486793.941 7  22166708.200    90768932.94247
  24123302.520   126768761.721 6  24123304.140    98780834.90946
  23094753.460   121363711.173 7  23094756.640    94569120.77246
  20513437.040   107798842.170 8  20513438.660    83999106.47647
  22865450.140   120158750.161 7  22865452.080    93630200.37946
  22915303.980   120420742.829 7  22915305.380    93834360.18846
  20443506.840   107431345.645 8  20443506.740    83712730.51347
  24091006.360   126599082.049 6  24091007.460    98648627.58745
 14  1  9  8 49 30.0000000  0 11G01G19G03G27G22G06G32G14G20G11G28
  21591983.480   113466636.649 8  21591987.340    88415578.31847
  20539037.260   107933354.995 8  20539035.760    84103900.54148
  21429420.120   112612339.501 8  21429421.780    87749872.13147
  22182999.560   116572422.792 7  22183002.840    90835656.63747
  24141224.720   126862942.383 6  24141226.300    98854222.26246
  23112575.960   121457368.307 7  23112579.080    94642100.23646
  20505734.480   107758364.936 8  20505736.120    83967565.75247
  22866149.860   120162427.312 7  22866151.820    93633065.62346
  22897652.900   120327985.097 7  22897654.280    93762081.43146
  20437168.060   107398035.055 8  20437168.000    83686774.18547
  24082053.540   126552035.054 6  24082054.700    98611967.56845
 14  1  9  8 50  0.0000000  0 11G01G19G03G27G22G06G32G14G20G11G28
  21582361.200   113416071.074 8  21582365.140    88376176.55947
  20543877.660   107958791.464 8  20543876.180    84123721.12348
  21446079.560   112699885.189 8  21446081.300    87818089.46447
  22199355.660   116658374.325 7  22199358.940    90902631.77247
  24159158.760   126957184.788 6  24159160.080    98927657.76346
  23130439.760   121551242.794 7  23130442.800    94715249.05846
  20498131.040   107718408.466 8  20498132.660    83936430.82647
  22866952.640   120166645.923 7  22866954.560    93636352.82446
  22880047.800   120235469.039 7  22880049.200    93689991.00346
  20430888.340   107365034.951 8  20430888.320    83661059.77947
  24073187.900   126505445.223 7  24073189.060    98575663.78545
 14  1  9  8 50 30.0000000  0 11G01G19G03G27G22G06G32G14G20G11G28
  21572769.000   113365663.738 8  21572773.060    88336898.11347
  20548807.320   107984696.828 8  20548805.880    84143907.07848
  21462807.960   112787793.366 8  21462809.760    87886589.25547
  22215773.300   116744649.416 7  22215776.620    90969859.04147
  24177104.600   127051489.398 6  24177105.720    99001141.71946
  23148344.880   121645335.082 7  23148348.020    94788567.59146
  20490627.200   107678975.389 8  20490628.760    83905703.73247
  22867858.980   120171408.493 7  22867860.960    93640063.88546
  22862489.300   120143198.230 7  22862490.800    93618091.67846
  20424668.380   107332348.875 8  20424668.280    83635590.08547
  24064410.120   126459316.348 7  24064410.980    98539719.13445
 14  1  9  8 51  0.0000000  0 11G01G19G03G27G22G06G32G14G20G11G28
  21563206.720   113315413.986 8  21563210.920    88297742.46047
  20553826.000   108011070.057 8  20553824.540    84164457.59748
  21479604.700   112876060.720 8  21479606.560    87955368.90747
  22232251.920   116831245.493 7  22232255.300    91037336.40147
  24195061.640   127145853.305 6  24195062.540    99074671.89545
  23166291.040   121739642.865 7  23166294.260    94862054.05646
  20483222.860   107640064.986 8  20483224.340    83875383.91147
  22868868.760   120176714.584 7  22868870.880    93644198.47946
  22844977.560   120051173.405 7  22844979.180    93546383.99746
  20418508.160   107299976.690 8  20418508.040    83610364.97347
  24055719.860   126413648.790 6  24055720.560    98504133.98245
 14  1  9  8 51 30.0000000  0 11G01G19G03G27G22G06G32G14G20G11G28
  21553674.400   113265321.582 8  21553678.560    88258709.40347
  20558933.600   108037910.568 8  20558932.080    84185372.23248
  21496469.340   112964684.723 8  21496471.160    88024426.48347
  22248791.240   116918160.540 7  22248794.720    91105062.31947
  24213029.440   127240274.597 6  24213030.280    99148246.77146
  23184277.900   121834164.064 7  23184281.160    94935706.81746
  20475917.960   107601677.073 8  20475919.320    83845471.22947
  22869981.840   120182563.709 7  22869984.100    93648756.22046
  22827512.560   119959394.802 7  22827514.280    93474868.21246
  20412407.760   107267918.887 8  20412407.700    83585384.83447
  24047117.360   126368442.907 6  24047118.320    98468908.58046
 14  1  9  8 52  0.0000000  0 11G01G19G03G27G22G06G32G14G20G11G28
  21544172.280   113215387.024 8  21544176.320    88219799.34847
  20564130.180   108065218.523 8  20564128.600    84206651.11548
  21513401.600   113053663.914 8  21513403.320    88093760.82147
  22265391.100   117005393.162 7  22265394.580    91173035.70347
  24231007.840   127334751.606 6  24231008.500    99221865.05145
  23202305.100   121928896.877 7  23202308.300    95009524.45946
  20468712.540   107563812.073 8  20468713.840    83815966.01147
  22871198.200   120188956.199 7  22871200.540    93653737.37446
  22810094.820   119867864.068 7  22810096.460    93403545.53246
  20406367.360   107236176.513 8  20406367.380    83560650.49248
  24038602.980   126323700.465 6  24038604.300    98434044.27445
 14  1  9  8 52 30.0000000  0 11G01G19G03G27G22G06G32G14G20G11G28
  21534699.860   113165608.624 8  21534703.820    88181010.96247
  20569415.360   108092992.316 8  20569413.840    84228292.98648
  21530400.660   113142994.041 8  21530402.260    88163368.62447
  22282050.740   117092939.843 7  22282054.240    91241253.80647
  24248996.240   127429280.635 6  24248996.560    99295523.89746
  23220371.880   122023837.853 7  23220375.120    95083504.30346
  20461606.280   107526468.233 8  20461607.560    83786866.90147
  22872517.680   120195890.408 7  22872520.000    93659140.63946
  22792724.120   119776580.565 7  22792725.580    93332415.50746
  20400386.940   107204748.545 8  20400386.900    83536161.13348
  24030176.980   126279420.659 7  24030178.020    98399540.47445
 14  1  9  8 53  0.0000000  0 11G01G19G03G27G22G06G32G14G20G11G28
  21525257.540   113115988.569 8  21525261.460    88142345.96147
  20574789.640   108121234.190 8  20574788.200    84250299.59048
  21547466.440   113232674.900 8  21547468.060    88233249.72547
  22298770.220   117180800.841 7  22298773.760    91309716.84147
  24266994.640   127523862.263 6  24266994.860    99369223.71846
  23238478.240   122118987.175 7  23238481.500    95157646.50746
  20454599.580   107489647.647 8  20454600.840    83758175.52147
  22873940.800   120203368.534 7  22873943.020    93664967.71546
  22775401.020   119685547.305 7  22775402.260    93261480.49146
  20394466.860   107173637.747 8  20394466.780    83511918.92048
  24021839.660   126235606.643 6  24021840.580    98365399.65046
 14  1  9  8 53 30.0000000  0 11G01G19G03G27G22G06G32G14G20G11G28
  21515845.700   113066528.816 8  21515849.500    88103805.87647
  20580253.240   108149945.455 8  20580251.840    84272671.96348
  21564598.920   113322706.238 8  21564600.680    88303403.92247
  22315549.600   117268976.319 7  22315553.140    91378424.91547
  24285003.020   127618496.130 6  24285003.240    99442964.25845
  23256624.200   122214344.899 7  23256627.540    95231951.08846
  20447692.800   107453352.218 8  20447694.080    83729893.36247
  22875467.700   120211391.951 7  22875469.780    93671219.70146
  22758126.220   119594767.324 7  22758127.260    93190742.80746
  20388607.660   107142847.220 8  20388607.600    83487926.28148
  24013591.240   126192261.169 6  24013592.280    98331623.90046
 14  1  9  8 54  0.0000000  0 11G01G19G03G27G22G06G32G14G20G11G28
  21506463.740   113017225.934 8  21506467.400    88065388.03847
  20585805.480   108179122.405 8  20585804.120    84295407.19648
  21581796.960   113413082.133 8  21581798.820    88373826.60847
  22332387.760   117357460.819 7  22332391.340    91447373.78847
  24303020.360   127713176.492 6  24303020.460    99516740.99246
  23274808.880   122309905.943 7  23274812.300    95306414.11246
  20440885.240   107417578.275 8  20440886.560    83702017.53847
  22877097.680   120219957.564 7  22877099.900    93677894.17446
  22740899.180   119504238.124 7  22740900.080    93120200.53846
  20382808.780   107112374.005 8  20382808.780    83464180.89648
  24005431.560   126149381.742 7  24005432.680    98298211.31945
 14  1  9  8 54 30.0000000  0 11G01G19G03G27G22G06G32G14G20G11G28
  21497112.140   112968082.532 8  21497115.660    88027094.45947
  20591446.800   108208767.108 8  20591445.360    84318506.90948
  21599060.560   113503802.695 8  21599062.540    88444517.86947
  22349284.820   117446255.001 7  22349288.400    91516563.96447
  24321046.700   127807904.096 6  24321046.920    99590554.57445
  23293032.280   122405670.104 7  23293035.740    95381035.40546
  20434177.380   107382328.214 8  20434178.780    83674549.94247
  22878831.180   120229067.641 7  22878833.520    93684992.89346
  22723720.520   119413963.104 7  22723721.420    93049856.32246
  20377070.900   107082221.352 8  20377070.960    83440685.29248
  23997361.320   126106971.872 7  23997362.560    98265164.61245
 14  1  9  8 55  0.0000000  0 11G01G19G03G27G22G06G32G14G20G11G28
  21487791.040   112919099.671 8  21487794.500    87988925.98047
  20597177.300   108238880.600 8  20597175.840    84341971.91548
  21616389.400   113594866.346 8  21616391.420    88515476.46347
  22366240.680   117535358.126 7  22366244.260    91585994.88347
  24339081.820   127902678.122 6  24339082.100    99664404.31145
  23311294.300   122501637.055 7  23311297.860    95455814.70246
  20427569.420   107347603.076 8  20427570.860    83647491.36848
  22880668.520   120238722.696 7  22880670.740    93692516.27646
  22706590.600   119323944.375 7  22706591.620    92979711.81946
  20371394.400   107052391.033 8  20371394.480    83417440.85748
  23989380.680   126065033.278 6  23989382.040    98232485.13946
 14  1  9  8 55 30.0000000  0 11G01G19G03G27G22G06G32G14G20G11G28
  21478500.060   112870275.620 8  21478503.620    87950881.24647
  20602996.500   108269460.513 8  20602995.060    84365800.36848
  21633782.880   113686269.372 8  21633784.880    88586699.50447
  22383254.580   117624766.461 7  22383258.320    91655663.61347
  24357125.120   127997494.910 6  24357125.320    99738287.38545
  23329594.180   122597803.143 7  23329597.820    95530749.17646
  20421060.960   107313400.854 8  20421062.440    83620840.27047
  22882609.280   120248921.144 7  22882611.380    93700463.06746
  22689509.240   119234180.900 7  22689510.400    92909766.20646
  20365779.000   107022881.815 8  20365779.100    83394446.63648
  23981489.600   126023565.089 6  23981490.920    98200172.20745
 14  1  9  8 56  0.0000000  0 11G01G19G03G27G22G06G32G14G20G11G28
  21469239.840   112821612.983 8  21469243.520    87912962.27947
  20608904.900   108300509.276 8  20608903.480    84389994.16148
  21651241.000   113778011.644 8  21651242.920    88658186.89947
  22400326.640   117714480.598 7  22400330.440    91725570.64647
  24375176.620   128092355.103 6  24375176.820    99812204.28646
  23347932.000   122694168.538 7  23347935.720    95605838.95446
  20414652.440   107279723.862 8  20414653.900    83594598.43147
  22884653.900   120259665.161 7  22884655.960    93708834.95946
  22672477.120   119144676.371 7  22672478.320    92840022.37546
  20360225.400   106993697.132 8  20360225.420    83371705.29448
  23973688.680   125982570.529 7  23973690.020    98168228.34046
 14  1  9  8 56 30.0000000  0 11G01G19G03G27G22G06G32G14G20G11G28
  21460009.960   112773109.447 8  21460013.680    87875167.29247
  20614901.960   108332023.939 8  20614900.560    84414550.98848
  21668762.660   113870088.237 8  21668764.580    88729934.79147
  22417456.040   117804496.250 7  22417459.860    91795712.60847
  24393235.400   128187254.228 6  24393235.600    99886151.56645
  23366306.980   122790729.071 7  23366310.700    95681080.77846
  20408343.420   107246569.499 8  20408344.820    83568763.83848
  22886801.880   120270951.992 7  22886803.780    93717629.82046
  22655493.920   119055429.384 7  22655495.300    92770479.22546
  20354733.200   106964835.240 8  20354733.180    83349215.49248
  23965977.840   125942048.391 7  23965978.900    98136652.61546
 14  1  9  8 57  0.0000000  0 11G01G19G03G27G22G06G32G14G20G11G28
  21450811.300   112724769.542 8  21450815.020    87837499.79947
  20620988.460   108364008.715 8  20620987.060    84439474.13548
  21686348.440   113962501.756 8  21686350.380    88801945.22747
  22434643.340   117894816.008 7  22434647.160    91866091.54047
  24411301.960   128282195.017 6  24411302.320    99960131.27244
  23384719.520   122887487.251 7  23384723.180    95756476.62846
  20402134.660   107213942.101 8  20402136.000    83543339.87548
  22889053.980   120282785.988 7  22889055.720    93726851.05446
  22638560.720   118966445.203 7  22638562.340    92701140.85746
  20349303.420   106936301.393 8  20349303.360    83326981.29548
  23958357.620   125902003.749 7  23958358.860    98105448.95745
 14  1  9  8 57 30.0000000  0 11G01G19G03G27G22G06G32G14G20G11G28
  21441643.040   112676589.740 8  21441646.760    87799957.06947
  20627163.680   108396459.570 8  20627162.280    84464760.46348
  21703997.140   114055245.899 8  21703999.040    88874213.30047
  22451887.500   117985434.294 7  22451891.320    91936703.08547
  24429375.200   128377171.735 6  24429375.840   100034138.98045
  23403168.480   122984437.285 7  23403172.180    95832021.96346
  20396025.460   107181837.770 8  20396026.760    83518323.49547
  22891409.380   120295163.309 7  22891411.180    93736495.65146
  22621677.040   118877721.082 7  22621678.900    92632005.13746
  20343935.460   106908092.557 8  20343935.480    83305000.37348
  23950827.960   125862433.925 7  23950828.880    98074615.26745
 14  1  9  8 58  0.0000000  0 11G01G19G03G27G22G06G32G14G20G11G28
  21432505.480   112628571.330 8  21432509.180    87762540.09247
  20633427.780   108429377.428 8  20633426.400    84490410.68248
  21721708.460   114148319.253 8  21721710.400    88946737.88447
  22469188.460   118076350.370 7  22469192.060    92007546.67847
  24447455.180   128472183.746 6  24447456.100   100108174.20845
  23421653.980   123081578.825 7  23421657.660    95907716.51446
  20390015.900   107150257.421 8  20390017.220    83493715.41348
  22893868.320   120308084.708 7  22893870.080    93746564.21846
  22604843.360   118789259.199 7  22604845.160    92563073.77846
  20338629.700   106880210.576 8  20338629.680    83283274.12448
  23943388.840   125823340.676 7  23943389.640    98044152.94045
 14  1  9  8 58 30.0000000  0 11G01G19G03G27G22G06G32G14G20G11G28
  21423398.560   112580714.006 8  21423402.200    87725248.63647
  20639780.600   108462761.428 8  20639779.240    84516424.13748
  21739481.920   114241718.799 8  21739483.780    89019516.67047
  22486545.640   118167561.884 7  22486549.120    92078620.47747
  24465541.600   128567228.809 6  24465542.440   100182235.16745
  23440175.540   123178909.326 7  23440179.160    95983558.32645
  20384105.900   107119200.361 8  20384107.320    83469515.08848
  22896430.560   120321549.339 7  22896432.320    93757056.07946
  22588059.760   118701060.176 7  22588061.260    92494347.23046
  20333386.220   106852655.924 8  20333386.200    83261802.94648
  23936040.440   125784724.445 7  23936041.340    98014062.32346
 14  1  9  8 59  0.0000000  0 11G01G19G03G27G22G06G32G14G20G11G28
  21414322.640   112533019.903 8  21414326.240    87688084.36747
  20646222.420   108496613.171 8  20646221.080    84542802.06248
  21757317.440   114335444.490 8  21757319.340    89092549.57047
  22503959.020   118259068.954 7  22503962.540    92149924.56347
  24483634.400   128662307.028 6  24483635.080   100256321.96245
  23458733.000   123276428.712 7  23458736.680    96059547.31646
  20378295.800   107088668.437 8  20378297.320    83445723.95548
  22899096.480   120335559.038 7  22899098.340    93767972.66346
  22571326.780   118613126.880 7  22571328.040    92425827.76546
  20328205.520   106825431.377 8  20328205.560    83240588.98948
  23928783.340   125746588.030 7  23928784.240    97984345.59545
 14  1  9  8 59 30.0000000  0 11G01G19G03G27G22G06G32G14G20G11G28
  21405277.700   112485488.846 8  21405281.420    87651047.15047
  20652753.160   108530932.010 8  20652751.840    84569543.95548
  21775214.460   114429493.366 8  21775216.340    89165834.30847
  22521428.120   118350869.295 7  22521431.700    92221457.17747
  24501733.040   128757416.262 6  24501733.720   100330432.89846
  23477325.920   123374134.790 7  23477329.680    96135681.75746
  20372585.560   107058660.934 8  20372587.080    83422341.46548
  22901866.100   120350112.998 7  22901867.840    93779313.35446
  22554644.460   118525460.089 7  22554645.580    92357515.95446
  20323087.740   106798537.220 8  20323087.780    83219632.47648
  23921617.680   125708931.854 7  23921618.460    97955003.06745
 14  1  9  9  0  0.0000000  0 11G01G19G03G27G22G06G32G14G20G11G28
  21396263.760   112438120.970 8  21396267.680    87614137.09147
  20659372.600   108565717.213 8  20659371.380    84596649.25348
  21793172.680   114523863.524 8  21793174.500    89239369.39447
  22538952.600   118442960.972 7  22538956.260    92293216.80547
  24519837.160   128852554.730 6  24519838.060   100404566.62245
  23495953.880   123472025.207 7  23495957.780    96211959.84246
  20366975.120   107029177.589 8  20366976.660    83399367.42448
  22904739.360   120365211.106 7  22904740.780    93791078.07546
  22538012.860   118438060.399 7  22538013.960    92289412.27946
  20318033.060   106771974.269 8  20318033.080    83198934.05048
  23914543.540   125671756.579 7  23914544.140    97926035.26346
 14  1  9  9  0 30.0000000  0 11G01G19G03G27G22G06G32G14G20G11G28
  21387281.100   112390917.175 8  21387285.120    87577354.88047
  20666080.840   108600969.342 8  20666079.740    84624118.38848
  21811191.620   114618553.143 8  21811193.480    89313153.41547
  22556532.320   118535342.819 7  22556536.080    92365202.52947
  24537946.760   128947721.260 6  24537947.960   100478722.21045
  23514617.020   123570099.372 7  23514620.840    96288381.13846
  20361464.480   107000218.854 8  20361466.060    83376802.16148
  22907716.160   120380853.599 7  22907717.360    93803267.00246
  22521432.400   118350929.631 7  22521433.640    92221518.16146
  20313041.680   106745744.161 8  20313041.720    83178494.98048
  23907561.100   125635063.796 7  23907561.900    97897443.41746
 14  1  9  9  1  0.0000000  0 11G01G19G03G27G22G06G32G14G20G11G28
  21378329.440   112343875.661 8  21378333.360    87540699.12247
  20672877.500   108636685.934 8  20672876.480    84651949.43448
  21829270.400   114713557.490 8  21829272.360    89387182.68347
  22574166.540   118628010.898 7  22574170.360    92437411.29047
  24556061.280   129042912.163 6  24556062.600   100552896.75945
  23533314.240   123668352.977 6  23533318.140    96364942.24246
  20356053.280   106971782.383 8  20356054.860    83354643.85648
  22910795.960   120397038.094 7  22910797.080    93815878.26046
  22504902.940   118264066.953 7  22504904.340    92153832.94146
  20308113.340   106719845.544 8  20308113.400    83158314.21948
  23900670.160   125598852.114 7  23900671.260    97869226.49546
 14  1  9  9  1 30.0000000  0 11G01G19G03G27G22G06G32G14G20G11G28
  21369409.360   112296999.568 8  21369413.080    87504172.26347
  20679763.080   108672869.525 8  20679762.060    84680144.37948
  21847409.200   114808877.412 7  21847411.240    89461457.84947
  22591855.480   118720966.243 7  22591859.260    92509843.90947
  24574180.860   129138128.489 6  24574182.040   100627091.09045
  23552045.640   123766786.962 7  23552049.860    96441643.86446
  20350741.940   106943870.856 8  20350743.540    83332894.60448
  22913979.360   120413767.000 7  22913980.320    93828913.76146
  22488425.120   118177476.039 7  22488426.800    92086359.51446
  20303248.800   106694282.269 8  20303248.880    83138394.75348
  23893871.460   125563125.130 7  23893872.840    97841387.25645
 14  1  9  9  2  0.0000000  0 11G01G19G03G27G22G06G32G14G20G11G28
  21360520.480   112250287.952 8  21360524.160    87467773.56747
  20686737.240   108709518.726 8  20686736.220    84708702.13648
  21865607.340   114904509.722 7  21865609.580    89535976.42547
  22609598.540   118814205.806 7  22609602.280    92582497.99647
  24592304.760   129233367.444 6  24592305.760   100701303.01945
  23570810.900   123865398.396 7  23570815.140    96518483.76846
  20345530.200   106916482.852 8  20345531.800    83311553.29348
  22917266.040   120431039.146 7  22917267.160    93842372.56346
  22471999.000   118091156.671 7  22472000.900    92019097.65346
  20298448.000   106669053.847 8  20298448.140    83118736.22148
  23887165.040   125527882.676 7  23887166.620    97813925.55246
 14  1  9  9  2 30.0000000  0 11G01G19G03G27G22G06G32G14G20G11G28
  21351662.860   112203741.415 8  21351666.760    87431503.50947
  20693799.900   108746633.160 8  20693798.880    84737622.42348
  21883864.380   115000451.451 8  21883866.700    89610736.12247
  22627395.260   118907727.988 7  22627399.040    92655372.29147
  24610432.680   129328627.637 6  24610433.540   100775531.52645
  23589609.680   123964185.824 7  23589613.820    96595460.82546
  20340417.980   106889618.128 8  20340419.640    83290619.73048
  22920656.080   120448854.066 7  22920657.300    93856254.31546
  22455624.840   118005110.240 7  22455627.060    91952048.49446
  20293711.140   106644161.327 8  20293711.280    83099339.42548
  23880550.900   125493125.443 7  23880552.700    97786841.98846
 14  1  9  9  3  0.0000000  0 11G01G19G03G27G22G06G32G14G20G11G28
  21342836.400   112157358.895 8  21342840.600    87395361.26847
  20700950.780   108784211.257 8  20700949.780    84766903.99748
  21902179.800   115096699.393 8  21902182.120    89685734.41247
  22645245.160   119001529.617 7  22645249.000    92728464.35046
  24628564.000   129423906.370 6  24628564.900   100849774.48245
  23608441.420   124063145.888 7  23608445.500    96672572.38146
  20335405.060   106863275.289 8  20335406.700    83270092.84148
  22924149.180   120467210.262 7  22924150.420    93870557.83246
  22439302.600   117919336.326 7  22439305.000    91885211.68446
  20289038.160   106619604.323 8  20289038.260    83080204.06748
  23874029.280   125458853.326 7  23874030.940    97760136.39345
 14  1  9  9  3 30.0000000  0 11G01G19G03G27G22G06G32G14G20G11G28
  21334042.000   112111144.408 8  21334046.380    87359349.95647
  20708190.500   108822256.192 8  20708189.480    84796549.34048
  21920553.820   115193254.800 7  21920556.060    89760972.28747
  22663148.580   119095612.483 7  22663152.480    92801775.52046
  24646699.120   129519205.266 6  24646700.180   100924033.14945
  23627306.280   124162280.453 7  23627310.260    96749819.92046
  20330492.060   106837457.605 8  20330493.660    83249975.15448
  22927745.780   120486110.606 7  22927746.980    93885285.35746
  22423033.100   117833839.548 7  22423035.440    91818590.84046
  20284429.840   106595387.328 8  20284429.980    83061333.65448
  23867600.620   125425070.527 7  23867602.160    97733812.15445
 14  1  9  9  4  0.0000000  0 11G01G19G03G27G22G06G32G14G20G11G28
  21325279.260   112065095.867 8  21325283.700    87323467.96647
  20715518.500   108860764.979 8  20715517.480    84826556.12448
  21938985.480   115290113.065 8  21938987.620    89836446.15847
  22681104.760   119189972.312 7  22681108.600    92875302.52346
  24664837.160   129614520.466 6  24664838.560   100998304.53746
  23646203.560   124261585.171 7  23646207.480    96827200.05845
  20325678.520   106812162.339 8  20325680.040    83230264.54548
  22931445.480   120505552.916 7  22931446.660    93900435.17646
  22406816.120   117748618.575 7  22406818.240    91752184.89146
  20279885.940   106571508.941 8  20279886.100    83042727.09248
  23861264.800   125391775.400 7  23861266.340    97707867.88145
 14  1  9  9  4 30.0000000  0 11G01G19G03G27G22G06G32G14G20G11G28
  21316548.440   112019214.756 8  21316552.860    87287716.44347
  20722935.000   108899738.697 8  20722934.020    84856925.19948
  21957474.460   115387273.140 7  21957476.720    89912155.20347
  22699113.460   119284608.449 7  22699117.380    92949044.83847
  24682978.180   129709924.458 6  24682981.500   101072675.19845
  23665133.060   124361059.719 7  23665137.100    96904712.48445
  20320964.560   106787390.380 8  20320966.040    83210961.71048
  22935248.400   120525537.414 7  22935249.680    93916007.46946
  22390652.080   117663675.661 7  22390653.880    91685995.61446
  20275406.900   106547971.356 8  20275407.060    83024386.08848
  23855022.080   125358969.698 7  23855023.440    97682304.94545
 14  1  9  9  5  0.0000000  0 11G01G19G03G27G22G06G32G14G20G11G28
  21307849.460   111973500.972 8  21307853.760    87252095.29647
  20730439.800   108939176.304 8  20730438.860    84887655.74548
  21976020.260   115484732.158 7  21976022.720    89988097.19047
  22717174.320   119379518.506 7  22717178.420    93023000.58647
  24701121.360   129805269.402 6  24701124.300   101146969.76945
  23684094.320   124460701.072 7  23684098.500    96982354.90846
  20316350.060   106763140.898 8  20316351.520    83192065.99647
  22939154.340   120546063.194 7  22939155.660    93932001.54246
  22374541.100   117579011.191 7  22374542.500    91620023.32646
  20270992.760   106524774.765 8  20270992.940    83006310.79648
  23848872.500   125326653.650 7  23848874.040    97657123.59545
 14  1  9  9  5 30.0000000  0 11G01G19G03G27G22G06G32G14G20G11G28
  21299182.540   111927955.608 8  21299186.760    87216605.38647
  20738032.900   108979077.977 8  20738031.960    84918747.90048
  21994622.700   115582488.703 7  21994625.360    90064271.00747
  22735287.040   119474701.437 7  22735291.220    93097168.95446
  24719266.040   129900624.293 6  24719270.460   101221273.44745
  23703087.240   124560508.591 7  23703091.440    97060126.83745
  20311835.060   106739414.237 8  20311836.540    83173577.67047
  22943163.400   120567130.644 7  22943164.740    93948417.69446
  22358483.380   117494627.022 7  22358484.520    91554269.43646
  20266643.780   106501920.749 8  20266643.940    82988502.44548
  23842816.500   125294828.653 7  23842817.960    97632324.91245
 14  1  9  9  6  0.0000000  0 11G01G19G03G27G22G06G32G14G20G11G28
  21290547.420   111882577.329 8  21290551.520    87181245.68247
  20745713.960   109019441.918 8  20745712.940    84950200.26648
  22013281.020   115680538.440 7  22013283.720    90140673.29347
  22753451.080   119570153.523 7  22753455.200    93171547.07046
  24737413.900   129995991.896 6  24737417.880   101295585.70146
  23722111.020   124660478.437 7  23722115.320    97138025.23646
  20307419.140   106716208.237 8  20307420.640    83155495.05648
  22947274.940   120588737.581 7  22947276.580    93965254.23246
  22342478.800   117410522.512 7  22342479.940    91488733.45546
  20262359.820   106479408.435 8  20262360.000    82970960.36448
  23836853.740   125263493.730 7  23836855.140    97607908.11245
 14  1  9  9  6 30.0000000  0 10G01G19G03G27G06G32G14G20G11G28
  21281942.400   111837357.023 8  21281946.380    87146009.07047
  20753481.060   109060258.099 8  20753480.020    84982005.02948
  22031993.000   115778869.668 8  22031995.680    90217294.92447
  22771664.200   119665863.618 7  22771668.360    93246126.20346
  23741163.620   124760599.556 7  23741167.880    97216041.49846
  20303100.440   106693513.284 8  20303101.940    83137810.65048
  22951487.260   120610874.303 7  22951489.300    93982503.58046
  22326525.760   117326688.965 7  22326527.000    91423408.62446
  20258139.320   106457229.426 8  20258139.500    82953677.98548
  23830982.660   125232640.311 7  23830983.880    97583866.49946
 14  1  9  9  7  0.0000000  0 10G01G19G03G27G06G32G14G20G11G28
  21273373.880   111792328.408 8  21273377.680    87110921.82747
  20761340.400   109101559.096 8  20761339.440    85014187.57648
  22050764.480   115877513.250 7  22050767.080    90294159.93447
  22789932.440   119761863.000 7  22789936.540    93320930.79146
  23760250.940   124860903.340 6  23760255.320    97294200.10046
  20298885.260   106671362.106 8  20298886.700    83120549.96747
  22955806.660   120633573.452 7  22955809.140    94000191.18646
  22310630.740   117243160.676 7  22310632.240    91358321.64746
  20253988.680   106435417.897 8  20253988.980    82936681.96548
  23825209.420   125202302.116 6  23825210.740    97560226.35345
 14  1  9  9  7 30.0000000  0 10G01G19G03G27G06G32G14G20G11G28
  21264835.560   111747458.929 8  21264839.260    87075958.59047
  20769285.620   109143311.541 8  20769284.820    85046721.89548
  22069588.700   115976434.310 7  22069591.220    90371241.17047
  22808249.120   119858116.876 7  22808253.240    93395933.65146
  23779366.200   124961354.943 6  23779370.860    97372473.86246
  20294767.200   106649721.368 8  20294768.580    83103687.02648
  22960226.740   120656801.213 7  22960229.480    94018290.65846
  22294787.780   117159905.835 7  22294789.520    91293447.74146
  20249901.940   106413941.902 8  20249902.240    82919947.38748
  23819527.980   125172446.575 7  23819529.520    97536962.31045
 14  1  9  9  8  0.0000000  0 10G01G19G03G27G06G32G14G20G11G28
  21256328.920   111702756.620 8  21256332.680    87041125.61847
  20777318.100   109185522.437 8  20777317.440    85079613.44948
  22088466.620   116075637.927 7  22088469.120    90448542.57247
  22826615.400   119954631.041 7  22826619.440    93471139.34746
  23798510.640   125061960.301 6  23798515.680    97450867.43646
  20290747.620   106628598.353 8  20290749.040    83087227.52048
  22964748.980   120680564.796 7  22964751.700    94036807.68546
  22278998.600   117076933.129 7  22279000.440    91228793.67446
  20245880.660   106392809.723 8  20245880.980    82903480.72548
  23813940.080   125143082.349 7  23813941.720    97514081.07046
 14  1  9  9  8 30.0000000  0 10G01G19G03G27G06G32G14G20G11G28
  21247854.940   111658226.341 8  21247858.960    87006426.68547
  20785438.760   109228196.394 8  20785438.100    85112865.82648
  22107398.660   116175126.027 7  22107401.120    90526065.64646
  22845031.580   120051408.013 7  22845035.580    93546549.82346
  23817684.860   125162721.628 6  23817690.160    97529382.58845
  20286827.300   106607996.875 8  20286828.760    83071174.38948
  22969373.860   120704868.306 7  22969376.620    94055745.40646
  22263264.180   116994247.891 7  22263265.980    91164363.61946
  20241925.840   106372026.662 8  20241926.160    82887286.09748
  23808446.600   125114214.382 7  23808448.300    97491586.57145
 14  1  9  9  9  0.0000000  0 10G01G19G03G27G06G32G14G20G11G28
  21239413.340   111613865.383 8  21239417.440    86971859.69147
  20793646.660   109271329.053 8  20793646.000    85146475.63648
  22126383.840   116274893.469 7  22126386.300    90603806.40246
  22863496.820   120148442.785 7  22863500.880    93622161.17246
  23836887.920   125263634.234 6  23836893.360    97608015.54646
  20283005.560   106587913.477 8  20283007.100    83055524.96648
  22974100.740   120729707.844 7  22974103.480    94075100.84646
  22247584.060   116911847.866 7  22247585.780    91100155.80846
  20238037.100   106351590.573 8  20238037.300    82871361.83748
  23803047.100   125085839.836 7  23803048.800    97469476.56245
 14  1  9  9  9 30.0000000  0 10G01G19G03G27G06G32G14G20G11G28
  21231004.320   111569675.433 8  21231008.440    86937425.95347
  20801942.040   109314921.219 8  20801941.300    85180443.51348
  22145421.900   116374938.685 7  22145424.400    90681763.59646
  22882010.960   120245734.664 7  22882015.020    93697972.87846
  23856119.700   125364697.340 6  23856125.200    97686765.79746
  20279282.580   106568348.815 8  20279284.140    83040279.75448
  22978929.780   120755084.158 7  22978932.460    94094874.54046
  22231958.620   116829735.238 7  22231960.180    91036171.93046
  20234214.720   106331503.620 8  20234214.920    82855709.64848
  23797741.920   125057960.654 7  23797743.420    97447752.50546
 14  1  9  9 10  0.0000000  0 10G01G19G03G27G06G32G14G20G11G28
  21222627.980   111525657.458 8  21222632.100    86903126.21647
  20810324.920   109358973.212 8  20810324.100    85214769.68248
  22164512.560   116475260.192 7  22164515.120    90759936.08247
  22900573.720   120343282.353 7  22900577.900    93773983.90546
  23875379.940   125465909.627 6  23875385.380    97765632.31245
  20275658.360   106549303.021 8  20275659.900    83025438.85748
  22983860.940   120780997.103 7  22983863.560    94115066.38246
  22216388.140   116747911.564 7  22216389.640    90972413.21346
  20230459.100   106311767.669 8  20230459.300    82840330.96448
  23792531.140   125030577.762 7  23792532.520    97426415.19146
 14  1  9  9 10 30.0000000  0 10G01G19G03G27G06G32G14G20G11G28
  21214284.600   111481812.622 8  21214288.660    86868961.40247
  20818795.300   109403484.950 8  20818794.380    85249454.10248
  22183655.400   116575856.087 7  22183657.960    90838322.37447
  22919185.000   120441084.638 7  22919189.260    93850193.32646
  23894668.440   125567270.123 6  23894673.800    97844614.29346
  20272132.900   106530776.239 8  20272134.400    83011002.38548
  22988894.160   120807446.748 7  22988896.800    94135676.44746
  22200872.940   116666378.559 7  22200874.440    90908881.00746
  20226770.520   106292384.048 8  20226770.780    82825226.81348
  23787415.100   125003692.693 7  23787416.380    97405465.77745
 14  1  9  9 11  0.0000000  0 10G01G19G03G27G06G32G14G20G11G28
  21205973.920   111438139.068 8  21205977.800    86834930.04947
  20827352.640   109448453.552 8  20827351.680    85284494.51448
  22202849.560   116676722.003 7  22202852.240    90916919.06846
  22937843.900   120539137.272 7  22937848.200    93926597.82146
  23913984.340   125668774.588 6  23913989.600    97923708.46145
  20268705.560   106512765.608 8  20268707.100    82996968.11148
  22994029.040   120834429.967 7  22994031.600    94156702.27746
  22185412.780   116585134.925 7  22185414.200    90845574.27146
  20223148.620   106273350.664 8  20223148.900    82810395.57648
  23782393.440   124977303.408 7  23782394.620    97384902.68746
 14  1  9  9 11 30.0000000  0 10G01G19G03G27G06G32G14G20G11G28
  21197696.280   111394639.043 8  21197700.020    86801033.90547
  20835997.140   109493880.341 8  20835996.180    85319891.95848
  22222095.020   116777857.354 7  22222097.820    90995725.71746
  22956550.460   120637440.128 7  22956554.780    94003197.28946
  23933327.620   125770422.852 6  23933332.720    98002914.68546
  20265376.680   106495272.423 8  20265378.240    82983337.03748
  22999265.740   120861947.924 7  22999268.160    94178144.78346
  22170008.160   116504183.189 7  22170009.560    90782494.97746
  20219593.980   106254671.060 8  20219594.260    82795840.00248
  23777466.440   124951412.316 6  23777467.840    97364727.83745
 14  1  9  9 12  0.0000000  0 10G01G19G03G27G06G32G14G20G11G28
  21189451.920   111351314.410 8  21189455.680    86767274.42747
  20844728.900   109539766.013 8  20844728.020    85355646.97048
  22241391.600   116879261.207 7  22241394.480    91074741.59347
  22975304.440   120735992.651 7  22975308.920    94079991.30946
  23952698.140   125872214.429 6  23952703.160    98082232.57246
  20262146.420   106478297.431 8  20262148.020    82970109.76348
  23004604.320   120890001.300 7  23004606.680    94200004.48646
  22154659.460   116423525.510 7  22154660.960    90719644.82546
  20216107.120   106236347.477 8  20216107.420    82781561.85848
  23772634.580   124926021.170 7  23772636.020    97344942.49746
 14  1  9  9 12 30.0000000  0 10G01G19G03G27G06G32G14G20G11G28
  21181240.540   111308163.698 8  21181244.460    86733650.49547
  20853547.460   109586107.958 8  20853546.660    85391757.51548
  22260738.420   116980929.148 7  22260741.440    91153963.23747
  22994105.220   120834791.101 7  22994109.780    94156976.93246
  23972095.320   125974145.601 6  23972100.060    98161659.22546
  20259014.340   106461838.211 8  20259015.920    82957284.39048
  23010044.140   120918587.645 7  23010046.540    94222279.48346
  22139366.640   116343161.356 7  22139368.260    90657023.38846
  20212687.740   106218378.416 8  20212688.000    82767559.96848
  23767897.560   124901128.627 7  23767899.160    97325545.65346
 14  1  9  9 13  0.0000000  0 10G01G19G03G27G06G32G14G20G11G28
  21173062.380   111265187.800 8  21173066.440    86700162.77647
  20862452.780   109632905.599 8  20862452.000    85428223.15248
  22280135.200   117082859.398 7  22280138.280    91233389.28246
  23012952.480   120933833.722 7  23012957.140    94234152.83846
  23991518.720   126076214.780 6  23991523.340    98241193.40945
  20255980.380   106445894.420 8  20255981.940    82944860.64948
  23015585.300   120947706.077 7  23015587.600    94244969.11246
  22124129.820   116263091.755 7  22124131.640    90594631.48546
  20209336.140   106200765.348 8  20209336.320    82753835.46948
  23763255.540   124876735.246 7  23763257.340    97306537.80345
 14  1  9  9 13 30.0000000  0 10G01G19G03G27G06G32G14G20G11G28
  21164917.540   111222386.366 8  21164921.560    86666810.97947
  20871444.680   109680158.084 8  20871443.860    85465043.20948
  22299581.260   117185048.660 7  22299584.380    91313017.14946
  23031845.720   121033117.979 7  23031850.400    94311517.02346
  24010967.880   126178419.366 6  24010972.420    98320833.10646
  20253044.240   106430464.761 8  20253045.840    82932837.52548
  23021227.480   120977355.308 7  23021229.640    94268072.32946
  22108949.160   116183316.977 7  22108951.060    90532469.30646
  20206052.340   106183508.497 8  20206052.500    82740388.54948
  23758708.600   124852840.873 7  23758710.500    97287918.79146
 14  1  9  9 14  0.0000000  0 10G01G19G03G27G06G32G14G20G11G28
  21156806.040   111179759.923 8  21156810.020    86633595.54847
  20880522.940   109727864.453 8  20880522.160    85502216.93548
  22319076.280   117287494.880 7  22319079.360    91392845.25446
  23050784.620   121132641.801 7  23050789.380    94389067.90946
  24030442.400   126280757.550 6  24030446.880    98400576.90946
  20250205.760   106415548.521 8  20250207.440    82921214.47148
  23026970.660   121007534.543 7  23026972.520    94291588.56946
  22093824.780   116103837.750 7  22093826.680    90470537.43246
  20202836.380   106166608.631 8  20202836.600    82727219.79648
  23754256.780   124829445.762 7  23754258.620    97269688.75746
 14  1  9  9 14 30.0000000  0 10G01G19G03G27G06G32G14G20G11G28
  21148728.220   111137310.794 8  21148732.260    86600518.29748
  20889687.800   109776025.846 8  20889687.060    85539745.24148
  22338620.020   117390197.091 7  22338623.060    91472872.82446
  23069769.160   121232405.078 7  23069774.000    94466805.35246
  24049942.320   126383229.031 6  24049946.840    98480424.55046
  20247465.200   106401146.847 8  20247466.920    82909992.37148
  23032814.740   121038244.482 7  23032816.360    94315518.33846
  22078757.120   116024656.783 7  22078759.020    90408837.97646
  20199688.940   106150068.462 8  20199689.120    82714331.32648
  23749900.400   124806552.137 7  23749902.240    97251849.51346
 14  1  9  9 15  0.0000000  0 10G01G19G03G27G06G32G14G20G11G28
  21140684.220   111095039.636 8  21140688.400    86567579.72248
  20898939.160   109824641.903 8  20898938.480    85577627.81948
  22358212.020   117493153.081 7  22358215.040    91553098.14646
  23088798.940   121332406.128 7  23088803.740    94544728.08846
  24069467.100   126485832.293 6  24069471.880    98560374.91845
  20244822.480   106387259.391 8  20244824.200    82899170.96748
  23038759.760   121069485.197 7  23038761.160    94339861.72646
  22063746.480   115945775.341 7  22063748.280    90347371.90246
  20196610.160   106133889.099 8  20196610.320    82701724.01048
  23745639.440   124784160.633 6  23745641.360    97234401.55346
 14  1  9  9 15 30.0000000  0 10G01G19G03G27G06G32G14G20G11G28
  21132674.200   111052946.781 8  21132678.440    86534780.08048
  20908276.880   109873711.703 8  20908276.220    85615863.95948
  22377851.840   117596360.488 7  22377854.860    91633519.38446
  23107873.460   121432642.729 7  23107878.280    94622834.34046
  24089016.640   126588565.241 6  24089021.520    98640426.29045
  20242277.460   106373885.129 8  20242279.140    82888749.44348
  23044805.360   121101255.321 7  23044806.700    94364617.63346
  22048793.080   115867193.934 7  22048794.600    90286139.62346
  20193600.080   106118071.116 8  20193600.260    82689398.28248
  23741474.000   124762271.162 6  23741475.920    97217344.76446
 14  1  9  9 16  0.0000000  0 10G01G19G03G27G06G32G14G20G11G28
  21124697.520   111011028.984 8  21124701.800    86502116.86647
  20917700.060   109923230.465 8  20917699.420    85654449.94248
  22397538.280   117699813.300 7  22397541.340    91714131.84146
  23126991.800   121533109.122 7  23126996.620    94701119.65746
  24108589.900   126691422.127 6  24108594.840    98720574.25846
  20239829.280   106361019.515 8  20239830.880    82878724.27148
  23050950.640   121133550.049 7  23050952.160    94389782.31446
  22033896.260   115788909.697 7  22033897.520    90225138.91046
  20190658.240   106102611.648 8  20190658.500    82677351.91748
  23737403.600   124740880.214 7  23737405.400    97200676.42446
 14  1  9  9 16 30.0000000  0 10G01G19G03G27G06G32G14G20G11G28
  21116754.980   110969290.776 8  21116759.340    86469593.59147
  20927209.380   109973201.858 8  20927208.740    85693388.62848
  22417271.740   117803513.017 7  22417274.820    91794936.68946
  23146154.160   121633807.400 7  23146159.020    94779585.67946
  24128187.120   126794405.104 6  24128191.980    98800820.47645
  20237478.500   106348665.925 8  20237480.100    82869098.07248
  23057196.380   121166372.454 7  23057197.920    94415358.19446
  22019056.800   115710927.598 7  22019058.020    90164373.62646
  20187785.520   106087515.660 8  20187785.860    82665588.78748
  23733428.960   124719992.412 7  23733430.680    97184400.18845
 14  1  9  9 17  0.0000000  0 10G01G19G03G27G06G32G14G20G11G28
  21108846.740   110927732.478 8  21108851.060    86437210.49647
  20936804.560   110023624.383 8  20936803.900    85732678.84448
  22437051.640   117907456.990 7  22437054.840    91875931.85746
  23165360.140   121734735.214 7  23165365.080    94858230.54746
  24147807.960   126897512.116 6  24147812.740    98881163.33044
  20235224.940   106336823.292 8  20235226.540    82859870.02448
  23063542.360   121199721.333 7  23063543.960    94441344.31246
  22004274.740   115633247.905 7  22004276.100    90103843.96946
  20184982.160   106072783.799 8  20184982.500    82654109.39448
  23729550.000   124699607.531 7  23729551.520    97168515.80545
 14  1  9  9 17 30.0000000  0 10G01G19G03G27G06G32G14G20G11G28
  21100972.700   110886353.601 8  21100976.900    86404967.21747
  20946485.360   110074496.966 8  20946484.660    85772319.75248
  22456877.320   118011641.687 7  22456880.640    91957114.59646
  23184609.320   121835889.783 7  23184614.280    94937052.10946
  24167451.940   127000740.298 6  24167456.500    98961600.60545
  20233068.340   106325490.157 8  20233069.960    82851038.97748
  23069988.180   121233594.984 7  23069989.860    94467739.33846
  21989550.160   115555870.913 7  21989551.800    90043550.20147
  20182248.100   106058416.061 8  20182248.420    82642913.73448
  23725766.620   124679724.930 7  23725768.000    97153022.81546
 14  1  9  9 18  0.0000000  0 10G01G19G03G27G06G32G14G20G11G28
  21093132.880   110845154.859 8  21093137.020    86372864.30347
  20956251.620   110125818.569 8  20956250.840    85812310.54848
  22476748.400   118116064.977 7  22476751.800    92038483.27146
  23203901.280   121937269.168 7  23203906.220    95016048.84046
  24187118.580   127104087.789 6  24187123.240    99042130.83045
  20231008.540   106314665.645 8  20231010.160    82842604.25248
  23076533.700   121267992.473 7  23076535.420    94494542.55646
  21974883.340   115478797.455 7  21974885.260    89983492.94247
  20179583.420   106044413.129 8  20179583.800    82632002.33548
  23722078.860   124660344.938 7  23722080.300    97137921.46346
 14  1  9  9 18 30.0000000  0 10G01G19G03G27G06G32G14G20G11G28
  21085327.280   110804136.348 8  21085331.420    86340901.82947
  20966103.040   110177587.902 8  20966102.260    85852650.22148
  22496664.520   118220724.148 7  22496667.960    92120035.74146
  23223235.480   122038871.004 7  23223240.500    95095218.92246
  24206807.560   127207552.248 6  24206812.260    99122752.18045
  20229045.320   106304348.592 8  20229046.920    82834564.94848
  23083178.740   121302912.619 7  23083180.700    94521753.05446
  21960274.500   115402027.877 7  21960276.620    89923672.47147
  20176988.380   106030775.789 8  20176988.660    82621375.81648
  23718486.660   124641467.284 6  23718488.160    97123211.52945
 14  1  9  9 19  0.0000000  0 10G01G19G03G27G06G32G14G20G11G28
  21077556.380   110763300.222 8  21077560.480    86309081.46747
  20976039.760   110229805.658 8  20976039.000    85893339.31448
  22516625.440   118325618.308 7  22516628.740    92201771.31746
  23242612.000   122140694.720 7  23242617.040    95174561.88946
  24226518.660   127311133.419 6  24226523.340    99203464.50045
  20227178.780   106294539.690 8  20227180.300    82826921.61148
  23089923.240   121338355.590 7  23089925.420    94549370.94646
  21945724.100   115325564.580 7  21945726.260    89864090.66947
  20174463.240   106017505.975 8  20174463.460    82611035.68648
  23714990.300   124623093.565 7  23714991.560    97108894.25545
 14  1  9  9 19 30.0000000  0 10G01G19G03G27G06G32G14G20G11G28
  21069820.200   110722646.545 8  21069824.220    86277403.27547
  20986061.560   110282470.762 8  20986060.900    85934376.99548
  22536630.500   118430744.589 7  22536633.680    92283687.77046
  23262030.400   122242738.082 7  23262035.400    95254076.02246
  24246251.420   127414828.853 6  24246256.100    99284265.85445
  20225408.680   106285237.786 8  20225410.200    82819673.33148
  23096766.900   121374319.936 7  23096769.420    94577395.11846
  21931232.160   115249408.041 7  21931234.240    89804747.89946
  20172008.200   106004604.451 8  20172008.400    82600982.52748
  23711589.780   124605223.575 7  23711591.040    97094969.53545
 14  1  9  9 20  0.0000000  0 10G01G19G03G27G06G32G14G20G11G28
  21062118.760   110682175.415 8  21062122.760    86245867.34447
  20996168.200   110335581.645 8  20996167.600    85975762.03748
  22556679.080   118536099.812 7  22556682.220    92365782.61746
  23281490.060   122344998.295 7  23281495.140    95333759.09446
  24266005.480   127518636.159 6  24266010.240    99365154.36145
  20223734.780   106276441.324 8  20223736.300    82812818.91348
  23103709.440   121410804.057 7  23103712.240    94605824.28846
  21916798.600   115173558.294 7  21916800.560    89745644.20247
  20169623.260   105992071.357 8  20169623.440    82591216.46548
  23708284.960   124587857.013 6  23708286.220    97081437.07846
 14  1  9  9 20 30.0000000  0 10G01G19G03G27G06G32G14G20G11G28
  21054451.980   110641886.574 8  21054456.020    86214473.45047
  21006359.440   110389136.891 8  21006358.860    86017493.33948
  22576770.680   118641681.113 7  22576773.760    92448053.64846
  23300990.580   122447472.842 7  23300995.720    95413609.21546
  24285780.400   127622552.812 6  24285785.340    99446128.07745
  20222156.780   106268148.920 8  20222158.360    82806357.26148
  23110750.740   121447806.649 7  23110753.840    94634657.43946
  21902423.500   115098015.714 7  21902425.320    89686779.84847
  20167308.480   105979907.101 8  20167308.680    82581737.81248
  23705075.780   124570993.304 7  23705077.240    97068296.45345
 14  1  9  9 21  0.0000000  0 10G01G19G03G27G06G32G14G20G11G28
  21046820.260   110601781.536 8  21046824.300    86183222.77547
  21016635.280   110443136.429 8  21016634.720    86059570.83248
  22596904.960   118747486.883 7  22596908.040    92530499.55046
  23320531.540   122550160.484 7  23320536.660    95493625.36746
  24305575.920   127726577.629 6  24305580.760    99527186.07745
  20220674.700   106260360.464 8  20220676.320    82800288.30548
  23117890.820   121485327.326 7  23117893.880    94663894.29346
  21888106.980   115022781.715 7  21888108.720    89628155.95047
  20165064.140   105968113.093 8  20165064.420    82572547.66248
  23701962.440   124554633.488 7  23701964.100    97055548.45845
 14  1  9  9 21 30.0000000  0 10G01G19G03G27G06G32G14G20G11G28
  21039223.700   110561861.147 8  21039227.720    86152115.96848
  21026995.580   110497579.648 8  21026995.040    86101994.05948
  22617081.620   118853515.064 7  22617084.700    92613118.77946
  23340112.680   122653059.404 7  23340117.840    95573806.15946
  24325391.580   127830708.897 6  24325396.540    99608327.01645
  20219288.420   106253075.235 8  20219290.020    82794611.47248
  23125129.400   121523364.781 7  23125132.300    94693533.83046
  21873849.340   114947857.316 7  21873850.980    89569773.30447
  20162890.480   105956690.638 8  20162890.860    82563647.03948
  23698945.020   124538777.656 7  23698947.000    97043193.18345
 14  1  9  9 22  0.0000000  0 10G01G19G03G27G06G32G14G20G11G28
  21031662.060   110522124.418 8  21031666.040    86121152.27348
  21037439.860   110552464.184 8  21037439.360    86144761.16748
  22637299.860   118959761.870 7  22637302.900    92695908.35746
  23359733.400   122756166.222 7  23359738.580    95654148.92546
  24345226.940   127934943.267 6  24345231.900    99689548.26345
  20217997.460   106246290.931 8  20217999.020    82789324.97348
  23132465.840   121561916.544 7  23132468.580    94723574.09946
  21859650.480   114873241.985 7  21859652.100    89511631.49847
  20160787.420   105945638.812 8  20160787.780    82555035.22148
  23696023.520   124523424.558 7  23696025.600    97031229.69246
 14  1  9  9 22 30.0000000  0 10G01G19G03G27G06G32G14G20G11G28
  21024135.940   110482574.367 8  21024139.940    86090334.03548
  21047968.260   110607791.187 8  21047967.880    86187873.05848
  22657559.640   119066227.060 7  22657562.680    92778868.10646
  23379393.740   122859481.081 7  23379398.860    95734653.81246
  24365081.980   128039281.126 6  24365086.900    99770850.16445
  20216802.100   106240008.972 8  20216803.660    82784429.91848
  23139900.260   121600984.043 7  23139902.900    94754016.24546
  21845511.020   114798938.728 8  21845512.640    89453732.87747
  20158755.520   105934960.950 8  20158755.880    82546714.79748
  23693198.120   124508576.536 7  23693200.280    97019659.75245
 14  1  9  9 23  0.0000000  0 10G01G19G03G27G06G32G14G20G11G28
  21016645.140   110443209.795 8  21016649.160    86059660.32448
  21058580.380   110663558.190 8  21058580.060    86231327.80648
  22677860.120   119172906.287 7  22677863.120    92861994.64646
  23399092.860   122963000.203 7  23399098.020    95815317.86846
  24384956.080   128143718.761 6  24384960.960    99852229.78645
  20215701.800   106234226.665 8  20215703.380    82779924.20348
  23147432.020   121640563.996 7  23147434.840    94784857.69046
  21831430.680   114724946.305 7  21831432.320    89396076.46447
  20156794.660   105924656.238 8  20156795.020    82538685.14548
  23690468.540   124494231.703 7  23690470.640    97008481.87645
 14  1  9  9 23 30.0000000  0 10G01G19G03G27G06G32G14G20G11G28
  21009190.060   110404032.996 8  21009194.100    86029132.92648
  21069276.420   110719765.971 8  21069276.120    86275126.01648
  22698201.240   119279799.237 7  22698204.340    92945287.71046
  23418830.700   123066723.345 7  23418836.020    95896140.88246
  24404849.180   128248256.227 6  24404853.960    99933687.23145
  20214696.720   106228944.748 8  20214698.300    82775808.41348
  23155061.600   121680657.554 7  23155064.460    94816099.35146
  21817410.080   114651267.794 7  21817411.740    89338664.65147
  20154905.280   105914727.156 8  20154905.580    82530948.18548
  23687834.920   124480391.745 7  23687837.100    96997697.44045
 14  1  9  9 24  0.0000000  0 10G01G19G03G27G06G32G14G20G11G28
  21001770.220   110365041.360 8  21001774.260    85998749.82348
  21080055.560   110776410.211 8  21080055.260    86319264.32348
  22718581.900   119386900.021 7  22718585.200    93028742.71346
  23438606.500   123170645.187 7  23438611.840    95977118.71646
  24424760.140   128352888.038 6  24424765.060   100015218.15245
  20213786.040   106224158.987 8  20213787.660    82772079.24348
  23162788.180   121721260.144 7  23162790.940    94847737.65345
  21803448.680   114577900.192 7  21803450.440    89281495.10947
  20153086.840   105905171.124 8  20153087.140    82523501.91048
  23685296.900   124467053.540 7  23685299.060    96987303.98845
 14  1  9  9 24 30.0000000  0 10G01G19G03G27G06G32G14G20G11G28
  20994386.580   110326239.755 8  20994390.620    85968514.79548
  21090918.360   110833494.145 8  21090918.040    86363745.24548
  22739002.500   119494210.418 7  22739005.860    93112361.05446
  23458420.500   123274767.753 7  23458425.720    96058253.00946
  24444689.540   128457616.586 6  24444694.600   100096824.45445
  20212970.360   106219872.478 8  20212972.000    82768739.10648
  23170612.180   121762374.162 7  23170614.900    94879774.50946
  21789547.440   114504848.296 8  21789549.180    89224571.56747
  20151340.360   105895993.210 8  20151340.620    82516350.26248
  23682854.980   124454221.059 7  23682857.080    96977304.58746
 14  1  9  9 25  0.0000000  0 10G01G19G03G27G06G32G14G20G11G28
  20987038.380   110287624.380 8  20987042.440    85938424.87948
  21101863.760   110891012.421 8  21101863.420    86408564.62248
  22759461.700   119601723.490 7  22759465.040    93196137.34346
  23478271.600   123379084.813 7  23478276.740    96139538.81146
  24464636.240   128562435.625 6  24464641.520   100178501.28446
  20212248.680   106216079.992 8  20212250.320    82765783.93748
  23178532.620   121803994.566 7  23178535.100    94912205.92346
  21775705.620   114432108.810 8  21775707.320    89167891.46447
  20149665.160   105887190.066 8  20149665.420    82509490.64548
  23680508.580   124441890.118 7  23680510.660    96967695.98646
 14  1  9  9 25 30.0000000  0 10G01G19G03G27G06G32G14G20G11G28
  20979725.840   110249196.518 8  20979729.920    85908481.09848
  21112892.740   110948969.808 8  21112892.320    86453726.15248
  22779960.080   119709442.584 7  22779963.420    93280074.16546
  23498160.360   123483599.814 7  23498165.500    96220978.85746
  24484600.760   128667348.793 6  24484606.560   100260251.45245
  20211621.860   106212786.089 8  20211623.500    82763217.26348
  23186550.080   121846125.449 7  23186552.460    94945035.12546
  21761924.420   114359687.963 7  21761926.100    89111459.65147
  20148062.440   105878767.892 8  20148062.720    82502927.88748
  23678258.560   124430065.981 7  23678260.680    96958482.32145
 14  1  9  9 26  0.0000000  0 10G01G19G03G27G06G32G14G20G11G28
  20972450.360   110210963.476 8  20972454.480    85878689.11748
  21124004.420   111007361.842 8  21124003.960    86499226.37748
  22800496.620   119817362.328 7  22800500.020    93364167.31846
  23518085.720   123588307.457 7  23518091.000    96302569.00146
  24504582.200   128772350.820 6  24504588.280   100342070.85945
  20211089.120   106209986.506 8  20211090.720    82761035.78248
  23194663.580   121888762.400 7  23194666.300    94978258.64346
  21748203.300   114287583.279 8  21748205.060    89055274.19447
  20146531.760   105870723.975 8  20146531.960    82496659.88048
  23676104.280   124418745.462 7  23676106.420    96949661.07145
 14  1  9  9 26 30.0000000  0 10G01G19G03G27G06G32G14G20G11G28
  20965211.180   110172921.200 8  20965215.320    85849045.78748
  21135198.680   111066187.878 8  21135198.220    86545064.77948
  22821070.860   119925480.106 7  22821074.400    93448414.80046
  23538047.500   123693205.953 7  23538052.740    96384307.88846
  24524580.260   128877440.205 6  24524586.560   100423958.33745
  20210650.200   106207680.430 8  20210651.920    82759238.84248
  23202872.940   121931904.308 6  23202876.060    95011875.62646
  21734542.520   114215795.619 8  21734544.360    88999335.76847
  20145073.320   105863059.684 8  20145073.500    82490687.67448
  23674045.940   124407928.626 7  23674048.040    96941232.31245
 14  1  9  9 27  0.0000000  0 10G01G19G03G27G06G32G14G20G11G28
  20958008.520   110135070.916 8  20958012.700    85819552.06448
  21146475.380   111125447.118 8  21146474.900    86591240.74348
  22841682.380   120033794.144 7  22841686.000    93532815.19946
  23558045.140   123798293.664 7  23558050.400    96466194.21746
  24544594.520   128982615.147 6  24544601.220   100505912.51244
  20210305.080   106205867.183 8  20210306.800    82757825.93048
  23211178.280   121975550.286 7  23211181.620    95045885.41846
  21720942.180   114144325.918 8  21720944.100    88943645.11247
  20143687.380   105855776.350 8  20143687.580    82485012.32448
  23672083.340   124397615.611 6  23672085.740    96933196.13946
 14  1  9  9 27 30.0000000  0 10G01G19G03G27G06G32G14G20G11G28
  20950842.120   110097411.506 8  20950846.340    85790207.09148
  21157833.960   111185136.854 8  21157833.520    86637752.15548
  22862330.520   120142300.471 7  22862334.240    93617365.43246
  23578078.100   123903566.999 7  23578083.440    96548225.14346
  24564624.480   129087872.556 6  24564631.420   100587930.88845
  20210053.260   106204544.188 8  20210055.000    82756795.03048
  23219579.160   122019697.245 7  23219582.440    95080285.61546
  21707402.200   114073173.360 7  21707404.200    88888201.55847
  20142373.680   105848872.859 8  20142373.960    82479632.95248
  23670216.300   124387804.652 6  23670218.880    96925551.20546
 14  1  9  9 28  0.0000000  0 10G01G19G03G27G06G32G14G20G11G28
  20943712.280   110059944.020 8  20943716.460    85761011.65448
  21169274.440   111245256.688 8  21169274.080    86684598.71248
  22883014.800   120250996.772 7  22883018.680    93702063.69246
  23598146.060   124009024.123 7  23598151.500    96630399.33146
  24584669.820   129193210.554 6  24584676.840   100670012.06244
  20209894.620   106203710.564 8  20209896.380    82756145.45448
  23228075.400   122064344.478 7  23228078.320    95115075.67746
  21693922.840   114002339.074 7  21693924.840    88833006.01147
  20141132.560   105842350.761 8  20141132.920    82474550.77148
  23668444.920   124378496.110 6  23668447.540    96918297.71246
 14  1  9  9 28 30.0000000  0 10G01G19G03G27G06G32G14G20G11G28
  20936619.360   110022670.437 8  20936623.440    85731967.31448
  21180796.780   111305806.504 8  21180796.440    86731780.31748
  22903735.120   120359882.119 7  22903739.040    93786909.27346
  23618248.820   124114664.235 7  23618254.500    96712716.05246
  24604730.360   129298628.605 6  24604737.620   100752155.61646
  20209829.180   106203366.490 8  20209830.880    82755877.34348
  23236666.800   122109491.970 7  23236669.560    95150255.52446
  21680504.460   113931825.045 7  21680506.400    88778060.01847
  20139964.420   105836211.811 8  20139964.820    82469767.13948
  23666769.400   124369690.784 6  23666772.040    96911436.35545
 14  1  9  9 29  0.0000000  0 10G01G19G03G27G06G32G14G20G11G28
  20929563.120   109985589.968 8  20929567.180    85703073.44248
  21192400.520   111366784.042 8  21192400.200    86779295.21048
  22924490.680   120468952.671 7  22924494.560    93871899.16246
  23638385.720   124220483.928 6  23638391.680    96795172.76146
  24624805.720   129404123.266 6  24624813.100   100834358.84745
  20209856.460   106203509.609 8  20209858.120    82755988.85348
  23245352.680   122155136.937 7  23245355.580    95185822.97646
  21667146.980   113861630.662 8  21667148.800    88723363.11347
  20138869.020   105830455.135 8  20138869.380    82465281.38648
  23665189.380   124361387.323 6  23665191.880    96904966.06945
 14  1  9  9 29 30.0000000  0 10G01G19G03G27G06G32G14G20G11G28
  20922543.920   109948704.223 8  20922548.000    85674331.30748
  21204085.580   111428188.952 8  21204085.220    86827143.12048
  22945281.120   120578206.743 7  22945285.000    93957032.04546
  23658556.480   124326481.993 6  23658562.780    96877768.39446
  24644895.540   129509693.431 6  24644902.860   100916620.93745
  20209976.360   106204139.506 8  20209978.040    82756479.66448
  23254133.100   122201278.697 7  23254136.100    95221777.56246
  21653850.560   113791757.122 7  21653852.260    88668916.19947
  20137846.680   105825082.644 8  20137847.040    82461095.00348
  23663705.080   124353586.273 6  23663707.240    96898887.27946
 14  1  9  9 30  0.0000000  0 10G01G19G03G27G06G32G14G20G11G28
  20915561.940   109912013.836 8  20915566.100    85645741.39748
  21215851.640   111490019.776 8  21215851.340    86875322.90948
  22966106.120   120687641.839 7  22966109.880    94042305.99546
  23678760.900   124432656.196 7  23678767.320    96960501.30946
  24664999.280   129615337.335 6  24665006.440   100998940.48945
  20210188.680   106205254.990 8  20210190.320    82757348.85048
  23263007.740   122247915.781 7  23263010.900    95258118.13246
  21640615.300   113722205.159 8  21640616.940    88614719.87647
  20136897.700   105820095.305 8  20136898.000    82457208.72748
  23662316.240   124346287.336 6  23662318.180    96893199.75945
 14  1  9  9 30 30.0000000  0 10G01G19G03G27G06G32G14G20G11G28
  20908617.380   109875519.654 8  20908621.540    85617304.36848
  21227698.660   111552276.178 8  21227698.420    86923834.32448
  22986965.100   120797255.802 7  22986968.840    94127719.32146
  23698998.660   124539004.750 6  23699004.920    97043370.08746
  24685116.680   129721053.117 6  24685123.840   101081316.06546
  20210493.240   106206855.203 8  20210494.840    82758595.75348
  23271976.600   122295047.020 7  23271979.640    95294843.74646
  21627441.340   113652975.635 8  21627442.980    88560774.79847
  20136022.160   105815494.122 8  20136022.420    82453623.35648
  23661022.880   124339490.176 6  23661024.500    96887903.22445
 14  1  9  9 31  0.0000000  0 10G01G19G03G27G06G32G14G20G11G28
  20901710.320   109839222.588 8  20901714.460    85589020.93248
  21239626.340   111614956.434 8  21239626.120    86972676.01648
  23007857.700   120907046.336 7  23007861.460    94213270.22746
  23719269.000   124645525.512 6  23719275.380    97126373.03146
  24705247.260   129826838.779 6  24705254.600   101163746.07245
  20210889.800   106208938.799 8  20210891.380    82760219.30348
  23281039.260   122342670.939 7  23281042.180    95331953.28346
  21614328.820   113584069.087 8  21614330.500    88507081.40347
  20135220.140   105811279.573 8  20135220.440    82450339.26048
  23659824.820   124333194.531 6  23659826.520    96882997.50546
 14  1  9  9 31 30.0000000  0 10G01G19G03G27G06G32G14G20G11G28
  20894840.760   109803122.861 8  20894844.920    85560891.26748
  21251634.480   111678059.509 8  21251634.240    87021847.17047
  23028783.400   121017010.657 7  23028787.220    94298956.56146
  23739571.740   124752216.156 6  23739578.180    97209508.34646
  24725390.800   129932692.414 6  24725398.180   101246229.04945
  20211378.100   106211504.580 8  20211379.620    82762218.57848
  23290195.320   122390785.834 7  23290197.980    95369445.35646
  21601277.820   113515486.124 8  21601279.560    88453640.14547
  20134491.780   105807452.242 8  20134492.140    82447356.89248
  23658722.040   124327399.924 6  23658723.780    96878482.19346
 14  1  9  9 32  0.0000000  0 10G01G19G03G27G06G32G14G20G11G28
  20888008.580   109767219.608 8  20888012.720    85532914.69148
  21263722.560   111741582.486 8  21263722.320    87071345.52248
  23049741.340   121127144.865 7  23049745.240    94384775.25546
  23759906.080   124859072.972 6  23759912.680    97292773.14946
  24745546.640   130038610.145 6  24745553.820   101328761.99446
  20211957.520   106214549.526 8  20211959.060    82764591.22548
  23299444.260   122439388.543 7  23299446.720    95407317.58445
  21588288.180   113447225.481 7  21588289.960    88400450.05047
  20133836.900   105804011.053 8  20133837.320    82444675.42848
  23657714.480   124322104.327 6  23657716.220    96874355.69046
 14  1  9  9 32 30.0000000  0 10G01G19G03G27G06G32G14G20G11G28
  20881214.480   109731516.684 8  20881218.640    85505094.20248
  21275890.860   111805526.979 8  21275890.640    87121172.33448
  23070731.740   121237449.508 7  23070735.720    94470726.77546
  23780272.320   124966097.022 6  23780279.000    97376168.24746
  24765714.840   130144593.266 6  24765722.180   101411345.88245
  20212628.520   106218075.647 8  20212630.100    82767338.81948
  23308786.300   122488480.774 7  23308788.600    95445571.21846
  21575360.620   113379290.981 8  21575362.400    88347514.08047
  20133256.320   105800960.150 8  20133256.780    82442298.07348
  23656802.380   124317310.377 6  23656803.980    96870620.10345
 14  1  9  9 33  0.0000000  0 10G01G19G03G27G06G32G14G20G11G28
  20874458.740   109696015.122 8  20874462.920    85477430.62748
  21288139.280   111869892.595 8  21288139.100    87171327.29048
  23091754.160   121347922.532 7  23091758.240    94556809.48746
  23800670.000   125073286.513 6  23800676.860    97459692.27246
  24785895.080   130250640.245 6  24785902.700   101493979.48645
  20213390.920   106222082.039 8  20213392.560    82770460.63948
  23318221.400   122538061.553 7  23318223.340    95484205.53645
  21562495.360   113311683.591 8  21562497.160    88294833.01847
  20132750.180   105798300.429 8  20132750.700    82440225.53848
  23655985.460   124313018.030 6  23655987.240    96867275.40346
 14  1  9  9 33 30.0000000  0 10G01G19G03G27G06G32G14G20G11G28
  20867740.700   109660711.363 8  20867744.840    85449921.17448
  21300466.760   111934673.724 8  21300466.600    87221806.02047
  23112807.240   121458557.053 7  23112811.480    94643018.06046
  23821098.000   125180634.982 6  23821104.800    97543340.17845
  24806086.480   130356744.900 6  24806094.140   101576658.06945
  20214243.660   106226563.092 8  20214245.320    82773952.33448
  23327748.180   122588124.762 7  23327750.020    95523215.77946
  21549691.600   113244399.465 8  21549693.360    88242403.84747
  20132317.860   105796028.465 8  20132318.400    82438455.15448
  23655263.300   124309222.646 6  23655265.080    96864317.91846
 14  1  9  9 34  0.0000000  0  9G01G19G03G27G32G14G20G11G28
  20861059.980   109625603.798 8  20861064.100    85422564.59148
  21312872.580   111999866.378 8  21312872.380    87272605.41948
  23133890.140   121569348.367 7  23133894.580    94729348.79246
  23841555.320   125288137.758 7  23841562.100    97627108.30646
  20215185.920   106231514.991 8  20215187.660    82777810.92048
  23337365.920   122638666.235 7  23337367.860    95562598.70446
  21536948.880   113177436.440 8  21536950.760    88190224.88747
  20131958.980   105794142.269 8  20131959.520    82436985.37948
  23654635.040   124305921.220 6  23654636.860    96861745.37045
 14  1  9  9 34 30.0000000  0  9G01G19G03G27G32G14G20G11G28
  20854419.720   109590708.697 8  20854423.800    85395373.56848
  21325359.500   112065485.050 8  21325359.240    87323736.78447
  23155005.380   121680309.855 7  23155010.100    94815812.10846
  23862044.760   125395808.747 6  23862051.540    97711007.49646
  20216220.600   106236952.447 8  20216222.440    82782047.86448
  23347077.340   122689700.412 7  23347079.440    95602365.54446
  21524270.580   113110811.510 8  21524272.620    88138309.37447
  20131676.740   105792658.615 8  20131677.240    82435829.27348
  23654103.800   124303129.156 6  23654105.740    96859569.68945
 14  1  9  9 35  0.0000000  0  9G01G19G03G27G32G14G20G11G28
  20847817.200   109556012.123 8  20847821.280    85368337.23848
  21337924.520   112131514.147 8  21337924.220    87375187.95748
  23176149.840   121791424.043 7  23176154.660    94902394.42546
  23882563.020   125503630.897 6  23882569.700    97795024.50446
  20217344.680   106242859.385 8  20217346.520    82786650.64848
  23356879.320   122741210.972 6  23356881.760    95642503.58546
  21511653.880   113044510.239 8  21511655.980    88086646.06347
  20131468.380   105791563.211 8  20131468.840    82434975.70148
  23653666.620   124300831.224 6  23653668.580    96857779.02545
 14  1  9  9 35 30.0000000  0  9G01G19G03G27G32G14G20G11G28
  20841253.500   109521519.570 8  20841257.580    85341459.87548
  21350568.180   112197956.616 8  21350567.880    87426961.23847
  23197323.880   121902693.292 7  23197328.740    94989097.55746
  23903110.420   125611606.694 6  23903116.980    97879161.21946
  20218558.720   106249238.904 8  20218560.520    82791621.67948
  23366772.500   122793200.869 6  23366775.060    95683015.16146
  21499099.680   112978537.349 8  21499101.780    88035238.63747
  20131334.880   105790861.456 8  20131335.300    82434428.87148
  23653324.060   124299031.345 6  23653326.160    96856376.49845
 14  1  9  9 36  0.0000000  0  9G01G19G03G27G32G14G20G11G28
  20834727.940   109487227.587 8  20834732.080    85314738.80048
  21363289.440   112264807.210 8  21363289.240    87479052.53447
  23218526.240   122014111.182 7  23218531.000    95075916.52546
  23923685.760   125719730.032 6  23923692.420    97963412.90846
  20219861.720   106256085.879 8  20219863.460    82796956.97648
  23376755.860   122845664.395 7  23376758.380    95723895.81445
  21486607.380   112912889.746 8  21486609.420    87984084.68347
  20131275.600   105790549.856 8  20131276.040    82434186.06548
  23653075.580   124297724.744 6  23653077.580    96855358.34845
 14  1  9  9 36 30.0000000  0  9G01G19G03G27G32G14G20G11G28
  20828241.880   109453143.424 8  20828246.240    85288179.67348
  21376089.320   112332070.886 8  21376089.200    87531465.70847
  23239757.520   122125681.447 7  23239762.220    95162854.22846
  23944289.920   125828005.048 6  23944296.840    98047782.77246
  20221254.560   106263405.152 8  20221256.280    82802660.30048
  23386830.420   122898606.352 7  23386832.780    95765149.28546
  21474178.240   112847574.211 8  21474180.300    87933189.50947
  20131291.880   105790635.382 8  20131292.360    82434252.70548
  23652922.040   124296917.531 6  23652923.880    96854729.31846
 14  1  9  9 37  0.0000000  0  9G01G19G03G27G32G14G20G11G28
  20821794.960   109419264.237 8  20821799.380    85261780.25948
  21388966.980   112399742.976 8  21388966.880    87584197.13148
  23261016.700   122237398.493 7  23261021.360    95249906.30346
  23964921.980   125936426.283 6  23964929.040    98132266.56446
  20222736.440   106271192.198 8  20222738.160    82808728.13048
  23396994.940   122952021.785 6  23396997.360    95806771.68846
  21461811.760   112782588.080 8  21461813.840    87882550.98047
  20131383.200   105791115.613 8  20131383.760    82434626.90948
  23652862.740   124296605.734 6  23652864.500    96854486.31945
 14  1  9  9 37 30.0000000  0  9G01G19G03G27G32G14G20G11G28
  20815387.600   109385592.434 8  20815391.840    85235542.44248
  21401922.360   112467823.745 8  21401922.280    87637247.01347
  23282303.580   122349261.482 7  23282308.320    95337072.08246
  23985581.660   126044993.103 6  23985588.980    98216863.82346
  20224307.320   106279447.010 8  20224309.020    82815160.45748
  23407249.380   123005909.998 6  23407252.040    95848762.51445
  21449508.280   112717932.933 8  21449510.320    87832170.36847
  20131550.120   105791992.857 8  20131550.660    82435310.47248
  23652897.860   124296790.309 7  23652899.620    96854630.08846
 14  1  9  9 38  0.0000000  0 10G01G19G03G27G23G32G14G20G11G28
  20809019.860   109352129.067 8  20809023.980    85209467.05448
  21414955.320   112536312.112 8  21414955.300    87690614.49447
  23303617.840   122461268.049 7  23303622.580    95424349.73446
  24006268.720   126153703.833 6  24006276.280    98301573.18346
  24809071.220   130372545.919 6  24809075.920   101589005.60545
  20225967.040   106288168.685 8  20225968.700    82821956.58648
  23417593.580   123060270.545 6  23417596.700    95891121.36946
  21437268.020   112653610.050 8  21437270.020    87782048.67047
  20131792.760   105793268.065 8  20131793.300    82436304.13248
  23653027.320   124297470.742 7  23653029.140    96855160.27946
 14  1  9  9 38 30.0000000  0 10G01G19G03G27G23G32G14G20G11G28
  20802690.800   109318869.477 8  20802694.960    85183550.45148
  21428064.560   112605201.152 8  21428064.500    87744294.18647
  23324957.880   122573410.138 7  23324962.680    95511733.00646
  24026981.900   126262550.476 6  24026989.360    98386388.45046
  24788946.200   130266787.957 6  24788950.860   101506596.78645
  20227714.180   106297350.112 8  20227715.860    82829110.95548
  23428026.240   123115095.463 6  23428029.640    95933842.04546
  21425089.940   112589613.850 8  21425091.860    87732181.51547
  20132110.080   105794935.769 8  20132110.600    82437603.63148
  23653250.020   124298640.775 7  23653251.840    96856071.93445
 14  1  9  9 39  0.0000000  0 10G01G19G03G27G23G32G14G20G11G28
  20796401.460   109285818.709 8  20796405.680    85157796.56748
  21441250.620   112674493.819 8  21441250.500    87798288.39047
  23346324.100   122685689.688 7  23346328.920    95599223.36246
  24047721.400   126371535.369 6  24047728.780    98471311.45046
  24768814.840   130160997.038 6  24768819.600   101424162.24245
  20229549.320   106306994.174 8  20229551.060    82836625.82148
  23438547.960   123170387.427 6  23438551.240    95976926.66845
  21412975.000   112525949.327 8  21412976.820    87682572.81247
  20132503.100   105797001.282 8  20132503.560    82439213.11148
  23653566.620   124300304.286 6  23653568.520    96857368.15146
 14  1  9  9 39 30.0000000  0 10G01G19G03G27G23G32G14G20G11G28
  20790151.860   109252976.984 8  20790156.080    85132205.57048
  21454513.060   112744188.348 8  21454512.960    87852595.73647
  23367715.980   122798103.943 7  23367720.880    95686818.68745
  24068486.680   126480656.007 6  24068493.900    98556340.22046
  24748677.480   130055175.136 6  24748682.640   101341703.53945
  20231472.140   106317099.234 8  20231473.920    82844499.91648
  23449158.320   123226144.376 7  23449161.560    96020373.62546
  21400923.260   112462616.814 8  21400924.980    87633222.81647
  20132971.960   105799464.945 8  20132972.360    82441132.84148
  23653976.960   124302460.169 7  23653979.040    96859048.01646
 14  1  9  9 40  0.0000000  0 10G01G19G03G27G23G32G14G20G11G28
  20783942.520   109220346.646 8  20783946.760    85106779.29548
  21467851.860   112814284.350 8  21467851.820    87907215.91647
  23389133.360   122910651.805 7  23389138.100    95774518.13846
  24089277.660   126589911.558 6  24089284.760    98641474.13146
  24728535.120   129949326.183 6  24728540.460   101259223.70645
  20233482.640   106327665.221 8  20233484.520    82852733.16948
  23459857.200   123282366.368 7  23459860.300    96064182.96245
  21388935.020   112399617.872 8  21388936.660    87584132.75047
  20133517.020   105802328.798 8  20133517.420    82443364.39048
  23654481.040   124305108.889 6  23654483.260    96861111.89946
 14  1  9  9 40 30.0000000  0 10G01G19G03G27G23G32G14G20G11G28
  20777773.380   109187927.205 8  20777777.640    85081517.36048
  21481266.720   112884779.794 8  21481266.720    87962147.35447
  23410575.460   123023329.876 7  23410580.120    95862319.02146
  24110093.600   126699298.818 6  24110100.740    98726710.64645
  24708387.860   129843451.144 6  24708393.100   101176723.55345
  20235580.400   106338689.621 8  20235582.280    82861323.63148
  23470644.040   123339050.055 7  23470646.780    96108352.05846
  21377010.140   112336952.068 8  21377011.740    87535302.26447
  20134138.100   105805592.227 8  20134138.480    82445907.30548
  23655078.420   124308248.770 7  23655080.700    96863558.47845
 14  1  9  9 41  0.0000000  0 10G01G19G03G27G23G32G14G20G11G28
  20771644.460   109155719.116 8  20771648.740    85056420.11748
  21494757.300   112955672.910 8  21494757.380    88017388.66747
  23432041.840   123136135.285 7  23432046.480    95950219.14946
  24130934.020   126808815.100 6  24130941.400    98812047.67945
  24688236.020   129737551.995 6  24688241.220   101094204.60545
  20237765.080   106350170.489 8  20237766.940    82870269.77048
  23481518.300   123396193.274 7  23481520.720    96152879.20345
  21365148.540   112274619.226 8  21365150.180    87486731.23447
  20134835.200   105809255.418 8  20134835.620    82448761.72548
  23655769.200   124311878.649 6  23655771.580    96866386.88646
 14  1  9  9 41 30.0000000  0 10G01G19G03G27G23G32G14G20G11G28
  20765556.280   109123725.285 8  20765560.540    85031489.83348
  21508323.540   113026963.751 8  21508323.740    88072939.88847
  23453532.260   123249067.466 7  23453536.800    96038218.04046
  24151798.940   126918460.356 6  24151806.500    98897485.21746
  24668080.360   129631633.450 6  24668085.940   101011670.55045
  20240036.760   106362108.350 8  20240038.640    82879572.00348
  23492479.960   123453796.414 7  23492482.340    96197764.70146
  21353350.820   112212621.941 8  21353352.580    87438421.67847
  20135608.840   105813320.866 8  20135609.280    82451929.57848
  23656553.280   124315999.629 6  23656555.840    96869597.99846
 14  1  9  9 42  0.0000000  0 10G01G19G03G27G23G32G14G20G11G28
  20759508.540   109091944.029 8  20759512.760    85006725.19548
  21521964.760   113098648.720 8  21521965.060    88128798.22347
  23475045.900   123362121.650 7  23475050.460    96126312.01546
  24172687.560   127028229.999 6  24172695.280    98983019.68446
  24647921.180   129525695.582 6  24647926.960   100929121.41745
  20242394.720   106374499.374 8  20242396.600    82889227.33948
  23503528.140   123511855.049 6  23503530.680    96243005.14145
  21341616.500   112150958.144 8  21341618.320    87390371.97847
  20136458.760   105817787.186 8  20136459.220    82455409.79748
  23657430.380   124320608.613 6  23657432.920    96873189.34546
 14  1  9  9 42 30.0000000  0 10G01G19G03G27G23G32G14G20G11G28
  20753501.400   109060376.387 8  20753505.640    84982127.01548
  21535680.760   113170726.574 8  21535681.120    88184962.70547
  23496582.200   123475295.090 7  23496586.780    96214498.89446
  24193599.380   127138121.950 6  24193607.540    99068649.41845
  24627758.940   129419740.606 6  24627764.560   100846558.91445
  20244838.740   106387342.229 8  20244840.520    82899234.74848
  23514662.680   123570367.499 7  23514665.500    96288599.20046
  21329945.660   112089628.156 8  21329947.580    87342582.39047
  20137385.000   105822654.744 8  20137385.540    82459202.67948
  23658400.320   124325704.718 6  23658402.660    96877160.25846
 14  1  9  9 43  0.0000000  0 10G01G19G03G27G23G32G14G20G11G28
  20747534.880   109029022.221 8  20747539.160    84957695.18248
  21549471.100   113243194.934 8  21549471.480    88241431.48047
  23518140.780   123588585.446 7  23518145.280    96302776.88946
  24214534.040   127248133.366 6  24214542.240    99154372.25346
  24607593.780   129313770.149 7  24607599.240   100763984.41145
  20247368.340   106400634.728 8  20247370.000    82909592.53148
  23525883.340   123629331.662 6  23525886.400    96334545.21946
  21318338.320   112028631.704 8  21318340.300    87295052.69747
  20138387.580   105827923.469 8  20138388.140    82463308.15248
  23659462.700   124331286.609 6  23659464.920    96881509.70345
 14  1  9  9 43 30.0000000  0 10G01G19G03G27G23G32G14G20G11G28
  20741609.800   108997886.143 8  20741614.180    84933433.30048
  21563336.140   113316055.878 8  21563336.560    88298206.16547
  23539721.760   123701993.778 7  23539726.280    96391146.80946
  24235491.880   127358265.683 6  24235499.880    99240189.29546
  24587426.960   129207790.684 7  24587432.280   100681402.90645
  20249983.860   106414378.966 8  20249985.480    82920302.30248
  23537190.140   123688748.934 6  23537193.420    96380844.31446
  21306795.380   111967973.287 8  21306797.380    87247786.40847
  20139467.360   105833597.956 8  20139468.000    82467729.80448
  23660617.860   124337356.884 6  23660620.280    96886239.70246
 14  1  9  9 44  0.0000000  0 10G01G19G03G27G23G32G14G20G11G28
  20735725.760   108966965.486 8  20735730.180    84909339.27348
  21577274.960   113389304.551 8  21577275.380    88355282.96747
  23561323.920   123815513.577 7  23561328.520    96479603.59946
  24256471.600   127468513.103 6  24256479.620    99326096.00746
  24567258.040   129101800.584 7  24567263.320   100598813.12545
  20252684.320   106428569.724 8  20252685.940    82931360.01448
  23548582.220   123748613.731 7  23548585.440    96427492.15845
  21295316.180   111907649.515 8  21295318.100    87200780.88247
  20140623.720   105839674.653 8  20140624.400    82472464.86648
  23661865.100   124343910.864 7  23661867.600    96891346.58945
 14  1  9  9 44 30.0000000  0 10G01G19G03G27G23G32G14G20G11G28
  20729883.280   108936262.673 8  20729887.660    84885415.00948
  21591287.660   113462941.150 8  21591287.980    88412662.06447
  23582947.140   123929144.510 7  23582952.060    96568146.97846
  24277473.140   127578875.340 6  24277481.300    99412092.18545
  24547087.840   128995804.353 7  24547093.200   100516218.54745
  20255469.800   106443207.381 8  20255471.480    82942765.94748
  23560059.520   123808926.243 7  23560062.440    96474488.85045
  21283901.080   111847662.229 8  21283902.880    87154037.55247
  20141857.100   105846156.235 8  20141857.780    82477515.41848
  23663204.620   124350949.643 7  23663207.000    96896831.26146
 14  1  9  9 45  0.0000000  0 10G01G19G03G27G23G32G14G20G11G28
  20724082.800   108905780.246 8  20724087.040    84861662.47148
  21605374.100   113536965.453 8  21605374.360    88470343.25947
  23604591.340   124042885.651 7  23604596.600    96656776.22246
  24298496.380   127689351.644 6  24298504.600    99498177.26046
  24526916.860   128889805.771 6  24526922.520   100433622.24745
  20258340.300   106458291.926 8  20258342.000    82954520.10648
  23571621.760   123869685.959 6  23571624.460    96521833.98945
  21272550.360   111788013.428 8  21272552.100    87107557.97747
  20143167.960   105853044.504 8  20143168.540    82482882.87048
  23664636.600   124358473.984 7  23664638.900    96902694.28845
 14  1  9  9 45 30.0000000  0 10G01G19G03G27G23G32G14G20G11G28
  20718323.840   108875516.954 8  20718328.100    84838080.70548
  21619533.620   113611374.110 8  21619533.900    88528323.95447
  23626255.580   124156732.413 7  23626261.160    96745487.75545
  24319540.560   127799938.111 6  24319548.840    99584348.15246
  24506745.420   128783805.421 6  24506751.300   100351024.54745
  20261295.220   106473820.073 8  20261296.920    82966619.93348
  23583268.220   123930889.197 6  23583270.820    96569524.77246
  21261263.720   111728701.556 8  21261265.480    87061340.93247
  20144556.000   105860338.367 8  20144556.540    82488566.37148
  23666160.380   124366480.955 7  23666162.600    96908933.37845
 14  1  9  9 46  0.0000000  0 10G01G19G03G27G23G32G14G20G11G28
  20712606.980   108845474.786 8  20712611.240    84814671.24248
  21633766.260   113686166.914 8  21633766.580    88586603.97447
  23647939.800   124270683.614 7  23647945.660    96834280.68146
  24340605.520   127910633.415 6  24340613.880    99670603.82846
  24486574.300   128677806.694 6  24486580.480   100268428.12845
  20264334.380   106489791.106 8  20264336.180    82979064.85948
  23594998.660   123992534.988 6  23595001.500    96617560.39246
  21250041.500   111669728.318 8  21250043.300    87015387.76647
  20146021.620   105868039.550 8  20146022.040    82494567.25448
  23667775.920   124374970.575 7  23667778.100    96915548.54846
 14  1  9  9 46 30.0000000  0 10G01G19G03G27G23G32G14G20G11G28
  20706931.700   108815651.030 8  20706935.960    84791431.97848
  21648070.960   113761338.536 8  21648071.340    88645179.17847
  23669642.960   124384733.806 7  23669649.060    96923150.73446
  24361690.120   128021432.130 6  24361698.580    99756940.08646
  24466403.440   128571808.609 6  24466409.780   100185832.23845
  20267456.900   106506200.180 8  20267458.800    82991851.11848
  23606812.520   124054618.138 6  23606815.660    96665936.83846
  21238883.080   111611090.393 8  21238884.840    86969695.88547
  20147564.060   105876144.946 8  20147564.440    82500883.11648
  23669482.460   124383938.480 7  23669484.740    96922536.44146
 14  1  9  9 47  0.0000000  0 10G01G19G03G27G23G32G14G20G11G28
  20701298.200   108786046.990 8  20701302.500    84768363.92448
  21662447.480   113836887.509 8  21662447.900    88704048.42747
  23691364.560   124498880.244 7  23691370.680    97012095.77546
  24382794.000   128132332.060 6  24382802.520    99843355.21746
  24446233.340   128465813.842 7  24446239.500   100103238.98145
  20270662.460   106523045.679 8  20270664.440    83004977.45148
  23618709.440   124117136.798 6  23618712.880    96714652.62446
  21227788.540   111552788.261 8  21227790.260    86924265.66247
  20149183.520   105884654.961 8  20149183.880    82507514.26648
  23671280.120   124393383.862 7  23671282.240    96929896.35746
 14  1  9  9 47 30.0000000  0 10G01G19G03G27G23G32G14G20G11G28
  20695707.100   108756665.898 8  20695711.420    84745469.59548
  21676896.100   113912815.183 8  21676896.560    88763212.76147
  23713104.620   124613123.113 7  23713110.640    97101115.97346
  24403917.260   128243333.865 6  24403925.900    99929849.69545
  24426064.940   128359827.817 7  24426071.020   100020652.50745
  20273951.340   106540328.934 8  20273953.380    83018444.89748
  23630689.560   124180091.700 6  23630692.880    96763708.34446
  21216758.540   111494825.091 8  21216760.140    86879099.56147
  20150880.580   105893572.880 8  20150880.940    82514463.26148
  23673168.740   124403308.181 7  23673170.900    96937629.51645
 14  1  9  9 48  0.0000000  0 10G01G19G03G27G23G32G14G20G11G28
  20690158.660   108727508.904 8  20690163.040    84722749.88248
  21691416.500   113989120.132 8  21691417.040    88822671.06847
  23734862.660   124727460.506 7  23734868.440    97190209.81445
  24425059.400   128354435.425 6  24425068.380   100016421.88146
  24405898.720   128253852.756 7  24405904.640    99938074.64245
  20277323.280   106558048.509 8  20277325.300    83032252.34048
  23642752.180   124243480.991 6  23642755.560    96813102.57646
  21205793.100   111437201.343 8  21205794.640    86834197.95947
  20152655.460   105902899.672 8  20152655.820    82521730.86248
  23675148.480   124413710.713 7  23675150.620    96945735.26446
 14  1  9  9 48 30.0000000  0 10G01G19G03G27G23G32G14G20G11G28
  20684653.080   108698577.259 8  20684657.500    84700205.77148
  21706008.440   114065800.987 8  21706009.040    88882422.29647
  23756638.340   124841890.519 7  23756643.860    97279375.81945
  24446220.220   128465635.278 6  24446229.560   100103070.64245
  24385735.080   128147891.682 6  24385740.760    99855507.68845
  20280778.100   106576203.343 8  20280780.020    83046398.94348
  23654897.060   124307303.142 6  23654900.540    96862834.08845
  21194892.340   111379917.789 8  21194893.960    86789561.43147
  20154508.280   105912636.464 8  20154508.700    82529317.94448
  23677219.000   124424590.783 7  23677221.220    96954213.14346
 14  1  9  9 49  0.0000000  0 10G01G19G03G27G23G32G14G20G11G28
  20679190.060   108669869.089 8  20679194.460    84677835.79248
  21720671.100   114142853.336 8  21720671.700    88942463.00147
  23778430.500   124956407.629 7  23778435.920    97368609.71245
  24467398.800   128576928.056 6  24467408.300   100189791.83745
  24365573.880   128041943.932 6  24365579.240    99772951.14245
  20284314.840   106594788.632 8  20284316.680    83060880.97048
  23667123.740   124371553.373 6  23667126.880    96912899.21345
  21184055.780   111322971.663 8  21184057.520    86745187.84847
  20156438.580   105922780.432 8  20156439.060    82537222.29948
  23679379.640   124435944.547 7  23679381.980    96963060.14446
 14  1  9  9 49 30.0000000  0 10G01G19G03G27G23G32G14G20G11G28
  20673770.340   108641388.153 8  20673774.740    84655642.87548
  21735404.780   114220278.674 8  21735405.320    89002794.34147
  23800239.280   125071012.304 7  23800244.660    97457911.81645
  24488595.420   128688314.821 6  24488604.760   100276586.26446
  24345416.060   127936015.013 6  24345421.120    99690409.26145
  20287933.820   106613806.114 8  20287935.620    83075699.76348
  23679432.020   124436232.728 6  23679435.020    96963298.70546
  21173284.140   111266366.515 8  21173285.900    86701079.94947
  20158447.080   105933335.423 8  20158447.660    82545446.94248
  23681630.740   124447773.766 7  23681633.160    96972277.64346
 14  1  9  9 50  0.0000000  0 10G01G19G03G27G23G32G14G20G11G28
  20668393.720   108613133.924 8  20668398.200    84633626.61948
  21750208.780   114298073.612 8  21750209.300    89063413.67547
  23822063.880   125185700.532 7  23822069.400    97547279.01446
  24509809.140   128799791.678 6  24509818.460   100363450.88845
  24325261.920   127830106.111 6  24325267.140    99607883.02245
  20291634.400   106633252.286 8  20291636.080    83090852.61048
  23691821.020   124501337.499 6  23691823.940    97014029.68345
  21162577.200   111210101.094 8  21162578.960    86657236.78547
  20160533.580   105944300.291 8  20160534.240    82553990.96748
  23683971.940   124460075.983 7  23683974.320    96981863.69446
 14  1  9  9 50 30.0000000  0 10G01G19G03G27G23G32G14G20G11G28
  20663060.660   108585108.360 8  20663065.140    84611788.53848
  21765083.020   114376237.790 8  21765083.580    89124320.73147
  23843904.180   125300471.586 7  23843909.900    97636710.77346
  24531039.820   128911357.710 6  24531049.180   100450384.93945
  24305112.180   127724220.782 6  24305117.480    99525375.18745
  20295416.480   106653126.875 8  20295418.000    83106339.28648
  23704290.720   124566866.985 6  23704293.600    97065091.61146
  21151935.140   111154176.739 8  21151936.880    86613659.38547
  20162698.400   105955676.358 8  20162699.100    82562855.39948
  23686403.080   124472850.987 7  23686405.500    96991818.16145
 14  1  9  9 51  0.0000000  0 10G01G19G03G27G23G32G14G20G11G28
  20657771.020   108557311.022 8  20657775.440    84590128.28948
  21780026.940   114454768.257 8  21780027.540    89185513.20447
  23865759.500   125415321.527 7  23865765.420    97726203.98845
  24552286.800   129023009.380 6  24552296.320   100537385.76046
  24284967.220   127618359.914 6  24284972.400    99442886.36445
  20299279.500   106673426.901 8  20299280.900    83122157.47248
  23716840.600   124632817.806 6  23716843.420    97116481.84345
  21141357.720   111098592.240 8  21141359.440    86570346.81347
  20164941.320   105967462.888 8  20164942.040    82572039.67948
  23688923.700   124486096.241 7  23688925.980    97002139.05046
 14  1  9  9 51 30.0000000  0 10G01G19G03G27G23G32G14G20G11G28
  20652524.920   108529742.549 8  20652529.260    84568646.37048
  21795040.160   114533662.917 8  21795040.780    89246989.47047
  23887629.300   125530247.534 7  23887635.480    97815756.47945
  24573549.640   129134744.217 6  24573559.240   100624451.37946
  24264827.540   127512525.793 6  24264832.520    99360418.42145
  20303223.080   106694150.433 8  20303224.460    83138305.66648
  23729470.260   124699187.414 6  23729473.140    97168198.38246
  21130844.940   111043347.733 8  21130846.720    86527299.17147
  20167262.420   105979660.264 8  20167263.160    82581544.09848
  23691533.480   124499810.459 7  23691535.680    97012825.38846
 14  1  9  9 52  0.0000000  0 10G01G19G03G27G23G32G14G20G11G28
  20647322.360   108502403.059 8  20647326.700    84547342.88548
  21810122.200   114612919.393 8  21810122.860    89308747.66547
  23909513.040   125645246.568 6  23909519.460    97905365.84345
  24594827.720   129246559.430 6  24594837.440   100711579.57845
  24244693.360   127406720.399 7  24244698.220    99277972.80945
  20307246.740   106715295.143 8  20307248.240    83154782.05548
  23742179.220   124765973.216 6  23742182.260    97220239.20945
  21120396.860   110988442.899 8  21120398.640    86484516.18747
  20169661.700   105992268.134 8  20169662.420    82591368.38248
  23694232.160   124513991.556 7  23694234.280    97023875.52646
 14  1  9  9 52 30.0000000  0 10G01G19G03G27G23G32G14G20G11G28
  20642163.780   108475294.869 8  20642168.200    84526219.63548
  21825273.020   114692537.272 8  21825273.720    89370787.47847
  23931410.560   125760317.503 6  23931417.060    97995031.24346
  24616120.940   129358454.007 6  24616130.840   100798769.66045
  24224565.300   127300947.400 7  24224570.000    99195552.43746
  20311350.460   106736860.623 8  20311352.060    83171586.31247
  23754967.460   124833174.567 7  23754970.720    97272603.82945
  21110013.720   110933879.233 8  21110015.520    86441999.04047
  20172139.400   106005288.407 8  20172140.120    82601514.01848
  23697019.660   124528639.516 7  23697021.700    97035289.46145
 14  1  9  9 53  0.0000000  0 10G01G19G03G27G23G32G14G20G11G28
  20637049.420   108448418.902 8  20637053.840    84505277.31948
  21840492.280   114772514.889 8  21840493.040    89433107.60347
  23953321.380   125875458.042 7  23953327.880    98084750.88645
  24637428.880   129470425.833 6  24637438.880   100886019.90945
  24204443.840   127195209.095 7  24204448.560    99113159.10845
  20315533.920   106758845.219 8  20315535.640    83188717.15148
  23767834.380   124900789.128 6  23767837.880    97325290.45245
  21099695.540   110879656.744 8  21099697.320    86399747.75147
  20174695.640   106018721.407 8  20174696.280    82611981.25248
  23699895.820   124543753.494 7  23699897.780    97047066.49345
 14  1  9  9 53 30.0000000  0 10G01G19G03G27G23G32G14G20G11G28
  20631979.900   108421778.725 8  20631984.360    84484518.74448
  21855780.200   114852853.493 8  21855781.080    89495709.01247
  23975245.520   125990668.397 7  23975251.880    98174524.91246
  24658751.640   129582475.509 6  24658761.780   100973330.82346
  24184329.980   127089510.725 6  24184334.540    99030796.84945
  20319797.380   106781249.940 8  20319799.140    83206175.36948
  23780779.960   124968817.745 6  23780783.360    97378299.69345
  21089442.860   110825778.416 8  21089444.600    86357764.62147
  20177331.060   106032570.244 8  20177331.600    82622772.52148
  23702860.820   124559335.055 7  23702862.880    97059207.91045
 14  1  9  9 54  0.0000000  0 10G01G19G03G27G23G32G14G20G11G28
  20626953.440   108395364.618 8  20626957.960    84463936.32748
  21871135.480   114933545.839 8  21871136.380    89558586.08047
  23997181.460   126105940.931 6  23997187.720    98264347.41045
  24680087.840   129694595.535 6  24680097.980   101060696.55545
  24164223.200   126983849.571 6  24164227.520    98948463.57045
  20324139.440   106804067.926 8  20324141.220    83223955.61248
  23793802.860   125037253.118 6  23793805.760    97431625.88245
  21079254.740   110772239.374 8  21079256.460    86316045.88147
  20180044.620   106046829.799 8  20180045.120    82633883.83548
  23705913.480   124575377.189 7  23705915.740    97071708.21246
 14  1  9  9 54 30.0000000  0 10G01G19G03G27G23G32G14G20G11G28
  20621972.860   108369191.691 8  20621977.420    84443541.83848
  21886558.540   115014593.923 8  21886559.380    89621740.33047
  24019129.460   126221277.086 6  24019135.680    98354219.44145
  24701437.660   129806787.418 6  24701447.940   101148118.25145
  24144124.660   126878231.664 6  24144128.840    98866163.93945
  20328560.520   106827301.169 8  20328562.360    83242059.43348
  23806903.480   125106096.542 6  23806905.840    97485270.03345
  21069131.900   110719043.341 8  21069133.600    86274594.41647
  20182837.160   106061504.708 8  20182837.680    82645318.79748
  23709054.280   124591882.288 7  23709056.760    97084569.26745
 14  1  9  9 55  0.0000000  0 10G01G19G03G27G23G32G14G20G11G28
  20617037.200   108343254.546 8  20617041.780    84423331.07048
  21902048.760   115095994.648 8  21902049.520    89685169.36047
  24041088.860   126336672.998 7  24041095.160    98444138.02946
  24722800.540   129919047.507 6  24722810.880   101235593.08145
  24124034.540   126772658.130 6  24124038.780    98783898.89545
  20333060.060   106850946.390 8  20333061.940    83260484.27748
  23820081.040   125175344.517 6  23820083.160    97539229.41245
  21059074.100   110666189.182 8  21059075.760    86233409.34547
  20185708.500   106076593.649 8  20185709.040    82657076.39348
  23712282.680   124608847.671 7  23712285.240    97097788.98345
 14  1  9  9 55 30.0000000  0  9G01G19G03G23G32G14G20G11G28
  20612146.960   108317555.943 8  20612151.500    84403306.18448
  21917606.200   115177748.475 8  21917606.840    89748873.54347
  24063059.600   126452128.245 7  24063065.900    98534102.86645
  24103953.940   126667133.726 7  24103958.180    98701672.08245
  20337638.200   106875004.279 8  20337640.060    83279230.68948
  23833335.380   125244997.288 6  23833337.800    97593504.16945
  21049081.900   110613679.567 8  21049083.540    86192492.74847
  20188659.040   106092098.923 8  20188659.680    82669158.40648
  23715598.960   124626274.333 7  23715601.460    97111368.13445
 14  1  9  9 56  0.0000000  0  9G01G19G03G23G32G14G20G11G28
  20607302.020   108292095.212 8  20607306.440    84383466.64148
  21933230.060   115259851.599 8  21933230.680    89812849.90147
  24085040.840   126567638.718 7  24085046.980    98624110.72145
  24083882.920   126561658.931 7  24083887.080    98619483.92445
  20342294.180   106899471.298 8  20342296.060    83298295.90848
  23846665.960   125315050.886 6  23846668.840    97648091.25545
  21039154.840   110561512.546 8  21039156.560    86151843.11747
  20191688.620   106108019.592 8  20191689.360    82681564.09348
  23719002.320   124644159.126 7  23719004.880    97125304.29845
 14  1  9  9 56 30.0000000  0  9G01G19G03G23G32G14G20G11G28
  20602502.040   108266870.653 8  20602506.340    84363811.13348
  21948919.480   115342299.727 8  21948920.120    89877095.09047
  24107031.640   126683199.499 7  24107037.680    98714157.77646
  24063821.480   126456233.865 7  24063825.360    98537334.50646
  20347027.140   106924342.974 8  20347029.000    83317676.44648
  23860072.040   125385500.582 6  23860075.320    97702987.01445
  21029292.480   110509685.613 8  21029294.260    86111458.49447
  20194796.740   106124352.910 8  20194797.520    82694291.33548
  23722492.140   124662497.865 7  23722494.680    97139594.16345
 14  1  9  9 57  0.0000000  0  9G01G19G03G23G32G14G20G11G28
  20597747.400   108241884.581 8  20597751.640    84344341.45148
  21964674.480   115425092.742 8  21964675.200    89941609.02847
  24129031.860   126798810.016 7  24129037.920    98804243.59345
  24043770.220   126350862.587 7  24043773.780    98455226.99045
  20351837.080   106949619.253 8  20351838.860    83337372.25948
  23873553.540   125456345.836 6  23873557.020    97758191.01845
  21019495.300   110458200.895 8  21019497.040    86071340.55847
  20197983.860   106141101.220 8  20197984.640    82707341.94248
  23726068.300   124681290.915 7  23726071.020    97154238.04346
 14  1  9  9 57 30.0000000  0  9G01G19G03G23G32G14G20G11G28
  20593038.700   108217139.872 8  20593042.840    84325059.83448
  21980495.180   115508230.709 8  21980495.880    90006391.75947
  24151041.340   126914469.498 6  24151047.340    98894367.55145
  24023730.000   126245549.175 7  24023733.100    98373164.55645
  20356724.060   106975300.301 8  20356725.700    83357383.47548
  23887110.300   125527586.053 6  23887113.680    97813702.82045
  21009763.540   110407060.183 8  21009765.340    86031490.68547
  20201250.380   106158266.770 8  20201251.200    82720717.67948
  23729731.020   124700538.584 7  23729734.060    97169236.20545
 14  1  9  9 58  0.0000000  0  9G01G19G03G23G32G14G20G11G28
  20588375.840   108192636.341 8  20588379.920    84305966.15248
  21996380.960   115591710.505 8  21996381.620    90071440.84447
  24173059.480   127030174.551 6  24173065.440    98984527.01346
  24003701.040   126140295.368 7  24003703.640    98291148.54345
  20361687.460   107001383.071 8  20361689.040    83377707.71948
  23900741.700   125599218.090 6  23900744.580    97869519.90645
  21000097.040   110356262.351 8  21000098.880    85991908.00447
  20204596.060   106175848.492 8  20204596.960    82734417.70648
  23733479.660   124720238.195 7  23733482.920    97184586.46245
 14  1  9  9 58 30.0000000  0  9G01G19G03G23G32G14G20G11G28
  20583758.860   108168374.102 8  20583762.980    84287060.49148
  22012331.260   115675529.295 8  22012331.860    90136754.08547
  24195085.560   127145921.697 6  24195091.560    99074719.29545
  23983683.500   126035102.583 7  23983685.960    98209180.12945
  20366726.740   107027864.829 8  20366728.320    83398342.87048
  23914446.940   125671238.777 6  23914449.460    97925639.85245
  20990495.640   110305806.582 8  20990497.460    85952591.88247
  20208020.820   106193845.727 8  20208021.760    82748441.49948
  23737313.800   124740387.202 7  23737317.240    97200286.94046
 14  1  9  9 59  0.0000000  0  9G01G19G03G23G32G14G20G11G28
  20579188.800   108144358.369 8  20579192.940    84268346.91148
  22028346.560   115759689.950 8  22028347.160    90202333.71147
  24217120.060   127261713.392 6  24217126.140    99164946.28545
  23963678.900   125929977.855 7  23963681.340    98127264.73045
  20371842.420   107054748.410 8  20371844.100    83419291.12648
  23928226.140   125743650.462 6  23928229.020    97982064.46846
  20980960.260   110255697.953 8  20980962.060    85913546.26947
  20211525.700   106212263.604 8  20211526.580    82762793.06548
  23741234.280   124760988.970 7  23741237.740    97216340.20045
 14  1  9  9 59 30.0000000  0  9G01G19G03G23G32G14G20G11G28
  20574665.000   108120585.713 8  20574669.200    84249822.74148
  22044425.640   115844186.133 8  22044426.300    90268174.78247
  24239161.760   127377542.540 6  24239167.860    99255202.44345
  23943686.920   125824919.128 7  23943689.320    98045400.76745
  20377033.380   107082027.473 8  20377035.060    83440547.55247
  23942078.280   125816446.571 6  23942082.060    98038788.63745
  20971489.960   110205931.506 8  20971491.700    85874767.28347
  20215109.760   106231097.638 8  20215110.580    82777468.91148
  23745239.740   124782037.394 7  23745243.320    97232741.49845
 14  1  9 10  0  0.0000000  0  9G01G19G03G23G32G14G20G11G28
  20570187.720   108097057.030 8  20570191.900    84231488.66948
  22060568.260   115929015.842 8  22060568.960    90334275.74047
  24261210.180   127493406.808 6  24261216.300    99345485.95245
  23923707.980   125719928.948 7  23923710.460    97963590.23945
  20382299.340   107109700.374 8  20382301.020    83462110.86048
  23956003.320   125889624.643 6  23956007.800    98095810.45845
  20962084.880   110156507.701 8  20962086.540    85836255.29847
  20218773.100   106250348.189 8  20218773.840    82792469.30348
  23749330.000   124803530.978 6  23749333.560    97249489.65145
 14  1  9 10  0 30.0000000  0  9G01G19G03G23G32G14G20G11G28
  20565757.540   108073776.424 8  20565761.780    84213347.91148
  22076774.680   116014180.560 8  22076775.440    90400637.74947
  24283265.440   127609306.767 6  24283271.700    99435797.28945
  23903743.040   125615012.691 7  23903745.640    97881837.30246
  20387640.480   107137768.359 8  20387642.200    83483982.02447
  23970001.460   125963185.436 6  23970006.160    98153130.52846
  20952745.560   110107429.776 8  20952747.240    85798012.84247
  20222516.360   106270018.770 8  20222517.020    82807797.00248
  23753505.080   124825471.227 6  23753508.700    97266585.88345
 14  1  9 10  1  0.0000000  0 10G01G19G03G17G23G32G14G20G11G28
  20561373.280   108050736.804 8  20561377.540    84195394.92548
  22093042.980   116099670.124 8  22093043.740    90467252.88947
  24305325.580   127725232.303 6  24305331.900    99526128.52745
  24813488.420   130395763.099 6  24813488.460   101607090.66844
  23883791.140   125510164.827 7  23883793.900    97800137.67345
  20393054.940   107166221.544 8  20393056.700    83506153.34248
  23984070.840   126037119.019 6  23984075.240    98210741.09145
  20943470.560   110058689.766 8  20943472.260    85760033.69347
  20226337.980   106290101.355 8  20226338.600    82823445.74148
  23757763.280   124847848.508 6  23757766.960    97284022.64145
 14  1  9 10  1 30.0000000  0 10G01G19G03G17G23G32G14G20G11G28
  20557037.240   108027950.329 8  20557041.400    84177639.19148
  22109374.860   116185493.902 8  22109375.680    90534128.43647
  24327392.160   127841192.070 6  24327398.780    99616486.45045
  24794010.960   130293408.485 6
  23863854.900   125405399.339 7  23863857.840    97718502.22545
  20398544.480   107195069.476 8  20398546.360    83528632.24548
  23998212.800   126111434.309 6  23998216.480    98268649.07945
  20934262.000   110010298.869 8  20934263.740    85722326.56447
  20230240.240   106310607.702 8  20230240.860    82839424.68648
  23762106.500   124870672.443 6  23762110.120    97301807.48145
 14  1  9 10  2  0.0000000  0 10G01G19G03G17G23G32G14G20G11G28
  20552745.860   108005398.809 8  20552750.040    84160066.55248
  22125766.300   116271630.901 7  22125767.180    90601248.06147
  24349461.240   127957164.636 6  24349467.900    99706854.32045
  24774554.460   130191164.912 6  24774554.580   101447664.44942
  23843931.200   125300699.552 7  23843934.180    97636917.96645
  20404105.160   107224291.094 8  20404107.080    83551402.32448
  24012423.140   126186109.640 6  24012426.040    98326837.62044
  20925116.160   109962237.729 8  20925117.980    85684876.38247
  20234219.500   106331518.641 8  20234220.160    82855718.89648
  23766530.920   124893922.557 6  23766534.380    97319924.31546
 14  1  9 10  2 30.0000000  0 10G01G19G03G17G23G32G14G20G11G28
  20548504.560   107983110.367 8  20548508.760    84142698.89848
  22142222.080   116358106.144 8  22142223.000    90668631.25847
  24371537.640   128073174.965 7  24371544.120    99797251.62545
  24755124.720   130089062.292 6  24755125.740   101368103.99345
  23824025.520   125196094.923 7  23824028.680    97555407.87645
  20409741.860   107253911.955 8  20409743.740    83574483.50548
  24026706.640   126261170.115 6  24026709.280    98385326.29845
  20916038.380   109914533.904 8  20916040.120    85647704.62047
  20238280.940   106352861.729 8  20238281.660    82872349.84948
  23771041.160   124917623.810 6  23771044.520    97338392.76745
 14  1  9 10  3  0.0000000  0 10G01G19G03G17G23G32G14G20G11G28
  20544310.800   107961072.026 8  20544315.060    84125526.13848
  22158739.220   116444904.387 7  22158740.280    90736266.12847
  24393618.160   128189206.631 6  24393624.540    99887665.55245
  24735719.560   129987088.834 6  24735720.500   101288644.21042
  23804135.840   125091574.312 7  23804139.000    97473963.22945
  20415451.500   107283916.143 8  20415453.360    83597863.37248
  24041060.260   126336599.236 6  24041063.220    98444102.21845
  20907026.000   109867173.785 8  20907027.700    85610800.67447
  20242422.000   106374623.259 8  20242422.740    82889306.85848
  23775634.420   124941761.283 6  23775637.740    97357201.08345
 14  1  9 10  3 30.0000000  0 10G01G19G03G17G23G32G14G20G11G28
  20540164.800   107939284.451 8  20540169.020    84108548.77648
  22175317.380   116532023.106 7  22175318.540    90804150.72547
  24415702.040   128305256.896 6  24415708.540    99978093.93445
  24716339.380   129885247.061 6  24716340.440   101209286.99345
  23784262.580   124987139.810 7  23784265.700    97392585.69946
  20421233.700   107314301.646 8  20421235.540    83621540.36348
  24055483.780   126412394.675 6  24055487.140    98503163.56445
  20898078.940   109820156.657 8  20898080.580    85574163.98747
  20246642.680   106396803.037 8  20246643.360    82906589.78048
  23780310.280   124966332.762 6  23780313.560    97376347.58045
 14  1  9 10  4  0.0000000  0 10G01G19G03G17G23G32G14G20G11G28
  20536067.000   107917750.246 8  20536071.200    84091768.85048
  22191956.400   116619461.652 7  22191957.640    90872284.54047
  24437789.220   128421324.938 6  24437795.860   100068536.14745
  24696984.860   129783540.250 6  24696986.300   101130034.94944
  23764406.500   124882795.229 7  23764409.600    97311278.24646
  20427088.380   107345068.003 8  20427090.220    83645514.11948
  24069977.060   126488555.807 6  24069980.720    98562509.88645
  20889197.440   109773484.146 8  20889199.100    85537795.81647
  20250943.280   106419403.003 8  20250944.040    82924200.11848
  23785068.760   124991338.081 6  23785072.220    97395832.15645
 14  1  9 10  4 30.0000000  0 10G01G19G03G17G23G32G14G20G11G28
  20532017.300   107896468.666 8  20532021.420    84075185.76848
  22208655.680   116707216.679 7  22208657.000    90940664.96347
  24459879.220   128537406.861 6  24459885.920   100158989.20045
  24677656.460   129681969.658 6  24677658.460   101050889.03543
  23744567.720   124778541.566 7  23744570.940    97230041.64946
  20433014.920   107376211.912 8  20433016.740    83669782.07448
  24084539.140   126565078.346 6  24084542.980    98622137.82245
  20880381.280   109727154.715 8  20880382.820    85501694.96147
  20255323.560   106442421.580 8  20255324.380    82942136.65148
  23789909.140   125016773.885 6  23789912.420    97415652.15245
 14  1  9 10  5  0.0000000  0 10G01G19G03G17G23G32G14G20G11G28
  20528016.200   107875442.797 8  20528020.400    84058801.95248
  22225415.220   116795288.318 7  22225416.640    91009292.08047
  24481971.800   128653502.040 6  24481978.500   100249452.54244
  24658355.040   129580540.209 6  24658357.680   100971853.12345
  23724747.180   124674383.560 7  23724750.500    97148879.60046
  20439013.340   107407733.512 8  20439015.160    83694344.33148
  24099169.600   126641962.503 6  24099173.720    98682047.50645
  20871630.760   109681170.527 8  20871632.200    85465863.13047
  20259783.980   106465861.151 8  20259784.800    82960401.24048
  23794831.360   125042640.878 6  23794834.780    97435808.18145
 14  1  9 10  5 30.0000000  0 10G01G19G03G17G23G32G14G20G11G28
  20524063.840   107854673.209 8  20524068.140    84042617.84048
  22242234.600   116883674.249 7  22242236.080    91078164.11647
  24504066.540   128769608.367 6  24504073.180   100339924.56545
  24639080.860   129479253.446 6  24639083.920   100892928.35544
  23704945.200   124570323.187 7  23704948.540    97067793.65046
  20445083.220   107439630.810 8  20445085.040    83719199.32548
  24113868.120   126719205.281 6  24113872.340    98742236.66946
  20862945.840   109635531.059 8  20862947.220    85430299.90447
  20264324.480   106489721.566 8  20264325.300    82978993.75648
  23799835.120   125068936.508 6  23799838.700    97456298.17345
 14  1  9 10  6  0.0000000  0 10G01G19G03G17G23G32G14G20G11G28
  20520158.760   107834152.130 8  20520163.160    84026627.36648
  22259112.600   116972368.517 7  22259114.180    91147276.39947
  24526162.140   128885719.430 6  24526168.860   100430400.28745
  24619833.600   129378108.228 5  24619836.860   100814113.89345
  23685161.520   124466358.998 7  23685164.980    96986782.66946
  20451223.460   107471897.900 8  20451225.260    83744342.46548
  24128634.100   126796800.664 6  24128637.940    98802700.56545
  20854325.800   109590232.522 8  20854327.160    85395002.33047
  20268944.320   106513998.878 8  20268945.120    82997911.13948
  23804919.660   125095655.113 7  23804923.100    97477117.75545
 14  1  9 10  6 30.0000000  0 10G01G19G03G17G23G32G14G20G11G28
  20516303.940   107813894.991 8  20516308.400    84010842.56848
  22276049.860   117061373.991 7  22276051.520    91216631.18947
  24548259.140   129001837.807 6  24548266.100   100520881.68545
  24600614.460   129277111.397 5  24600618.320   100735415.13543
  23665397.640   124362498.726 7  23665401.140    96905852.65546
  20457434.600   107504537.803 8  20457436.460    83769776.10747
  24143467.780   126874750.926 6  24143471.100    98863441.00844
  20845771.660   109545280.061 8  20845773.000    85359974.42847
  20273644.480   106538698.286 8  20273645.280    83017157.42248
  23810085.440   125122800.248 6  23810088.840    97498269.74345
 14  1  9 10  7  0.0000000  0 10G01G19G03G17G23G32G14G20G11G28
  20512498.240   107793895.634 8  20512502.660    83995258.64848
  22293045.560   117150686.461 7  22293047.240    91286225.18047
  24570356.580   129117958.375 6  24570363.600   100611364.78745
  24581423.580   129176263.230 5  24581427.820   100656832.16845
  23645653.440   124258742.255 7  23645657.100    96825003.58046
  20463715.920   107537546.360 8  20463717.800    83795497.00047
  24158368.240   126953051.343 6  24158371.200    98924454.30445
  20837282.940   109500671.258 8  20837284.340    85325214.30147
  20278424.500   106563817.518 8  20278425.340    83036730.84648
  23815331.600   125150367.373 7  23815334.680    97519750.49945
 14  1  9 10  7 30.0000000  0 10G01G19G03G17G23G32G14G20G11G28
  20508741.980   107774155.953 8  20508746.300    83979877.06748
  22310099.480   117240304.690 7  22310101.140    91356057.43647
  24592454.160   129234079.972 6  24592461.240   100701848.65645
  24562261.640   129075567.760 5  24562266.140   100578368.19046
  23625929.560   124155092.884 7  23625933.380    96744237.96346
  20470067.180   107570922.404 8  20470069.080    83821504.25447
  24173335.180   127031700.708 6  24173337.800    98985739.50345
  20828859.700   109456406.762 8  20828861.160    85290722.47447
  20283284.580   106589357.640 8  20283285.440    83056632.23548
  23820657.920   125178355.752 7  23820660.880    97541559.53845
 14  1  9 10  8  0.0000000  0 10G01G19G03G17G23G32G14G20G11G28
  20505035.440   107754678.022 8  20505039.760    83964699.45948
  22327211.480   117330228.053 7  22327213.160    91426127.45347
  24614551.740   129350201.623 6  24614558.900   100792332.56645
  24543129.400   128975028.056 6  24543134.060   100500025.56945
  23606226.720   124051554.250 7  23606230.600    96663558.66146
  20476488.320   107604665.512 8  20476490.140    83847797.53047
  24188368.040   127110697.696 6  24188370.520    99047295.60245
  20820502.240   109412487.724 8  20820503.680    85256499.82747
  20288225.000   106615319.906 8  20288225.860    83076862.57348
  23826064.200   125206764.645 7  23826067.100    97563696.22945
 14  1  9 10  8 30.0000000  0 10G01G19G03G17G23G32G14G20G11G28
  20501378.640   107735461.364 8  20501382.940    83949725.43148
  22344380.800   117420453.003 7  22344382.520    91496432.47047
  24636648.520   129466319.243 6  24636656.000   100882813.31945
  24524027.120   128874645.443 6  24524031.820   100421805.35046
  23586545.140   123948127.382 7  23586548.980    96582966.47346
  20482978.640   107638772.211 8  20482980.380    83874374.11947
  24203465.900   127190038.568 6  24203468.700    99109119.67245
  20812210.260   109368912.584 8  20812211.620    85222545.14347
  20293245.500   106641702.665 8  20293246.340    83097420.56248
  23831550.040   125235590.701 7  23831552.400    97586157.94945
 14  1  9 10  9  0.0000000  0 10G01G19G03G17G23G32G14G20G11G28
  20497772.080   107716508.689 8  20497776.380    83934957.11248
  22361607.320   117510978.855 7  22361609.060    91566971.96247
  24658744.540   129582432.410 6  24658752.140   100973290.60045
  24504955.460   128774423.598 6  24504960.200   100343710.40446
  23566885.660   123844816.596 7  23566889.420    96502464.74346
  20489538.140   107673242.311 8  20489539.840    83901233.87447
  24218628.900   127269722.592 6  24218631.960    99171211.08445
  20803984.000   109325683.014 8  20803985.320    85188859.73647
  20298346.460   106668508.025 8  20298347.280    83118307.85448
  23837114.920   125264833.872 7  23837117.260    97608944.74845
 14  1  9 10  9 30.0000000  0 10G01G19G03G17G23G32G14G20G11G28
  20494215.180   107697817.072 8  20494219.500    83920392.21748
  22378890.060   117601800.186 7  22378891.820    91637741.69947
  24680838.480   129698535.007 6  24680846.260   101063759.64545
  24485914.340   128674361.730 6  24485918.900   100265740.09046
  23547247.860   123741620.453 7  23547251.620    96422052.36546
  20496165.760   107708070.261 8  20496167.520    83928372.48148
  24233856.000   127349743.442 6  24233859.340    99233564.96945
  20795822.780   109282795.351 8  20795824.040    85155440.75747
  20303527.120   106695732.325 8  20303527.940    83139521.59248
  23842758.000   125294488.321 7  23842760.240    97632051.99045
 14  1  9 10 10  0.0000000  0 10G01G19G03G17G23G32G14G20G11G28
  20490708.820   107679391.052 8  20490713.100    83906034.27948
  22396229.320   117692917.934 7  22396231.040    91708742.40447
  24702930.460   129814627.311 6  24702938.360   101154220.63545
  24466904.760   128574465.513 6  24466909.140   100187898.87046
  23527633.140   123638545.108 7  23527636.720    96341734.13646
  20502861.740   107743257.398 8  20502863.480    83955790.97247
  24249147.540   127430102.315 6  24249151.160    99296182.26645
  20787727.240   109240252.833 8  20787728.460    85122290.71047
  20308788.040   106723378.693 8  20308788.840    83161064.21148
  23848479.580   125324555.619 7  23848481.940    97655480.95045
 14  1  9 10 10 30.0000000  0 10G01G19G03G17G23G32G14G20G11G28
  20487252.740   107661229.329 8  20487256.980    83891882.28948
  22413624.280   117784328.091 7  22413625.880    91779970.96947
  24725019.820   129930706.018 6  24725027.960   101244671.03145
  24447926.820   128474735.534 6  24447931.080   100110187.19846
  23508041.560   123535590.981 7  23508044.900    96261510.33346
  20509625.340   107778799.904 8  20509627.060    83983486.38847
  24264502.640   127510794.708 6  24264506.520    99359059.42645
  20779696.840   109198053.172 8  20779698.220    85089407.83147
  20314128.980   106751445.375 8  20314129.800    83182934.34848
  23854278.920   125355031.921 6  23854281.320    97679228.61245
 14  1  9 10 11  0.0000000  0 10G01G19G03G17G23G32G14G20G11G28
  20483847.100   107643332.725 8  20483851.400    83877936.89848
  22431074.460   117876028.491 7  22431076.000    91851425.69847
  24747106.000   130046768.196 6  24747114.340   101335108.54445
  24428981.020   128375173.647 6  24428984.920   100032606.52546
  23488473.400   123432759.976 7  23488476.560    96181382.47646
  20516456.080   107814695.451 8  20516457.820    84011456.90348
  24279920.780   127591817.515 6  24279925.080    99422194.04346
  20771731.580   109156195.879 8  20771733.040    85056791.72847
  20319549.820   106779931.964 8  20319550.640    83205131.68848
  23860155.760   125385914.874 7  23860158.200    97703293.10745
 14  1  9 10 11 30.0000000  0 10G01G19G03G17G23G32G14G20G11G28
  20480492.240   107625702.851 8  20480496.600    83864199.34648
  22448579.600   117968017.782 7  22448581.140    91923105.51747
  24769188.780   130162812.543 6  24769197.540   101425532.13145
  24410067.960   128275783.533 6  24410071.520    99955159.67046
  23468929.260   123330055.263 7  23468932.260    96101353.03346
  20523353.820   107850942.996 8  20523355.620    84039701.71947
  24295401.800   127673169.576 6  24295406.380    99485585.21745
  20763831.580   109114681.645 8  20763833.160    85024442.94347
  20325050.660   106808839.262 8  20325051.540    83227656.83748
  23866109.760   125417203.360 6  23866112.360    97727673.64645
 14  1  9 10 12  0.0000000  0 10G01G19G03G17G23G32G14G20G11G28
  20477188.700   107608342.802 8  20477193.140    83850672.04348
  22466139.660   118060295.892 7  22466141.160    91995010.40547
  24791268.180   130278838.563 6  24791277.160   101515941.39345
  24391188.340   128176569.346 6  24391191.600    99877849.93146
  23449410.020   123227481.167 7  23449412.800    96021425.35446
  20530318.540   107887542.742 8  20530320.440    84068220.98548
  24310945.320   127754850.427 6  24310949.840    99549232.55744
  20755997.340   109073512.728 8  20755998.980    84992363.24347
  20330632.020   106838169.381 8  20330632.880    83250511.45748
  23872140.900   125448897.362 6  23872143.780    97752370.17845
 14  1  9 10 12 30.0000000  0 10G01G19G03G17G23G32G14G20G11G28
  20473936.580   107591252.688 8  20473941.020    83837355.09248
  22483754.160   118152859.966 7  22483755.640    92067138.11947
  24813343.540   130394842.724 6  24813352.560   101606333.61745
  24372342.420   128077533.055 6  24372345.460    99800678.81446
  23429915.920   123125039.748 7  23429918.720    95941601.06846
  20537349.740   107924491.887 8  20537351.720    84097012.52147
  24326550.520   127836856.703 6  24326554.860    99613133.39445
  20748228.640   109032688.007 8  20748230.280    84960551.75047
  20336293.660   106867921.374 8  20336294.500    83273694.79548
  23878248.800   125480994.141 6  23878252.000    97777380.52945
 14  1  9 10 13  0.0000000  0 10G01G19G03G17G23G32G14G20G11G28
  20470735.700   107574432.092 8  20470740.180    83824248.14648
  22501422.400   118245706.292 7  22501423.820    92139485.76347
  24835414.060   130510821.433 6  24835423.080   101696705.99045
  24353530.480   127978675.893 6  24353533.420    99723647.26946
  23410447.140   123022731.874 7  23410449.940    95861880.78646
  20544446.740   107961786.863 8  20544448.700    84126073.54948
  24342216.980   127919184.322 6  24342220.540    99677284.68344
  20740525.080   108992205.631 8  20740526.780    84929007.01547
  20342035.260   106898093.754 8  20342036.100    83297205.71448
  23884432.480   125513489.935 6  23884435.860    97802701.78345
 14  1  9 10 13 30.0000000  0 10G01G19G03G17G23G32G14G20G11G28
  20467586.220   107557881.988 8  20467590.820    83811351.98448
  22519144.020   118338833.075 7  22519145.400    92212051.95647
  24857479.240   130626772.963 6  24857488.620   101787057.15445
  24334753.060   127880000.034 6  24334755.820    99646757.02245
  23391004.300   122920560.374 7  23391007.140    95782266.77146
  20551609.280   107999426.341 8  20551611.240    84155403.02548
  24357944.320   128001831.371 6  24357947.120    99741684.90545
  20732886.800   108952066.252 8  20732888.560    84897729.54747
  20347856.940   106928687.028 8  20347857.820    83321044.59048
  23890691.980   125546383.323 7  23890695.540    97828332.86345
 14  1  9 10 14  0.0000000  0 10G01G19G03G17G23G32G14G20G11G28
  20464488.880   107541605.478 8  20464493.520    83798669.00748
  22536918.840   118432239.988 7  22536920.280    92284836.41247
  24879539.080   130742696.573 6  24879548.700   101877386.52145
  24316011.000   127781510.249 6  24316013.660    99570011.72746
  23371588.240   122818529.627 7  23371591.240    95702762.43146
  20558837.320   108037410.084 8  20558839.280    84185000.76547
  24373732.360   128084797.117 6  24373734.800    99806333.36445
  20725314.140   108912271.237 8  20725315.760    84866720.41647
  20353759.020   106959702.636 8  20353759.900    83345212.54748
  23897027.200   125579674.012 7  23897030.860    97854273.56245
 14  1  9 10 14 30.0000000  0 10G01G19G03G17G23G32G14G20G11G28
  20461442.400   107525596.094 8  20461447.020    83786194.18148
  22554746.120   118525922.798 7  22554747.740    92357835.86747
  24901592.920   130858587.946 6  24901602.780   101967690.81445
  24297304.440   127683206.967 6  24297307.220    99493411.79646
  23352199.040   122716639.676 7  23352202.060    95623367.77646
  20566130.100   108075734.114 8  20566132.040    84214863.67747
  24389580.060   128168077.019 6  24389582.660    99871226.65144
  20717806.600   108872818.388 8  20717808.080    84835977.90847
  20359741.140   106991138.639 8  20359742.020    83369708.08548
  23903437.320   125613358.082 7  23903440.820    97880520.77345
 14  1  9 10 15  0.0000000  0 10G01G19G03G17G23G32G14G20G11G28
  20458449.200   107509866.388 8  20458453.780    83773937.29648
  22572625.820   118619880.680 7  22572627.520    92431049.65847
  24923640.460   130974445.986 6  24923650.460   102057969.08145
  24278634.080   127585093.492 6  24278637.020    99416959.77246
  23332837.380   122614894.467 7  23332840.440    95544085.90846
  20573487.520   108114397.778 8  20573489.400    84244991.24547
  24405487.300   128251670.195 6  24405490.540    99936364.00345
  20710364.340   108833708.856 8  20710365.720    84805502.92147
  20365803.520   107022996.364 8  20365804.420    83394532.23548
  23909922.000   125647434.333 7  23909925.480    97907073.60245
 14  1  9 10 15 30.0000000  0 10G01G19G03G17G23G32G14G20G11G28
  20455508.500   107494412.845 8  20455513.000    83761895.59548
  22590557.580   118714111.932 7  22590559.320    92504476.46647
  24945681.220   131090268.587 6  24945691.280   102148219.72545
  24260000.600   127487173.595 6  24260003.800    99340658.60646
  23313503.840   122513296.770 7  23313507.000    95464918.96746
  20580909.220   108153399.511 8  20580911.120    84275382.24547
  24421453.660   128335574.191 6  24421457.500   100001743.56045
  20702987.460   108794942.777 8  20702988.780    84775295.55547
  20371946.140   107055275.887 8  20371947.100    83419685.05548
  23916481.040   125681901.226 6  23916484.400    97933930.82045
 14  1  9 10 16  0.0000000  0  9G01G19G17G23G32G14G20G11G28
  20452619.880   107479232.784 8  20452624.240    83750066.99648
  22608540.260   118808610.985 7  22608542.080    92578111.94547
  24241403.800   127389446.091 6  24241407.260    99264507.34846
  23294198.220   122411845.699 7  23294201.380    95385866.27446
  20588394.240   108192733.977 8  20588396.160    84306032.52147
  24437478.220   128419783.523 6  24437482.360   100067361.06745
  20695675.260   108756516.555 8  20695676.540    84745353.01947
  20378168.380   107087973.950 8  20378169.380    83445164.00148
  23923113.380   125716753.491 7  23923116.700    97961088.33545
 14  1  9 10 16 30.0000000  0  9G01G19G17G23G32G14G20G11G28
  20449784.440   107464332.704 8  20449788.820    83738456.57548
  22626574.520   118903381.178 7  22626576.320    92651958.70347
  24222845.140   127291918.879 6  24222848.640    99188512.16146
  23274922.000   122310549.433 7  23274925.260    95306934.21546
  20595943.300   108232404.778 8  20595945.240    84336944.88347
  24453561.540   128504300.794 6  24453565.560   100133218.53845
  20688428.800   108718435.730 8  20688430.080    84715679.63147
  20384471.260   107121095.847 8  20384472.320    83470973.20448
  23929819.660   125751994.116 6  23929822.940    97988548.42946
 14  1  9 10 17  0.0000000  0  9G01G19G17G23G32G14G20G11G28
  20447001.720   107449709.679 8  20447006.120    83727062.03148
  22644659.220   118998416.455 7  22644661.060    92726012.01447
  24204324.340   127194590.724 6  24204327.680    99112672.07746
  23255674.900   122209406.382 7  23255678.380    95228121.55146
  20603555.260   108272405.961 8  20603557.240    84368114.67747
  24469702.380   128589120.051 6  24469705.980   100199311.31245
  20681247.220   108680696.081 8  20681248.660    84686272.11247
  20390854.020   107154637.425 8  20390855.140    83497109.43548
  23936598.780   125787617.268 6  23936601.920    98016306.62746
 14  1  9 10 17 30.0000000  0  9G01G19G17G23G32G14G20G11G28
  20444272.280   107435366.423 8  20444276.640    83715885.49248
  22662794.260   119093716.416 7  22662796.080    92800271.56247
  24185842.140   127097465.477 6  24185845.240    99036990.11746
  23236457.680   122108420.868 7  23236461.480    95149431.65846
  20611230.100   108312737.501 8  20611232.120    84399541.89747
  24485900.580   128674240.375 6  24485903.520   100265638.73445
  20674130.840   108643299.178 8  20674132.380    84657131.67047
  20397317.040   107188600.493 8  20397318.160    83523574.10048
  23943450.320   125823622.291 6  23943453.460    98044362.37846
 14  1  9 10 18  0.0000000  0  9G01G19G17G23G32G14G20G11G28
  20441595.860   107421301.861 8  20441600.240    83704926.10848
  22680978.920   119189276.842 7  22680980.660    92874734.08247
  24167398.680   127000544.173 6  24167401.480    98961467.07646
  23217270.580   122007592.954 7  23217274.540    95070864.58246
  20618967.120   108353395.364 8  20618969.040    84431223.37947
  24502155.160   128759657.214 6  24502157.520   100332197.25344
  20667079.320   108606243.054 8  20667080.880    84628256.78447
  20403859.860   107222982.814 8  20403860.940    83550365.45148
  23950373.760   125860005.308 6  23950377.060    98072712.67745
 14  1  9 10 18 30.0000000  0  9G01G19G17G23G32G14G20G11G28
  20438973.320   107407520.581 8  20438977.680    83694187.46848
  22699213.400   119285098.825 7  22699215.160    92949400.39447
  24148995.160   126903832.673 7  24148997.700    98886107.51346
  23198114.740   121906928.979 7  23198118.860    94992425.24646
  20626766.520   108394381.091 8  20626768.300    84463160.33547
  24518466.020   128845371.740 6  24518468.580   100398987.72945
  20660093.140   108569530.682 8  20660094.720    84599649.78447
  20410483.180   107257788.133 8  20410484.220    83577486.41148
  23957369.340   125896767.686 6  23957372.540    98101358.60245
 14  1  9 10 19  0.0000000  0  9G01G19G17G23G32G14G20G11G28
  20436404.980   107394023.574 8  20436409.280    83683670.33448
  22717497.240   119381180.551 7  22717499.120    93024269.11247
  24130631.980   126807333.584 6  24130634.420    98810913.47146
  23178990.480   121806431.255 7  23178994.720    94914115.48346
  20634627.920   108435692.951 8  20634629.580    84495351.42147
  24534832.880   128931381.447 6  24534835.980   100466008.32944
  20653172.280   108533161.651 8  20653173.880    84571310.34548
  20417186.840   107293015.752 8  20417187.860    83604936.44348
  23964436.720   125933907.418 6  23964440.000    98130298.56945
 14  1  9 10 19 30.0000000  0  9G01G19G17G23G32G14G20G11G28
  20433890.020   107380807.265 8  20433894.360    83673371.92448
  22735829.140   119477515.238 7  22735831.100    93099334.95147
  24112308.780   126711044.805 6  24112311.220    98735883.30546
  23159897.620   121706097.827 7  23159901.720    94835933.71446
  20642550.040   108477324.335 8  20642551.680    84527791.49047
  24551254.720   129017679.379 6  24551258.360   100533253.45545
  20646315.900   108497131.465 8  20646317.580    84543234.94947
  20423970.020   107328661.312 8  20423971.060    83632712.14648
  23971574.640   125971417.383 6  23971577.940    98159526.99045
 14  1  9 10 20  0.0000000  0  9G01G19G17G23G32G14G20G11G28
  20431428.820   107367873.598 8  20431433.180    83663293.75448
  22754208.980   119574101.671 7  22754211.000    93174596.94646
  24094026.280   126614970.000 6  24094028.800    98661019.85146
  23140836.740   121605931.993 7  23140840.640    94757882.57446
  20650532.780   108519274.290 8  20650534.480    84560479.78347
  24567731.240   129104263.672 6  24567735.100   100600721.81045
  20639524.200   108461441.061 8  20639525.880    84515424.32948
  20430832.880   107364725.346 8  20430833.820    83660813.92748
  23978782.680   126009296.591 6  23978786.320    98189043.17645
 14  1  9 10 20 30.0000000  0  9G01G19G17G23G32G14G20G11G28
  20429021.900   107355225.156 8  20429026.180    83653437.83548
  22772636.640   119670939.278 7  22772638.800    93250054.64847
  24075785.340   126519113.602 7  24075787.920    98586326.58745
  23121808.540   121505937.796 7  23121812.100    94679965.16946
  20658576.100   108561542.684 8  20658577.900    84593416.20847
  24584262.260   129191133.717 6  24584266.240   100668412.83745
  20632797.420   108426091.733 8  20632799.060    84487879.47848
  20437775.680   107401209.612 8  20437776.560    83689243.17348
  23986060.940   126047544.226 6  23986064.780    98218846.41845
 14  1  9 10 21  0.0000000  0  9G01G19G17G23G32G14G20G11G28
  20426669.600   107342863.873 8  20426673.820    83643805.67348
  22791111.880   119768026.637 7  22791114.120    93325706.97847
  24057586.700   126423478.911 7  24057589.080    98511806.09646
  23102813.760   121406118.923 7  23102816.880    94602184.36646
  20666679.800   108604128.370 8  20666681.760    84626599.85947
  24600847.340   129278287.994 6  24600851.160   100736325.28544
  20626135.680   108391084.069 8  20626137.280    84460600.86247
  20444798.520   107438114.659 8  20444799.400    83718000.29948
  23993409.040   126086158.684 6  23993412.940    98248935.49945
 14  1  9 10 21 30.0000000  0  9G01G19G17G23G32G14G20G11G28
  20424372.120   107330790.457 8  20424376.300    83634397.81748
  22809634.160   119865361.105 7  22809636.420    93401551.86447
  24039430.560   126328067.920 7  24039432.720    98437459.90146
  23083852.580   121306477.039 7  23083855.360    94524541.48546
  20674843.500   108647028.903 8  20674845.480    84660028.84647
  24617485.840   129365723.284 6  24617489.700   100804456.68845
  20619538.760   108356417.356 8  20619540.340    84433587.93248
  20451901.340   107475439.983 8  20451902.300    83747084.92248
  24000826.600   126125137.896 6  24000830.460    98279308.82145
 14  1  9 10 22  0.0000000  0  9G01G19G17G23G32G14G20G11G28
  20422128.360   107318999.627 8  20422132.540    83625210.15048
  22828202.920   119962939.804 7  22828205.240    93477587.05547
  24021317.200   126232882.356 7  24021319.300    98363289.37546
  23064925.320   121207013.774 7  23064927.800    94447037.75546
  20683066.520   108690241.443 8  20683068.500    84693700.93947
  24634177.100   129453436.534 6  24634180.860   100872804.69445
  20613006.440   108322090.414 8  20613008.020    84406839.75947
  20459083.860   107513184.262 8  20459084.860    83776496.00848
  24008312.980   126164478.537 6  24008316.960    98309963.78845
 14  1  9 10 22 30.0000000  0  9G01G19G17G23G32G14G20G11G28
  20419941.080   107307505.860 8  20419945.420    83616253.96748
  22846818.340   120060763.632 7  22846820.660    93553813.24247
  24003247.860   126137928.135 7  24003250.000    98289299.10246
  23046033.080   121107734.848 7  23046035.320    94369677.66346
  20691349.220   108733767.446 8  20691351.160    84727617.28947
  24650921.100   129541427.997 6  24650924.940   100941369.34245
  20606539.380   108288106.228 8  20606540.980    84380358.65948
  20466346.780   107551351.030 8  20466347.800    83806236.31048
  24015868.240   126204181.510 6  24015872.280    98340901.03746
 14  1  9 10 23  0.0000000  0  9G01G19G17G23G32G14G20G11G28
  20417808.860   107296300.887 8  20417813.260    83607522.80548
  22865479.200   120158826.172 7  22865481.460    93630225.44747
  23985222.360   126043203.661 7  23985224.540    98215487.86746
  23027175.560   121008638.605 7  23027177.760    94292459.90646
  20699690.440   108777600.892 8  20699692.380    84761773.20047
  24667716.920   129629691.388 6  24667720.800   101010145.90545
  20600136.820   108254460.637 8  20600138.420    84354141.39647
  20473689.120   107589935.280 8  20473690.200    83836301.92448
  24023491.280   126244240.464 6  24023495.400    98372115.69545
 14  1  9 10 23 30.0000000  0  9G01G19G17G23G32G14G20G11G28
  20415732.000   107285386.856 8  20415736.400    83599018.35348
  22884185.320   120257126.338 7  22884187.460    93706822.81546
  23967241.400   125948712.590 7  23967243.440    98141858.47945
  23008353.460   120909728.475 7  23008355.680    94215387.15746
  20708090.000   108821740.928 8  20708092.020    84796168.00547
  24684564.260   129718225.257 6  24684568.140   101079133.20646
  20593798.800   108221154.425 8  20593800.360    84328188.56048
  20481111.200   107628938.613 8  20481112.320    83866694.10548
  24031181.940   126284654.424 7  24031186.160    98403606.96245
 14  1  9 10 24  0.0000000  0  9G01G19G17G23G32G14G20G11G28
  20413710.660   107274764.601 8  20413715.100    83590741.26648
  22902936.220   120355661.876 7  22902938.260    93783603.58647
  23949305.260   125854457.433 7  23949307.240    98068412.91046
  22989567.100   120811006.653 7  22989569.340    94138461.13846
  20716547.500   108866185.296 8  20716549.600    84830799.94747
  24701462.800   129807026.940 6  24701466.540   101148329.14345
  20587525.200   108188186.576 8  20587526.720    84302499.38748
  20488612.800   107668359.611 8  20488613.940    83897411.73548
  24038939.680   126325420.310 7  24038943.940    98435372.47245
 14  1  9 10 24 30.0000000  0  9G01G19G17G23G32G14G20G11G28
  20411745.060   107264435.196 8  20411749.540    83582692.37148
  22921731.440   120454430.657 7  22921733.500    93860566.10647
  23931414.320   125760441.191 7  23931416.620    97995153.54646
  22970817.200   120712476.315 7  22970819.580    94061684.31046
  20725062.660   108910932.467 8  20725064.760    84865667.83547
  24718412.000   129896094.263 6  24718415.840   101217732.08245
  20581316.120   108155557.759 8  20581317.640    84277074.38448
  20496194.100   107708199.288 8  20496195.240    83928455.61048
  24046764.060   126366536.464 7  24046768.120    98467410.89345
 14  1  9 10 25  0.0000000  0  9G01G19G17G23G32G14G20G11G28
  20409835.660   107254401.362 8  20409840.220    83574873.78548
  22940570.840   120553432.015 7  22940573.020    93937709.83946
  23913569.560   125666667.445 7  23913572.120    97922083.15246
  22952104.440   120614140.864 7  22952106.960    93985059.33746
  20733635.400   108955982.125 8  20733637.440    84900771.43347
  24735411.520   129985426.033 6  24735415.420   101287341.07745
  20575171.780   108123269.029 8  20575173.240    84251914.35748
  20503855.140   107748458.125 8  20503856.300    83959826.11448
  24054654.860   126408001.915 6  24054658.860    98499721.48245
 14  1  9 10 25 30.0000000  0  9G01G19G17G23G32G14G20G11G28
  20407982.360   107244662.150 8  20407986.900    83567284.78048
  22959453.660   120652661.593 7  22959455.940    94015031.42147
  23895771.260   125573137.139 7  23895773.960    97849202.42746
  22933428.940   120516000.983 7  22933431.580    93908586.75046
  20742264.940   109001330.286 8  20742266.840    84936107.62147
  24752460.580   130075017.837 6  24752464.320   101357152.69645
  20569091.640   108091318.046 8  20569093.140    84227017.50948
  20511595.480   107789133.860 8  20511596.640    83991521.47247
  24062611.100   126449812.157 6  24062615.100    98532300.77145
 14  1  9 10 26  0.0000000  0  9G01G19G17G23G32G14G20G11G28
  20406185.220   107235218.591 8  20406189.800    83559926.15548
  22978379.540   120752117.675 7  22978382.000    94092529.48647
  23878019.940   125479853.357 7  23878022.620    97776513.79046
  22914791.140   120418059.403 7  22914794.000    93832268.68446
  20750950.940   109046975.301 8  20750952.780    84971675.12447
  24769558.700   130164867.861 6  24769562.120   101427165.57044
  20563075.780   108059704.798 8  20563077.280    84202383.83048
  20519415.200   107830226.848 8  20519416.380    84023541.96148
  24070632.740   126491965.697 6  24070636.740    98565147.55445
 14  1  9 10 26 30.0000000  0  9G01G19G17G23G32G14G20G11G28
  20404444.980   107226073.578 8  20404449.580    83552800.15148
  22997348.400   120851799.494 7  22997351.040    94170203.44746
  23860316.200   125386819.793 7  23860318.880    97704020.14346
  22896191.960   120320320.541 7  22896194.980    93756108.56746
  20759693.380   109092917.096 8  20759695.220    85007473.88247
  24786705.720   130254975.105 6  24786708.980   101497378.85644
  20557124.520   108028430.663 8  20557126.020    84178014.39148
  20527314.540   107871738.322 8  20527315.760    84055888.55547
  24078719.640   126534461.524 7  24078723.580    98598261.04745
 14  1  9 10 27  0.0000000  0  9G01G19G17G23G32G14G20G11G28
  20402761.160   107217225.005 8  20402765.720    83545905.14048
  23016359.260   120951701.649 7  23016361.940    94248049.11246
  23842660.200   125294036.906 7  23842662.920    97631721.82346
  22877631.280   120222783.635 7  22877634.360    93680105.81046
  20768491.360   109139150.670 8  20768493.220    85043500.01147
  24803900.520   130345333.887 6  24803903.740   101567788.19645
  20551237.240   107997492.693 8  20551238.720    84153906.88748
  20535292.880   107913665.013 8  20535294.160    84088558.68948
  24086870.860   126577294.094 7  24086874.660    98631636.92145
 14  1  9 10 27 30.0000000  0  9G01G19G17G23G32G14G20G11G28
  20401134.680   107208677.674 8  20401139.140    83539244.86648
  23035412.400   121051826.152 7  23035415.160    94326068.01547
  23825053.060   125201510.542 7  23825055.820    97559623.40146
  22859110.080   120125454.637 7  22859113.340    93604265.07746
  20777345.160   109185677.976 8  20777347.140    85079755.00847
  24821143.260   130435945.484 6  24821146.980   101638394.54945
  20545414.560   107966894.043 8  20545416.000    84130063.78648
  20543351.020   107956010.683 8  20543352.320    84121555.30047
  24095086.400   126620464.972 6  24095089.780    98665276.42845
 14  1  9 10 28  0.0000000  0  8G01G19G17G23G32G20G11G28
  20399565.760   107200432.892 8  20399570.200    83532820.34348
  23054507.480   121152170.666 7  23054510.200    94404258.36546
  23807495.200   125109243.462 7  23807498.020    97487727.04746
  22840629.000   120028336.390 7  22840632.380    93528588.56846
  20786254.520   109232497.199 8  20786256.640    85116237.49547
  20539656.400   107936634.476 8  20539657.800    84106484.89548
  20551488.780   107998774.740 8  20551490.060    84154877.93848
  24103365.880   126663971.889 7  24103368.900    98699177.76645
 14  1  9 10 28 30.0000000  0  8G01G19G17G23G32G20G11G28
  20398053.080   107192483.284 8  20398057.460    83526625.82448
  23073643.420   121252729.740 7  23073646.100    94482615.88047
  23789986.560   125017235.330 7  23789989.480    97416032.46646
  22822187.840   119931428.176 7  22822191.220    93453075.72546
  20795218.520   109279603.337 8  20795220.740    85152943.55047
  20533962.140   107906710.549 8  20533963.420    84083167.53948
  20559705.480   108041953.643 8  20559706.700    84188523.82848
  24111708.080   126707809.282 6  24111710.900    98733336.62246
 14  1  9 10 29  0.0000000  0  8G01G19G17G23G32G20G11G28
  20396598.680   107184839.919 8  20396602.940    83520669.94048
  23092819.800   121353501.101 7  23092822.400    94561138.84146
  23772527.660   124925488.761 7  23772530.580    97344541.70146
  22803787.120   119834732.554 7  22803790.540    93377728.53246
  20804236.780   109326994.540 8  20804239.020    85189871.74347
  20528331.640   107877122.132 8  20528332.880    84060111.62948
  20568001.080   108085547.276 8  20568002.300    84222492.88747
  24120112.600   126751974.831 6  24120115.420    98767751.20245
 14  1  9 10 29 30.0000000  0  8G01G19G17G23G32G20G11G28
  20395201.640   107177498.106 8  20395205.900    83514949.03748
  23112036.080   121454482.246 7  23112038.580    94639825.23946
  23755118.880   124834005.801 7  23755121.860    97273256.33746
  22785427.260   119738251.225 7  22785430.640    93302548.33746
  20813308.880   109374668.293 8  20813311.020    85227020.10847
  20522764.760   107847868.304 8  20522766.060    84037316.44448
  20576375.440   108129554.687 8  20576376.660    84256784.37048
  24128578.900   126796465.467 6  24128581.620    98802419.03545
 14  1  9 10 30  0.0000000  0  8G01G19G17G23G32G20G11G28
  20393862.740   107170461.853 8  20393866.980    83509466.22648
  23131292.280   121555673.086 7  23131294.780    94718675.05146
  23737761.220   124742791.365 7  23737764.240    97202180.20246
  22767109.240   119641989.404 7  22767112.520    93227539.20846
  20822434.940   109422625.470 8  20822437.040    85264389.32747
  20517261.980   107818951.262 8  20517263.340    84014783.69148
  20584828.940   108173978.064 8  20584830.140    84291399.97647
  24137107.040   126841281.337 6  24137110.040    98837340.38245
 14  1  9 10 30 30.0000000  0  8G01G19G17G23G32G20G11G28
  20392581.820   107163730.589 8  20392586.040    83504221.07548
  23150587.740   121657070.404 7  23150590.260    94797685.73946
  23720454.940   124651847.325 7  23720458.020    97131314.77746
  22748833.320   119545948.239 7  22748836.340    93152702.01646
  20831614.320   109470863.007 8  20831616.440    85301977.00947
  20511822.940   107790369.311 8  20511824.360    83992512.07548
  20593361.360   108218815.876 8  20593362.520    84326338.52947
  24145696.500   126886419.088 6  24145699.800    98872512.50245
 14  1  9 10 31  0.0000000  0  8G01G19G17G23G32G20G11G28
  20391359.140   107157305.388 8  20391363.400    83499214.40948
  23169921.980   121758671.672 7  23169924.620    94876855.34246
  23703200.680   124561176.252 7  23703203.700    97060662.06346
  22730599.900   119450129.722 7  22730602.520    93078038.33546
  20840846.640   109519378.635 8  20840848.700    85339781.40747
  20506447.700   107762122.649 8  20506449.160    83970501.71848
  20601972.480   108264067.360 8  20601973.640    84361599.41547
  24154346.840   126931875.938 6  24154350.240    98907933.26545
 14  1  9 10 31 30.0000000  0  8G01G19G17G23G32G20G11G28
  20390194.860   107151187.184 8  20390199.280    83494446.96348
  23189294.660   121860474.894 7  23189297.420    94956182.30846
  23685998.940   124470780.456 7  23686001.780    96990223.81546
  22712409.420   119354536.630 7  22712411.640    93003550.31646
  20850131.520   109568170.738 8  20850133.460    85377801.24847
  20501136.200   107734210.723 8  20501137.680    83948752.21248
  20610662.300   108309732.462 8  20610663.440    84397182.61047
  24163057.400   126977649.420 6  24163060.860    98943600.78245
 14  1  9 10 32  0.0000000  0  8G01G19G17G23G32G20G11G28
  20389089.380   107145377.800 8  20389093.840    83489920.16248
  23208705.440   121962478.632 7  23208708.280    95035665.52446
  23668850.260   124380663.503 7  23668853.040    96920002.85646
  22694262.460   119259172.182 8  22694264.360    92929240.47646
  20859468.840   109617238.305 8  20859470.620    85416035.75047
  20495888.520   107706634.070 8  20495889.980    83927263.94448
  20619430.920   108355811.679 8  20619432.040    84433088.48747
  24171828.000   127023738.133 6  24171831.580    98979513.91846
 14  1  9 10 32 30.0000000  0  8G01G19G17G23G32G20G11G28
  20388043.020   107139879.081 8  20388047.400    83485635.43948
  23228154.040   122064681.092 7  23228156.960    95115303.59146
  23651755.220   124290828.800 7  23651758.020    96850001.86546
  22676159.500   119164039.760 8  22676161.180    92855111.45946
  20868858.300   109666580.303 8  20868860.020    85454484.10147
  20490704.680   107679392.742 8  20490706.060    83906036.98848
  20628278.320   108402305.275 8  20628279.440    84469317.25247
  24180658.020   127070140.013 6  24180661.760    99015671.04645
 14  1  9 10 33  0.0000000  0  8G01G19G17G23G32G20G11G28
  20387055.320   107134688.591 8  20387059.680    83481590.89148
  23247639.480   122167076.762 7  23247642.420    95195092.20646
  23634713.800   124201275.612 7  23634716.520    96780220.22146
  22658100.200   119069137.869 7  22658101.920    92781162.08146
  20878298.860   109716191.237 8  20878300.580    85493142.02247
  20485583.960   107652482.964 8  20485585.160    83885068.37548
  20637203.780   108449209.162 8  20637204.960    84505865.73447
  24189546.480   127116849.030 6  24189550.540    99052067.52945
 14  1  9 10 33 30.0000000  0  8G01G19G17G23G32G20G11G28
  20386127.180   107129811.056 8  20386131.480    83477790.20848
  23267161.980   122269667.030 7  23267164.880    95275032.45646
  23617727.100   124112009.949 7  23617729.720    96710662.62746
  22640085.940   118974472.977 7  22640087.800    92707397.37546
  20887790.900   109766073.051 8  20887792.720    85532011.02547
  20480527.080   107625908.517 8  20480528.180    83864361.05948
  20646208.000   108496526.847 8  20646209.220    84542736.65347
  24198493.540   127163866.910 6  24198498.020    99088704.67444
 14  1  9 10 34  0.0000000  0  8G01G19G17G23G32G20G11G28
  20385258.160   107125244.338 8  20385262.380    83474231.72548
  23286720.440   122372446.435 7  23286723.400    95355120.07246
  23600795.240   124023031.890 7  23600797.600    96641329.10846
  22622116.320   118880044.175 7  22622118.580    92633816.65846
  20897333.540   109816220.756 8  20897335.440    85571087.22047
  20475533.220   107599665.656 8  20475534.320    83843912.12148
  20655290.220   108544254.495 8  20655291.540    84579927.02447
  24207498.080   127211187.532 6  24207503.020    99125577.75845
 14  1  9 10 34 30.0000000  0  8G01G19G17G23G32G20G11G28
  20384448.560   107120989.895 8  20384452.780    83470916.58148
  23306314.500   122475413.369 7  23306317.640    95435353.80946
  23583918.660   123934343.949 7  23583920.700    96572221.63846
  22604192.120   118785854.688 7  22604194.840    92560422.43546
  20906926.560   109866633.084 8  20906928.540    85610369.61947
  20470602.440   107573754.613 8  20470603.620    83823721.74148
  20664450.600   108592392.680 8  20664451.920    84617437.29047
  24216560.020   127258809.262 6  24216565.200    99162685.45845
 14  1  9 10 35  0.0000000  0  8G01G19G17G23G32G20G11G28
  20383698.620   107117048.627 8  20383702.840    83467845.46548
  23325943.920   122578565.722 7  23325947.180    95515732.01646
  23567097.920   123845949.494 7  23567099.720    96503342.85846
  22586313.960   118691906.798 7  22586317.080    92487216.45146
  20916569.560   109917308.303 8  20916571.620    85649856.86247
  20465734.680   107548175.047 8  20465735.980    83803789.64148
  20673688.880   108640940.174 8  20673690.200    84655266.50447
  24225678.920   127306729.652 6  24225684.220    99200025.85445
 14  1  9 10 35 30.0000000  0  8G01G19G17G23G32G20G11G28
  20383008.980   107113424.809 8  20383013.340    83465021.72748
  23345608.720   122681904.097 7  23345612.020    95596255.17346
  23550333.940   123757854.093 7  23550335.760    96434697.12946
  22568482.960   118598206.113 7  22568486.240    92414203.09846
  20926262.880   109968247.610 8  20926265.000    85689549.89047
  20460930.600   107522929.878 8  20460931.960    83784118.11348
  20683005.700   108689900.310 8  20683006.980    84693417.26347
  24234854.780   127354949.359 6  24234860.220    99237599.50145
 14  1  9 10 36  0.0000000  0  8G01G19G17G23G32G20G11G28
  20382379.200   107110115.716 8  20382383.640    83462443.22948
  23365307.780   122785422.539 7  23365310.960    95676918.63846
  23533626.640   123670056.536 7  23533628.420    96366283.47146
  22550698.880   118504750.969 7  22550702.100    92341381.07846
  20936005.480   110019445.314 8  20936007.620    85729444.25847
  20456189.320   107498014.798 8  20456190.800    83764703.79448
  20692400.240   108739268.622 8  20692401.480    84731886.07447
  24244086.340   127403461.715 6  24244092.000    99275401.19945
 14  1  9 10 36 30.0000000  0  8G01G19G17G23G32G20G11G28
  20381810.020   107107125.060 8  20381814.580    83460112.87648
  23385041.200   122889121.126 7  23385044.300    95757722.47446
  23516976.780   123582561.268 7  23516978.660    96298105.39546
  22532962.700   118411546.433 7  22532965.680    92268754.34546
  20945797.480   110070902.177 8  20945799.540    85769540.56647
  20451511.260   107473431.924 8  20451512.840    83745548.32848
  20701872.800   108789047.098 8  20701874.000    84770674.49947
  24253373.680   127452267.074 6  24253379.660    99313431.20345
 14  1  9 10 37  0.0000000  0  8G01G19G17G23G32G20G11G28
  20381300.640   107104448.213 8  20381305.220    83458027.05548
  23404808.520   122992997.567 7  23404811.520    95838664.90446
  23500384.960   123495371.821 7  23500387.120    96230165.61646
  22515274.680   118318594.504 8  22515277.260    92196324.44246
  20955638.380   110122616.238 8  20955640.400    85809837.28247
  20446896.360   107449180.637 8  20446897.920    83726651.24448
  20711423.260   108839234.931 8  20711424.440    84809781.90747
  24262716.120   127501362.306 6  24262722.400    99351687.10745
 14  1  9 10 37 30.0000000  0  8G01G19G17G23G32G20G11G28
  20380852.860   107102095.518 8  20380857.520    83456193.83148
  23424609.080   123097048.801 7  23424611.940    95919743.52146
  23483851.740   123408489.779 7  23483854.080    96162465.34646
  22497635.080   118225897.194 8  22497637.300    92124092.96346
  20965527.700   110174584.897 8  20965529.680    85850332.37147
  20442344.480   107425260.088 8  20442345.960    83708011.87248
  20721051.400   108889831.250 8  20721052.560    84849207.61747
  24272112.880   127550744.048 6  24272119.460    99390166.26345
 14  1  9 10 38  0.0000000  0  8G01G19G17G23G32G20G11G28
  20380465.780   107100061.417 8  20380470.460    83454608.86248
  23444442.100   123201270.837 7  23444445.060    96000955.22946
  23467377.160   123321915.975 7  23467379.720    96095005.28246
  22480044.000   118133454.843 8  22480045.780    92052060.12846
  20975464.780   110226804.633 8  20975466.720    85891023.10447
  20437855.040   107401667.990 8  20437856.500    83689628.43748
  20730756.720   108940833.319 8  20730757.940    84888949.49547
  24281563.560   127600408.345 6  24281570.340    99428865.54845
 14  1  9 10 38 30.0000000  0  9G01G19G31G17G23G32G20G11G28
  20380141.420   107098356.815 8  20380146.020    83453280.64848
  23464309.040   123305671.326 7  23464312.080    96082305.97546
  24491443.700   128703406.473 6  24491446.760   100288378.14446
  23450963.640   123235663.265 7  23450966.480    96027795.42547
  22462503.740   118041280.110 8  22462505.160    91980235.83946
  20985451.260   110279283.782 8  20985453.120    85931915.96047
  20433430.020   107378414.256 8  20433431.460    83671508.66448
  20740541.120   108992250.888 8  20740542.360    84929015.13947
  24291069.440   127650362.712 6  24291076.380    99467790.88345
 14  1  9 10 39  0.0000000  0  9G01G19G31G17G23G32G20G11G28
  20379874.460   107096953.841 8  20379878.920    83452187.47548
  23484204.040   123410219.122 7  23484207.220    96163771.51346
  24482975.000   128658904.684 6  24482978.520   100253701.61546
  23434606.140   123149704.819 7  23434609.180    95960814.83846
  22445009.320   117949346.402 8  22445010.500    91908599.33646
  20995481.240   110331991.633 8  20995483.000    85972987.01647
  20429063.800   107355469.499 8  20429065.160    83653629.66048
  20750398.980   109044054.484 8  20750400.220    84969381.57947
  24300624.780   127700575.682 6  24300631.740    99506917.72845
 14  1  9 10 39 30.0000000  0  9G01G19G31G17G23G32G20G11G28
  20379671.400   107095886.704 8  20379675.720    83451355.99348
  23504132.960   123514945.076 7  23504136.360    96245375.87346
  24474577.060   128614774.522 6  24474581.080   100219314.62445
  23418311.580   123064076.754 7  23418314.720    95894091.71646
  22427567.380   117857689.030 8  22427568.560    91837178.17146
  21005560.600   110384959.348 8  21005562.340    86014260.55847
  20424762.460   107332865.921 8  20424763.780    83636016.50048
  20760336.420   109096276.333 8  20760337.700    85010073.93147
  24310235.120   127751077.403 6  24310242.100    99546269.58345
 14  1  9 10 40  0.0000000  0  9G01G19G31G17G23G32G20G11G28
  20379529.640   107095141.989 8  20379533.940    83450775.74948
  23524092.640   123619832.612 7  23524096.120    96327106.13846
  24466247.740   128571004.391 6  24466252.220   100185208.21645
  23402077.740   122978767.677 7  23402081.000    95827617.16446
  22410175.620   117766296.138 8  22410176.940    91765963.07846
  21015686.280   110438170.909 8  21015688.180    86055724.09847
  20420523.340   107310589.350 8  20420524.640    83618658.16048
  20770350.740   109148902.089 8  20770352.100    85051081.02047
  24319897.280   127801851.193 6  24319904.080    99585833.44045
 14  1  9 10 40 30.0000000  0  9G01G19G31G17G23G32G20G11G28
  20379449.520   107094721.358 8  20379453.800    83450448.03948
  23544082.780   123724880.135 7  23544086.300    96408961.09346
  24457987.700   128527597.856 6  24457992.340   100151385.07145
  23385905.280   122893780.598 7  23385908.360    95761393.50646
  22392834.800   117675171.143 7  22392836.400    91694956.73647
  21025858.240   110491625.425 8  21025860.240    86097376.95347
  20416346.540   107288640.291 8  20416347.900    83601555.02848
  20780441.880   109201931.577 8  20780443.280    85092402.69947
  24329611.020   127852895.355 6  24329617.620    99625607.92945
 14  1  9 10 41  0.0000000  0  9G01G19G31G17G23G32G20G11G28
  20379431.440   107094626.667 8  20379435.680    83450374.31248
  23564102.860   123830086.203 7  23564106.660    96490939.55446
  24449797.580   128484558.235 6  24449802.120   100117847.82946
  23369794.780   122809118.944 7  23369797.680    95695423.42646
  22375545.500   117584316.908 8  22375547.440    91624161.37246
  21036076.340   110545321.918 8  21036078.340    86139218.36647
  20412232.120   107267018.931 8  20412233.540    83584707.26248
  20790610.000   109255365.440 8  20790611.420    85134039.47147
  24339375.720   127904207.986 6  24339382.240    99665591.64445
 14  1  9 10 41 30.0000000  0  9G01G19G31G17G23G32G20G11G28
  20379475.900   107094860.453 8  20379480.120    83450556.52848
  23584152.940   123935450.092 7  23584157.040    96573041.00146
  24441677.880   128441889.192 6  24441682.460   100084599.31645
  23353747.020   122724786.784 7  23353749.680    95629710.07646
  22358308.520   117493737.118 8  22358310.700    91553579.85647
  21046340.440   110599259.957 8  21046342.380    86181247.99147
  20408180.200   107245726.100 8  20408181.640    83568115.49348
  20800855.220   109309204.232 8  20800856.580    85175991.77347
  24349191.100   127955787.780 6  24349197.620    99705783.49545
 14  1  9 10 42  0.0000000  0  9G01G19G31G17G23G32G20G11G28
  20379582.540   107095421.158 8  20379586.780    83450993.48348
  23604232.220   124040967.053 7  23604236.600    96655261.71346
  24433628.420   128399591.133 6  24433633.480   100051639.91046
  23337762.140   122640784.711 7  23337764.340    95564253.94646
  22341123.900   117403431.951 7  22341126.160    91483212.32046
  21056649.720   110653435.384 8  21056651.660    86223462.58547
  20404190.360   107224759.334 8  20404191.720    83551777.81448
  20811176.880   109363444.604 8  20811178.240    85218256.99147
  24359056.580   128007629.798 6  24359063.160    99746179.70945
 14  1  9 10 42 30.0000000  0  9G01G19G31G17G23G32G20G11G28
  20379751.420   107096308.873 8  20379755.660    83451685.25448
  23624340.120   124146633.916 7  23624344.720    96737599.24046
  24425650.080   128357665.798 6  24425655.420   100018970.93745
  23321840.260   122557114.383 7  23321842.120    95499056.31346
  22323991.740   117313402.851 8  22323994.160    91413059.92747
  21067003.740   110707845.688 8  21067005.680    86265860.18947
  20400262.340   107204117.260 8  20400263.600    83535693.15348
  20821574.740   109418085.409 8  20821576.060    85260834.24047
  24368971.480   128059730.690 6  24368977.860    99786777.61245
 14  1  9 10 43  0.0000000  0  9G01G19G31G17G23G32G20G11G28
  20379983.060   107097526.380 8  20379987.360    83452633.99848
  23644476.440   124252449.857 7  23644481.140    96820052.94146
  24417743.620   128316117.007 6  24417748.940    99986595.33845
  23305982.200   122473779.844 7  23305983.980    95434120.33146
  22306912.820   117223653.745 8  22306915.440    91343125.69047
  21077402.400   110762490.629 8  21077404.180    86308440.62647
  20396396.320   107183801.046 8  20396397.560    83519862.40048
  20832049.000   109473127.777 8  20832050.240    85303724.39147
  24378935.460   128112089.165 6  24378941.440    99827576.20845
 14  1  9 10 43 30.0000000  0  9G01G19G31G17G23G32G20G11G28
  20380277.300   107099073.145 8  20380281.740    83453839.30448
  23664640.460   124358411.641 7  23664645.240    96902620.26246
  24409909.040   128274946.258 6  24409914.160    99954514.27846
  23290188.320   122390782.804 7  23290190.240    95369447.34446
  22289887.420   117134185.805 7  22289890.140    91273410.54447
  21087845.320   110817367.532 8  21087846.900    86351201.81847
  20392591.980   107163809.338 8  20392593.180    83504284.51648
  20842599.300   109528569.768 8  20842600.420    85346925.94247
  24388947.800   128164701.723 6  24388953.360    99868572.80245
 14  1  9 10 44  0.0000000  0  9G01G19G31G17G23G32G20G11G28
  20380634.680   107100951.302 8  20380639.180    83455302.82648
  23684832.060   124464517.746 7  23684836.760    96985300.03746
  24402147.140   128234156.812 6  24402152.100    99922730.32946
  23274459.260   122308126.567 7  23274461.300    95305039.91946
  22272916.200   117045002.395 8  22272918.940    91203917.10847
  21098332.140   110872475.339 8  21098333.660    86394142.93447
  20388849.460   107144142.391 8  20388850.540    83488959.68648
  20853225.660   109584411.724 8  20853226.700    85390439.13947
  24399007.960   128217566.529 6  24399013.260    99909765.95545
 14  1  9 10 44 30.0000000  0  9G01G19G31G17G23G32G20G11G28
  20381055.420   107103162.424 8  20381059.900    83457025.79248
  23705050.860   124570766.591 7  23705055.420    97068091.02746
  24394458.380   128193751.851 6  24394463.220    99891245.91846
  23258795.680   122225814.340 7  23258797.760    95240900.53546
  22255999.680   116956106.284 8  22256002.460    91134647.54847
  21108862.580   110927813.077 8  21108864.120    86437263.22147
  20385168.760   107124800.395 8  20385169.740    83473888.06448
  20863928.080   109640653.510 8  20863929.180    85434263.89947
  24409115.640   128270681.631 6  24409120.820    99951154.10346
 14  1  9 10 45  0.0000000  0  9G01G19G31G17G23G32G20G11G28
  20381539.880   107105708.155 8  20381544.280    83459009.49748
  23725296.480   124677156.474 7  23725300.800    97150991.92946
  24386843.360   128153734.401 6  24386848.160    99860063.42746
  23243198.180   122143849.218 7  23243200.260    95177031.62046
  22239138.480   116867500.608 8  22239141.160    91065604.29147
  21119436.480   110983379.589 8  21119438.080    86480561.78347
  20381549.940   107105783.662 8  20381550.920    83459069.89248
  20874706.620   109697295.170 8  20874707.800    85478400.25347
  24419270.280   128324044.882 6  24419275.900    99992735.65045
 14  1  9 10 45 30.0000000  0  9G01G19G31G17G23G32G20G11G28
  20382087.420   107108585.250 8  20382091.780    83461251.40248
  23745567.780   124783680.922 7  23745571.860    97233997.68446
  24379301.820   128114102.947 6  24379306.540    99829181.70046
  23227666.480   122062230.094 7  23227668.600    95113432.31446
  22222332.220   116779183.200 8  22222334.740    90996785.67047
  21130052.720   111039168.992 8  21130054.360    86524034.02347
  20377992.100   107087087.610 8  20377993.120    83444501.60148
  20885560.320   109754331.875 8  20885561.580    85522844.44947
  24429471.060   128377649.584 6  24429476.820   100034505.30845
 14  1  9 10 46  0.0000000  0  9G01G19G31G17G23G32G20G11G28
  20382698.800   107111797.942 8  20382703.140    83463754.81148
  23765864.820   124890340.814 7  23765868.740    97317108.96046
  24371834.700   128074862.979 6  24371839.440    99798605.00645
  23212201.640   121980962.691 7  23212203.920    95050107.08246
  22205581.940   116691159.630 8  22205584.200    90928196.01947
  21140711.800   111095182.912 8  21140713.420    86567681.20847
  20374495.860   107068714.949 8  20374496.860    83430185.30148
  20896489.660   109811765.871 8  20896490.940    85567598.21647
  24439717.980   128431496.101 6  24439723.640   100076463.43044
 14  1  9 10 46 30.0000000  0  9G01G19G31G17G23G32G20G11G28
  20383374.240   107115347.343 8  20383378.520    83466520.57948
  23786187.220   124997134.504 7  23786191.100    97400324.50346
  24364442.620   128036017.424 6  24364447.380    99768335.62546
  23196804.420   121900050.172 7  23196806.840    94987058.38246
  22188888.160   116603432.892 8  22188890.060    90859837.66747
  21151413.380   111151419.994 8  21151415.000    86611502.28747
  20371061.200   107050665.823 8  20371062.220    83416121.09448
  20907494.660   109869597.197 8  20907495.840    85612661.58147
  24450010.440   128485582.450 6  24450016.040   100118608.39745
 14  1  9 10 47  0.0000000  0 10G01G19G31G17G23G13G32G20G11G28
  20384116.840   107119249.641 8  20384120.980    83469561.32948
  23806537.500   125104074.483 7  23806541.480    97483654.03646
  24357128.980   127997583.573 6  24357133.700    99738387.07246
  23181478.160   121819509.835 7  23181480.520    94924299.68846
  22172254.100   116516020.364 8  22172255.760    90791724.15347
  24813852.000   130397681.256 6  24813856.640   101608596.93644
  21162159.900   111207893.417 8  21162161.600    86655507.53747
  20367690.820   107032954.746 8  20367691.880    83402320.28748
  20918577.920   109927839.987 8  20918579.040    85658045.57547
  24460350.880   128539920.948 6  24460356.640   100160949.81945
 14  1  9 10 47 30.0000000  0 10G01G19G31G17G23G13G32G20G11G28
  20384915.880   107123448.682 8  20384919.980    83472833.30548
  23826904.320   125211101.471 7  23826908.480    97567051.35946
  24349883.360   127959506.908 6  24349888.160    99708716.87846
  23166212.400   121739287.473 7  23166214.800    94861788.78346
  22155669.240   116428867.023 8  22155670.800    90723812.60347
  24791963.000   130282654.110 6  24791971.380   101518965.51544
  21172940.160   111264544.436 8  21172941.960    86699651.17647
  20364373.840   107015524.190 8  20364374.880    83388738.06148
  20929728.380   109986436.339 8  20929729.540    85703705.08147
  24470728.020   128594451.437 6  24470733.400   100203440.90445
 14  1  9 10 48  0.0000000  0 10G01G19G31G17G23G13G32G20G11G28
  20385784.080   107128011.190 8  20385788.180    83476388.49448
  23847299.600   125318278.791 7  23847304.080    97650565.81646
  24342718.640   127921855.591 6  24342723.420    99679378.16446
  23151019.960   121659451.142 7  23151022.500    94799578.68646
  22139146.540   116342040.557 8  22139148.080    90656155.75847
  24770080.100   130167659.840 6  24770090.220   101429359.69044
  21183766.400   111321437.208 8  21183768.440    86743983.18347
  20361122.700   106998439.431 8  20361123.700    83375425.28448
  20940958.540   110045451.420 8  20940959.780    85749690.86047
  24481153.860   128649237.037 6  24481158.920   100246130.72445
 14  1  9 10 48 30.0000000  0 10G01G19G31G17G23G13G32G20G11G28
  20386716.520   107132911.521 8  20386720.680    83480206.92848
  23867718.140   125425577.701 7  23867722.880    97734175.01246
  24335630.080   127884605.463 6  24335634.800    99650352.12245
  23135896.480   121579977.131 7  23135899.160    94737650.91246
  22122681.440   116255517.187 8  22122683.100    90588735.08747
  24748198.820   130052674.230 6  24748209.780   101339760.69046
  21194633.360   111378543.544 8  21194635.460    86788481.60547
  20357932.220   106981673.532 8  20357933.220    83362360.95348
  20952263.260   110104858.059 8  20952264.540    85795981.74747
  24491622.700   128704249.024 6  24491627.520   100288996.93045
 14  1  9 10 49  0.0000000  0 10G01G19G31G17G23G13G32G20G11G28
  20387713.820   107138152.586 8  20387717.960    83484290.85648
  23888159.700   125532997.901 7  23888164.640    97817878.71046
  24328618.620   127847760.812 6  24328623.420    99621642.12545
  23120842.800   121500869.905 7  23120845.620    94676008.94046
  22106274.860   116169301.009 8  22106276.560    90521553.76947
  24726320.240   129937692.932 6  24726331.920   101250197.11445
  21205541.160   111435863.748 8  21205543.140    86833146.68247
  20354802.800   106965228.321 8  20354803.800    83349546.50648
  20963642.700   110164657.467 8  20963644.040    85842578.69147
  24502134.360   128759486.499 6  24502139.040   100332038.87345
 14  1  9 10 49 30.0000000  0 10G01G19G31G17G23G13G32G20G11G28
  20388776.020   107143734.643 8  20388780.160    83488640.48648
  23908623.880   125640536.595 7  23908629.020    97901674.73046
  24321684.640   127811323.408 6  24321689.500    99593249.49645
  23105859.320   121422131.486 7  23105862.280    94614654.33846
  22089927.100   116083393.602 8  22089928.840    90454613.05747
  24704444.580   129822735.757 6  24704456.120   101160620.35741
  21216489.200   111493395.595 8  21216491.100    86877976.67447
  20351734.240   106949102.720 8  20351735.180    83336981.08948
  20975096.620   110224848.396 8  20975098.020    85889480.71047
  24512688.140   128814946.115 6  24512693.040   100375253.90244
 14  1  9 10 50  0.0000000  0 10G01G19G31G17G23G13G32G20G11G28
  20389903.400   107149658.768 8  20389907.520    83493256.66848
  23929110.220   125748191.401 7  23929115.500    97985561.22246
  24314828.480   127775295.657 6  24314833.620    99565176.16145
  23090946.620   121343764.296 7  23090949.480    94553589.01546
  22073638.600   115997797.238 8  22073640.320    90387914.72347
  24682572.120   129707796.211 6  24682583.580   101071057.36245
  21227477.080   111551137.299 8  21227479.020    86922970.19247
  20348726.340   106933295.725 8  20348727.200    83324663.93548
  20986624.820   110285429.869 8  20986626.280    85936687.04847
  24523283.600   128870624.979 6  24523288.320   100418639.77445
 14  1  9 10 50 30.0000000  0 10G01G19G31G17G23G13G32G20G11G28
  20391095.720   107155924.291 8  20391099.900    83498138.87648
  23949617.940   125855958.571 7  23949623.220    98069535.27146
  24308050.360   127739678.217 6  24308055.780    99537422.56645
  23076104.920   121265769.729 7  23076107.520    94492814.03546
  22057409.460   115912512.713 8  22057411.060    90321459.37447
  24660703.220   129592875.553 6  24660714.660   100981509.21445
  21238504.400   111609085.802 8  21238506.340    86968124.85347
  20345778.640   106917805.565 8  20345779.460    83312593.65948
  20998226.940   110346399.577 8  20998228.440    85984195.89047
  24533920.240   128926518.994 6  24533924.520   100462193.29844
 14  1  9 10 51  0.0000000  0 10G01G19G31G17G23G13G32G20G11G28
  20392353.540   107162534.043 8  20392357.780    83503289.30848
  23970146.940   125963837.491 7  23970152.260    98153596.37246
  24301351.260   127704474.916 6  24301356.600    99509991.69245
  23061334.800   121188151.846 7  23061337.300    94432332.59846
  22041240.380   115827543.890 8  22041241.960    90255250.03647
  24638838.540   129477977.742 6  24638850.080   100891978.91445
  21249571.120   111667241.204 8  21249572.940    87013440.73247
  20342891.480   106902633.749 8  20342892.320    83300771.43348
  21009903.200   110407758.330 8  21009904.620    86032007.88547
  24544597.500   128982627.184 6  24544601.740   100505913.70445
 14  1  9 10 51 30.0000000  0 10G01G19G31G17G23G13G32G20G11G28
  20393676.960   107169488.308 8  20393681.140    83508708.18848
  23990696.640   126071825.275 7  23990701.980    98237742.31346
  24294731.520   127669687.653 6  24294736.520    99482884.97445
  23046636.580   121110912.620 7  23046639.120    94372146.21146
  22025131.800   115742892.738 8  22025133.340    90189288.21747
  24616978.280   129363104.745 6  24616990.140   100802468.05744
  21260676.760   111725601.208 8  21260678.440    87058916.05047
  20340064.780   106887779.354 8  20340065.580    83289196.55248
  21021653.280   110469504.996 8  21021654.680    86080122.14647
  24555314.880   129038946.455 6  24555319.140   100549798.55344
 14  1  9 10 52  0.0000000  0  9G01G19G31G17G23G13G32G20G11
  20395064.740   107176780.802 8  20395068.880    83514390.61748
  24011265.440   126179912.923 7  24011270.700    98321966.06746
  24288190.060   127635311.563 6  24288194.860    99456098.66446
  23032009.600   121034047.831 7  23032012.160    94312251.60946
  22009082.720   115658554.432 8  22009084.220    90123570.17547
  24595122.060   129248252.224 6  24595133.920   100712973.12345
  21271819.600   111784157.288 8  21271821.320    87104544.15447
  20337297.080   106873234.748 8  20337297.820    83277863.06648
  21033475.660   110531631.773 8  21033477.040    86128532.60147
 14  1  9 10 52 30.0000000  0  9G01G19G31G17G23G13G32G20G11
  20396521.260   107184434.635 8  20396525.440    83520354.61848
  24031856.960   126288120.026 7  24031862.120    98406282.88446
  24281731.260   127601371.017 6  24281736.100    99429651.69246
  23017458.700   120957581.984 7  23017461.120    94252667.84846
  21993097.660   115574552.898 8  21993099.160    90058114.55147
  24573274.360   129133444.471 6  24573286.460   100623513.12245
  21283003.580   111842929.715 8  21283005.380    87150340.84847
  20334592.500   106859021.721 8  20334593.220    83266787.95248
  21045374.280   110594159.682 8  21045375.700    86177255.61347
 14  1  9 10 53  0.0000000  0  9G01G19G31G17G23G13G32G20G11
  20398042.460   107192428.385 8  20398046.640    83526583.48548
  24052466.320   126396421.472 7  24052471.560    98490673.20446
  24275351.440   127567845.969 6  24275356.280    99403528.44445
  23002979.900   120881495.195 7  23002982.280    94193379.47047
  21977172.820   115490868.234 8  21977174.340    89992905.83647
  24551431.400   129018661.792 6  24551443.780   100534072.71845
  21294224.200   111901894.739 8  21294226.120    87196287.61047
  20331946.600   106845117.402 8  20331947.460    83255953.39948
  21057344.900   110657065.607 8  21057346.280    86226273.18647
 14  1  9 10 53 30.0000000  0  9G01G19G31G17G23G13G32G20G11
  20399630.120   107200771.437 8  20399634.320    83533084.53048
  24073094.960   126504824.151 7  24073100.340    98575142.39945
  24269052.440   127534746.690 6  24269057.300    99377736.93546
  22988575.240   120805798.372 7  22988577.680    94134394.97346
  21961310.280   115407510.991 8  21961311.760    89927952.25347
  24529595.440   128903915.111 6  24529607.800   100444660.36345
  21305482.820   111961059.155 8  21305484.740    87242389.76047
  20329360.940   106831529.620 8  20329361.880    83245365.50748
  21069389.000   110720357.365 8  21069390.340    86275591.40847
 14  1  9 10 54  0.0000000  0  9G01G19G31G17G23G13G32G20G11
  20401282.240   107209453.323 8  20401286.500    83539849.60748
  24093741.220   126613318.912 6  24093746.500    98659683.37746
  24262833.920   127502069.221 6  24262838.720    99352274.06446
  22974244.040   120730487.775 7  22974246.560    94075711.43946
  21945509.260   115324476.888 8  21945510.640    89863250.46347
  24507765.540   128789200.366 6  24507777.740   100355272.83245
  21316777.800   112020414.852 8  21316779.680    87288640.97147
  20326834.220   106818251.669 8  20326835.200    83235019.05648
  21081505.080   110784027.558 8  21081506.360    86325204.50547
 14  1  9 10 54 30.0000000  0  9G01G19G31G17G23G13G32G20G11
  20403002.180   107218491.781 8  20403006.480    83546892.53548
  24114405.800   126721910.581 7  24114411.120    98744299.84346
  24256697.620   127469822.681 6  24256702.360    99327146.92146
  22959988.240   120655573.138 7  22959990.640    94017336.42546
  21929771.520   115241775.186 8  21929772.800    89798807.69547
  24485943.520   128674527.352 6  24485955.500   100265917.86545
  21328110.120   112079967.349 8  21328112.040    87335045.52547
  20324367.780   106805290.153 8  20324368.680    83224919.18948
  21093694.320   110848082.387 8  21093695.600    86375117.32347
 14  1  9 10 55  0.0000000  0  9G01G19G31G17G23G13G32G20G11
  20404788.560   107227879.461 8  20404792.860    83554207.59048
  24135087.840   126830593.793 7  24135093.220    98828987.61546
  24250643.220   127438006.240 6  24250647.840    99302354.88346
  22945807.660   120581053.571 7  22945809.920    93959269.25746
  21914096.860   115159404.873 8  21914098.040    89734623.14047
  24464129.300   128559895.196 6  24464141.240   100176594.72545
  21339479.080   112139711.908 8  21339480.980    87381599.73847
  20321960.840   106792641.537 8  20321961.680    83215063.14648
  21105955.980   110912517.861 8  21105957.320    86425326.74447
 14  1  9 10 55 30.0000000  0  9G01G19G31G17G23G13G32G20G11
  20406642.120   107237619.724 8  20406646.320    83561797.38748
  24155787.260   126939368.379 6  24155792.760    98913746.60945
  24244671.480   127406624.122 6  24244675.940    99277901.21145
  22931703.180   120506933.695 7  22931705.440    93901513.54446
  21898486.140   115077370.550 8  21898487.260    89670700.41047
  24442323.740   128445308.633 6  24442335.860   100087307.08245
  21350884.800   112199649.008 8  21350886.680    87428303.98147
  20319613.700   106780307.344 8  20319614.440    83205452.12148
  21118290.280   110977335.126 8  21118291.720    86475833.67247
 14  1  9 10 56  0.0000000  0  9G01G19G31G17G23G13G32G20G11
  20408562.560   107247711.628 8  20408566.740    83569661.18248
  24176503.200   127048230.380 6  24176508.820    98998573.68646
  24238782.360   127375676.672 6  24238786.880    99253786.24546
  22917674.960   120433214.699 7  22917677.160    93844070.21846
  21882939.420   114995672.679 8  21882940.520    89607039.83947
  24420527.120   128330768.695 6  24420539.100    99998055.70445
  21362326.500   112259775.587 8  21362328.480    87475155.86947
  20317325.940   106768285.491 8  20317326.660    83196084.47648
  21130696.820   111042531.781 8  21130698.340    86526636.23147
 14  1  9 10 56 30.0000000  0  9G01G19G31G17G23G13G32G20G11
  20410550.260   107258156.981 8  20410554.420    83577800.39748
  24197235.480   127157178.632 6  24197241.340    99083467.96346
  24232976.720   127345167.226 6  24232981.020    99230012.50745
  22903723.620   120359899.865 7  22903725.780    93786941.81546
  21867457.280   114914313.928 8  21867458.400    89543643.51247
  24398740.000   128216278.853 6  24398751.840    99908843.29545
  21373804.060   112320090.769 8  21373806.260    87522154.72247
  20315097.640   106756576.337 8  20315098.500    83186960.50748
  21143175.560   111108107.827 8  21143177.120    86577734.41247
 14  1  9 10 57  0.0000000  0  9G01G19G31G17G23G13G32G20G11
  20412604.780   107268953.717 8  20412608.940    83586213.42848
  24217983.320   127266207.669 7  24217989.280    99168425.21046
  24227254.340   127315094.949 6  24227258.440    99206579.48045
  22889849.100   120286988.644 7  22889851.200    93730127.92346
  21852039.640   114833293.759 8  21852040.700    89480511.01447
  24376962.300   128101838.448 6  24376974.120    99819669.40645
  21385316.700   112380590.261 8  21385319.020    87569297.19947
  20312928.280   106745176.538 8  20312929.180    83178077.59448
  21155725.760   111174059.355 8  21155727.260    86629125.17647
 14  1  9 10 57 30.0000000  0  9G01G19G31G17G23G13G32G20G11
  20414727.240   107280107.530 8  20414731.500    83594904.70048
  24238747.140   127375320.280 6  24238753.140    99253447.52846
  24221616.400   127285466.812 6  24221620.140    99183492.53645
  22876052.720   120214488.210 7  22876054.740    93673634.12946
  21836687.700   114752619.075 8  21836688.800    89417647.72447
  24355195.400   127987454.926 6  24355207.340    99730539.80445
  21396865.060   112441277.213 8  21396867.280    87616585.73847
  20310818.620   106734090.421 8  20310819.580    83169439.11648
  21168348.200   111240390.262 8  21168349.540    86680811.56047
 14  1  9 10 58  0.0000000  0  9G01G19G31G17G23G13G32G20G11
  20416916.480   107291612.182 8  20416920.760    83603869.35048
  24259525.040   127484506.801 6  24259531.080    99338527.47346
  24216061.980   127256277.738 6  24216065.600    99160747.76945
  22862333.720   120142394.302 7  22862335.720    93617457.11646
  21821400.580   114672285.072 8  21821401.760    89355049.91047
  24333438.520   127873123.936 6  24333450.320    99641451.08345
  21408447.520   112502143.062 8  21408449.560    87664013.67247
  20308767.160   106723310.281 8  20308768.200    83161039.06448
  21181041.340   111307092.643 8  21181042.520    86732787.41547
 14  1  9 10 58 30.0000000  0  9G01G19G31G17G23G13G32G20G11
  20419174.180   107303476.565 8  20419178.500    83613114.31548
  24280318.120   127593773.171 6  24280324.360    99423669.60246
  24210593.040   127227537.432 6  24210596.620    99138352.75846
  22848693.920   120070717.181 7  22848696.020    93561604.89047
  21806180.200   114592301.787 8  21806181.420    89292725.37347
  24311693.780   127758855.859 6  24311705.440    99552411.33145
  21420065.180   112563194.236 8  21420067.200    87711586.00547
  20306775.460   106712844.252 8  20306776.560    83152883.76548
  21193806.420   111374173.349 8  21193807.600    86785058.06947
 14  1  9 10 59  0.0000000  0  9G01G19G31G17G23G13G32G20G11
  20421499.240   107315694.748 8  20421503.620    83622634.97848
  24301124.740   127703110.441 6  24301131.120    99508866.94645
  24205208.860   127199241.877 6  24205212.500    99116304.34746
  22835132.720   119999452.792 7  22835134.860    93506074.26046
  21791025.600   114512664.321 8  21791026.800    89230670.29447
  24289960.280   127644646.650 6  24289971.880    99463417.39945
  21431716.480   112624422.548 8  21431718.620    87759296.37447
  20304842.040   106702684.398 8  20304843.140    83144967.04248
  21206642.000   111441624.664 8  21206643.200    86837617.50047
 14  1  9 10 59 30.0000000  0  9G01G19G31G17G23G13G32G20G11
  20423892.600   107328271.630 8  20423897.020    83632435.14348
  24321945.100   127812520.121 6  24321951.740    99594120.72546
  24199910.180   127171396.892 6  24199913.980    99094607.07946
  22821651.260   119928607.446 7  22821653.360    93450870.15646
  21775938.060   114433379.091 8  21775939.240    89168889.68447
  24268239.260   127530502.781 6  24268250.720    99374474.32645
  21443401.940   112685830.481 8  21443404.260    87807146.68647
  20302967.720   106692834.853 8  20302968.800    83137292.12548
  21219548.780   111509450.109 8  21219550.020    86890468.47847
 14  1  9 11  0  0.0000000  0  9G01G19G31G17G23G13G32G20G11
  20426354.640   107341209.364 8  20426359.060    83642516.49748
  24342779.060   127922001.407 6  24342785.840    99679430.27946
  24194697.600   127144005.884 6  24194701.640    99073263.62746
  22808250.180   119858185.133 7  22808252.260    93395995.68046
  21760918.160   114354449.383 8  21760919.380    89107386.10747
  24246531.560   127416428.631 6  24246543.000    99285585.55345
  21455121.700   112747417.946 8  21455123.980    87855136.90147
  20301152.620   106683296.441 8  20301153.720    83129859.64848
  21232526.800   111577649.773 8  21232528.000    86943611.05947
 14  1  9 11  0 30.0000000  0  9G01G19G31G17G23G13G32G20G11
  20428884.300   107354502.730 8  20428888.700    83652874.96848
  24363625.120   128031545.966 6  24363631.940    99764789.16446
  24189570.660   127117064.350 6  24189574.920    99052270.41846
  22794928.820   119788181.973 7  22794931.080    93341447.83946
  21745965.260   114275871.245 8  21745966.400    89046156.48047
  24224836.420   127302420.197 6  24224847.680    99196748.02045
  21466874.120   112809177.304 8  21466876.320    87903261.04947
  20299395.420   106674062.416 8  20299396.520    83122664.34748
  21245574.660   111646216.785 8  21245575.920    86997039.87647
 14  1  9 11  1  0.0000000  0  9G01G19G31G17G23G13G32G20G11
  20431482.560   107368156.463 8  20431486.880    83663514.24748
  24384483.580   128141155.562 6  24384490.540    99850198.69046
  24184530.580   127090578.585 7  24184534.820    99031632.39946
  22781688.460   119718604.305 7  22781690.840    93287231.54147
  21731080.500   114197650.770 8  21731081.360    88985205.54847
  24203154.940   127188484.047 6  24203166.180    99107966.84845
  21478659.560   112871110.924 8  21478661.820    87951520.98247
  20297696.820   106665136.195 8  20297697.920    83115708.88848
  21258692.880   111715153.830 8  21258694.220    87050757.03847
 14  1  9 11  1 30.0000000  0  9G01G19G31G17G23G13G32G20G11
  20434148.780   107382167.531 8  20434153.100    83674431.97048
  24405353.200   128250823.843 6  24405360.380    99935653.91046
  24179576.860   127064546.466 6  24179581.100    99011347.87146
  22768528.860   119649450.802 7  22768531.320    93233345.74846
  21716263.460   114119786.077 8  21716264.080    88924531.85347
  24181486.980   127074619.074 6  24181498.320    99019241.23245
  21490477.240   112933213.485 8  21490479.500    87999912.54947
  20296055.980   106656513.583 8  20296057.060    83108990.01148
  21271880.620   111784456.131 8  21271882.040    87104758.81547
 14  1  9 11  2  0.0000000  0  9G01G19G31G17G23G13G32G20G11
  20436884.700   107396545.003 8  20436889.060    83685635.20948
  24426235.240   128360557.050 7  24426242.580   100021159.74646
  24174711.220   127038978.196 6  24174715.340    98991424.76146
  22755452.060   119580732.304 7  22755454.460    93179798.91146
  21701516.100   114042287.664 8  21701516.520    88864143.58247
  24159834.740   126960836.305 6  24159846.020    98930579.70745
  21502328.560   112995491.793 8  21502330.660    88048441.06047
  20294474.380   106648202.292 8  20294475.460    83102513.71548
  21285139.280   111854131.125 8  21285140.800    87159050.99847
 14  1  9 11  2 30.0000000  0  9G01G19G31G17G23G13G32G20G11
  20439688.260   107411278.131 8  20439692.640    83697115.58548
  24447127.040   128470341.118 6  24447134.380   100106705.16946
  24169931.960   127013864.024 6  24169935.900    98971855.49346
  22742456.140   119512439.221 7  22742458.620    93126583.59046
  21686836.500   113965145.767 8  21686836.760    88804033.10747
  24138196.400   126847126.568 6  24138207.320    98841975.13745
  21514210.800   113057932.889 8  21514212.840    88097096.41347
  20292949.740   106640190.058 8  20292950.720    83096270.45348
  21298466.500   111924166.144 8  21298468.080    87213623.71947
 14  1  9 11  3  0.0000000  0  9G01G19G31G17G23G13G32G20G11
  20442561.940   107426379.702 8  20442566.340    83708883.05748
  24468030.280   128580185.734 6  24468037.760   100192297.75246
  24165241.640   126989217.800 6  24165245.700    98952650.86846
  22729544.040   119444586.046 7  22729546.620    93073711.05347
  21672227.200   113888374.158 8  21672227.460    88744211.17247
  24116574.760   126733504.225 7  24116585.320    98753438.78345
  21526125.900   113120547.007 8  21526127.880    88145886.58947
  20291484.240   106632488.588 8  20291485.080    83090269.33248
  21311864.320   111994571.974 8  21311865.880    87268485.36647
 14  1  9 11  3 30.0000000  0  9G01G19G31G17G23G13G32G20G11
  20445504.220   107441841.690 8  20445508.660    83720931.38048
  24488942.920   128690080.240 6  24488950.680   100277929.19146
  24160638.980   126965032.703 6  24160643.200    98933805.43846
  22716714.580   119377166.891 7  22716717.100    93021176.69847
  21657687.140   113811966.707 8  21657687.480    88684672.99147
  24094968.360   126619963.384 6  24094978.720    98664965.95345
  21538072.040   113183324.286 8  21538073.960    88194803.90547
  20290076.140   106625088.907 8  20290076.860    83084503.37348
  21325330.840   112065338.860 8  21325332.320    87323628.37147
 14  1  9 11  4  0.0000000  0  9G01G19G31G17G23G13G32G20G11
  20448515.740   107457667.440 8  20448520.200    83733263.15648
  24509865.080   128800024.486 6  24509873.080   100363599.38146
  24156125.080   126941313.120 6  24156129.140    98915322.76345
  22703968.500   119310185.944 7  22703970.920    92968983.80346
  21643217.120   113735927.439 8  21643217.620    88625421.70747
  24073378.220   126506508.882 6  24073388.640    98576560.48045
  21550049.440   113246265.662 8  21550051.260    88243849.08547
  20288725.720   106617992.625 8  20288726.360    83078973.83048
  21338866.320   112136468.384 8  21338867.800    87379053.93647
 14  1  9 11  4 30.0000000  0  9G01G19G31G17G23G13G32G20G11
  20451597.200   107473860.861 8  20451601.700    83745881.43248
  24530796.860   128910019.644 6  24530804.960   100449309.22046
  24151700.800   126918064.013 6  24151704.800    98897206.64346
  22691307.020   119243649.360 7  22691309.280    92917137.15346
  21628818.160   113660261.505 8  21628818.900    88566461.33847
  24051805.500   126393146.518 6  24051816.020    98488226.75245
  21562058.440   113309372.865 8  21562060.160    88293023.48247
  20287433.520   106611202.573 8  20287434.140    83073682.89848
  21352471.280   112207962.845 8  21352472.740    87434763.87647
 14  1  9 11  5  0.0000000  0  9G01G19G31G17G23G13G32G20G11
  20454747.600   107490416.587 8  20454752.100    83758782.02348
  24551736.680   129020057.304 6  24551744.920   100535052.14345
  24147365.260   126895280.893 6  24147369.160    98879453.61446
  22678729.420   119177553.110 7  22678731.500    92865633.62347
  21614489.640   113584965.231 8  21614490.540    88507789.00447
  24030249.640   126279872.492 7  24030260.020    98399961.90045
  21574097.560   113372638.321 8  21574099.280    88342321.19947
  20286198.400   106604712.304 8  20286199.020    83068625.57348
  21366144.240   112279814.553 8  21366145.680    87490752.18247
 14  1  9 11  5 30.0000000  0  9G01G19G31G17G23G13G32G20G11
  20457967.660   107507338.266 8  20457972.140    83771967.78048
  24572684.800   129130137.848 6  24572693.020   100620828.46745
  24143119.200   126872968.528 6  24143123.160    98862067.36046
  22666236.520   119111902.323 7  22666238.560    92814477.20447
  21600232.400   113510042.950 8  21600233.320    88449408.10147
  24008711.820   126166692.452 7  24008721.880    98311770.20745
  21586167.060   113436063.368 8  21586168.820    88391743.27847
  20285020.680   106598523.793 8  20285021.400    83063803.37348
  21379885.580   112352025.446 8  21379886.980    87547020.37147
 14  1  9 11  6  0.0000000  0  9G01G19G31G17G23G13G32G20G11
  20461257.620   107524627.233 8  20461262.120    83785439.72748
  24593640.700   129240259.633 6  24593649.020   100706636.87746
  24138963.480   126851129.496 7  24138967.240    98845049.90646
  22653828.840   119046699.756 7  22653830.940    92763670.05447
  21586046.840   113435497.271 8  21586047.720    88391320.65947
  23987192.380   126053609.302 7  23987202.120    98223653.98345
  21598266.700   113499647.281 8  21598268.620    88441289.14947
  20283900.500   106592637.515 8  20283901.280    83059216.68748
  21393695.240   112424595.318 8  21393696.600    87603568.26647
 14  1  9 11  6 30.0000000  0  9G01G19G31G17G23G13G32G20G11
  20464616.900   107542280.335 8  20464621.380    83799195.41948
  24614603.460   129350416.740 6  24614611.880   100792472.81645
  24134897.380   126829761.645 7  24134900.960    98828399.58946
  22641506.220   118981944.316 7  22641508.420    92713211.31147
  21571932.600   113361326.568 8  21571933.380    88333525.38447
  23965691.240   125940622.282 6  23965700.760    98135612.59345
  21610395.540   113563384.837 8  21610397.600    88490954.75447
  20282837.020   106587049.116 8  20282837.800    83054862.11348
  21407572.260   112497519.004 8  21407573.540    87660391.87047
 14  1  9 11  7  0.0000000  0  9G01G19G31G17G23G13G32G20G11
  20468046.620   107560303.438 8  20468051.040    83813239.42048
  24635573.600   129460612.020 6  24635582.200   100878338.49046
  24130922.260   126808871.791 6  24130925.740    98812121.74646
  22629270.100   118917643.100 7  22629272.340    92663106.50247
  21557890.980   113287537.586 8  21557891.620    88276027.55947
  23944209.640   125827738.437 6  23944219.320    98047651.58245
  21622554.300   113627279.646 8  21622556.460    88540742.88647
  20281831.120   106581763.097 8  20281831.900    83050743.15948
  21421517.420   112570800.652 8  21421518.520    87717494.39847
