     2.11           OBSERVATION DATA    G (GPS)             RINEX VERSION / TYPE
teqc  2015Nov6      RinexTools-CRAAG    20161009 23:03:49UTCPGM / RUN BY / DATE
Linux2.4.20-8|i386|gcc|Win32-MinGW32|=                      COMMENT
BIT 2 OF LLI FLAGS DATA COLLECTED UNDER A/S CONDITION       COMMENT
ABZH                                                        MARKER NAME
ABZH                                                        MARKER NUMBER
-Unknown-           C.R.A.A.G.                              OBSERVER / AGENCY
462405              LEICA GRX1200PRO    8.20/2.127          REC # / TYPE / VERS
                    LEIAT504        NONE                    ANT # / TYPE
  5106718.0001   270608.4113  3799529.0032                  APPROX POSITION XYZ
        0.0770        0.0000        0.0000                  ANTENNA: DELTA H/E/N
     1     1                                                WAVELENGTH FACT L1/2
     6    L1    L2    C1    P2    S1    S2                  # / TYPES OF OBSERV
    30.0000                                                 INTERVAL
SPIDER                                                      COMMENT
Made by Spider v4.0.0                                       COMMENT
Project creator:                                            COMMENT
                                                            COMMENT
 SNR is mapped to RINEX snr flag value [0-9]                COMMENT
  L1 & L2: min(max(int(snr_dBHz/6), 0), 9)                  COMMENT
teqc edited: all GLONASS satellites excluded                COMMENT
  2014     1     9     7    37    0.0000000     GPS         TIME OF FIRST OBS
                                                            END OF HEADER
 14  1  9  7 37  0.0000000  0 11G19G06G11G16G32G01G27G18G22G03G14
 108872133.331 8  84835414.72948  20717675.840    20717673.640          49.750
        49.500
 110827602.462 8  86359167.97847  21089791.280    21089792.240          49.250
        46.250
 114995272.101 8  89606703.81746  21882873.520    21882872.560          48.000
        40.750
 121030166.604 7  94309209.08346  23031280.460    23031281.580          45.000
        39.250
 118551712.152 7  92377962.72646  22559639.480    22559641.300          45.750
        39.000
 122373461.868 7  95355973.70446  23286898.920    23286902.980          42.000
        41.500
 108084758.779 8  84221899.54748  20567845.600    20567847.600          50.500
        50.250
 129900960.045 6 101221526.95244  24719337.200    24719335.840          39.500
        24.000
 114860680.022 8  89501824.51447  21857260.760    21857257.360          48.750
        44.250
 104557836.266 8  81473641.33548  19896695.380    19896695.860          50.750
        48.500
 124718131.215 6  97182974.55245  23733071.060    23733073.720          41.500
        34.000
 14  1  9  7 37 30.0000000  0 11G19G06G11G16G32G01G27G18G22G03G14
 108837750.961 8  84808623.27048  20711133.080    20711130.960          49.500
        49.500
 110877163.133 8  86397786.65947  21099222.360    21099223.340          49.250
        46.500
 114926781.786 8  89553334.73946  21869840.320    21869839.380          48.000
        40.750
 121131697.232 7  94388323.80246  23050601.140    23050602.140          45.000
        39.500
 118448925.779 7  92297869.48346  22540079.800    22540081.700          45.500
        40.000
 122301585.774 7  95299966.34946  23273221.320    23273225.480          42.500
        40.750
 108114088.674 8  84244753.99148  20573426.900    20573428.880          50.500
        50.000
 129992963.551 6 101293217.90544  24736845.020    24736843.360          39.750
        26.500
 114924749.598 8  89551748.83347  21869452.780    21869449.400          48.500
        43.750
 104578185.871 8  81489498.14848  19900567.840    19900568.240          50.750
        48.500
 124657877.073 6  97136023.27446  23721605.220    23721607.540          41.000
        37.500
 14  1  9  7 38  0.0000000  0 11G19G06G11G16G32G01G27G18G22G03G14
 108803693.263 8  84782084.80048  20704652.100    20704650.040          49.500
        49.500
 110927083.718 8  86436685.79447  21108721.940    21108722.920          49.500
        46.250
 114858478.446 7  89500111.35146  21856842.640    21856841.780          47.750
        41.500
 121233417.067 7  94467585.92546  23069957.800    23069958.640          45.000
        38.750
 118346432.043 7  92218004.28146  22520575.740    22520577.780          45.500
        40.500
 122229853.187 7  95244070.82946  23259571.080    23259575.340          43.000
        40.000
 108143831.047 8  84267929.84648  20579086.680    20579088.640          50.750
        50.000
 130085076.579 6 101364994.06544  24754373.820    24754371.460          39.000
        28.750
 114989183.464 8  89601957.01147  21881714.120    21881710.840          48.750
        44.500
 104599046.157 8  81505752.89048  19904537.440    19904537.840          50.750
        48.250
 124597910.069 6  97089295.77345  23710194.100    23710196.040          41.250
        33.500
 14  1  9  7 38 30.0000000  0 11G19G06G11G16G32G01G27G18G22G03G14
 108769962.115 8  84755800.78048  20698233.300    20698231.200          49.750
        49.250
 110977364.026 8  86475865.23747  21118289.960    21118290.920          49.250
        46.250
 114790362.955 7  89447034.33247  21843880.600    21843879.900          47.250
        42.000
 121335323.495 7  94546993.45846  23089350.120    23089350.700          45.750
        38.750
 118244233.671 7  92138369.21546  22501127.900    22501129.940          46.000
        39.250
 122158264.361 7  95188287.29046  23245948.180    23245952.460          43.250
        41.000
 108173986.422 8  84291427.50848  20584825.100    20584827.060          50.750
        50.000
 130177297.181 6 101436854.13143  24771923.020    24771920.540          38.500
        20.250
 115053979.578 8  89652447.45947  21894044.480    21894041.300          48.750
        44.250
 104620417.493 8  81522405.85648  19908604.260    19908604.680          50.500
        48.750
 124538233.305 6  97042794.40745  23698838.040    23698839.900          41.750
        35.500
 14  1  9  7 39  0.0000000  0 11G19G06G11G16G32G01G27G18G22G03G14
 108736558.763 8  84729772.18048  20691876.880    20691874.680          49.750
        49.500
 111028003.752 8  86515324.74947  21127926.420    21127927.340          49.250
        46.000
 114722435.242 7  89394103.65546  21830954.300    21830953.720          47.500
        41.500
 121437413.229 7  94626543.83346  23108777.420    23108777.760          45.500
        38.500
 118142332.614 7  92058965.82646  22481736.640    22481738.620          45.500
        39.500
 122086818.809 7  95132615.43546  23232352.680    23232356.760          43.500
        41.000
 108204554.561 8  84315246.81248  20590642.120    20590644.040          50.750
        50.250
 130269623.298 6 101508796.28845  24789492.300    24789489.880          38.000
        32.500
 115119135.228 8  89703218.07147  21906443.220    21906440.060          48.500
        44.000
 104642299.414 8  81539456.68548  19912768.260    19912768.680          50.500
        48.750
 124478848.675 6  96996520.65945  23687537.600    23687539.380          41.500
        34.500
 14  1  9  7 39 30.0000000  0 11G19G06G11G16G32G01G27G18G22G03G14
 108703485.146 8  84704000.52948  20685583.220    20685581.040          49.750
        49.500
 111079002.891 8  86555064.31247  21137631.260    21137632.160          49.250
        46.000
 114654696.986 7  89341320.59946  21818064.120    21818063.640          47.500
        41.250
 121539684.399 7  94706235.57346  23128239.200    23128239.280          45.500
        39.000
 118040732.118 7  91979796.66046  22462402.620    22462404.540          46.250
        39.000
 122015517.329 7  95077055.82246  23218784.540    23218788.440          43.500
        39.500
 108235536.532 8  84339388.58548  20596537.840    20596539.760          50.750
        50.000
 130362053.166 6 101580819.39442  24807081.280    24807078.940          38.500
        13.500
 115184648.970 8  89754267.71947  21918910.180    21918907.060          48.750
        44.250
 104664692.896 8  81556906.12948  19917029.620    19917030.040          50.500
        48.500
 124419759.957 6  96950477.46845  23676293.400    23676295.080          41.250
        34.500
 14  1  9  7 40  0.0000000  0 11G19G06G11G16G32G01G27G18G22G03G14
 108670742.100 8  84678486.46348  20679352.460    20679350.240          49.750
        49.500
 111130360.569 8  86595083.26447  21147404.340    21147405.200          49.250
        46.250
 114587147.987 7  89288685.01947  21805209.940    21805209.540          47.500
        42.250
 121642132.721 7  94786065.35546  23147734.680    23147734.460          45.500
        38.250
 117939433.818 7  91900862.96346  22443126.140    22443127.980          45.750
        40.000
 121944359.249 7  95021607.94846  23205243.740    23205247.460          43.500
        40.250
 108266931.890 8  84363852.47048  20602512.180    20602514.100          50.500
        50.250
 130454584.159 6 101652921.29644  24824689.540    24824687.360          38.750
        25.250
 115250518.102 8  89805594.28547  21931444.760    21931441.780          48.750
        44.250
 104687597.331 8  81574753.72248  19921388.220    19921388.680          50.500
        48.500
 124360969.290 6  96904666.51346  23665105.820    23665107.600          41.000
        36.250
 14  1  9  7 40 30.0000000  0 11G19G06G11G16G32G01G27G18G22G03G14
 108638331.228 8  84653231.23948  20673184.880    20673182.620          49.750
        49.750
 111182076.749 8  86635381.57547  21157245.680    21157246.480          49.500
        46.000
 114519789.003 7  89236197.49546  21792392.040    21792391.500          47.500
        41.500
 121744755.797 7  94866031.30846  23167263.320    23167263.080          45.250
        38.500
 117838440.379 7  91822166.78646  22423907.780    22423909.520          46.250
        40.000
 121873344.773 7  94966271.97846  23191730.120    23191733.960          43.250
        40.500
 108298741.088 8  84388638.83348  20608565.340    20608567.240          50.750
        50.000
 130547214.882 6 101725100.84344  24842316.760    24842314.740          38.500
        27.750
 115316740.579 8  89857196.18947  21944046.480    21944043.680          48.500
        44.250
 104711012.789 8  81592999.51148  19925844.080    19925844.540          50.750
        48.750
 124302479.589 6  96859090.10846  23653975.520    23653977.460          40.750
        36.250
 14  1  9  7 41  0.0000000  0 11G19G06G11G16G32G01G27G18G22G03G14
 108606253.417 8  84628235.53648  20667080.680    20667078.420          49.750
        49.250
 111234150.591 8  86675958.56747  21167155.120    21167155.800          49.500
        46.000
 114452620.272 7  89183858.23946  21779610.260    21779609.620          47.250
        41.750
 121847550.418 7  94946130.94546  23186824.540    23186824.440          45.750
        38.750
 117737753.736 7  91743709.69346  22404747.800    22404749.500          45.500
        39.750
 121802473.325 7  94911047.47246  23178243.780    23178247.540          43.000
        40.000
 108330963.783 8  84413747.40248  20614697.080    20614699.020          50.500
        50.000
 130639942.405 6 101797355.91745  24859962.380    24859960.740          39.000
        32.250
 115383313.670 8  89909071.30447  21956714.860    21956712.200          48.500
        44.000
 104734938.994 8  81611643.28748  19930397.160    19930397.560          50.750
        48.750
 124244292.043 6  96813741.89946  23642903.380    23642904.480          40.750
        37.500
 14  1  9  7 41 30.0000000  0 11G19G06G11G16G32G01G27G18G22G03G14
 108574511.334 8  84603501.43748  20661040.300    20661038.120          49.750
        49.500
 111286583.309 8  86716815.20047  21177132.780    21177133.420          49.250
        45.750
 114385643.981 7  89131668.91747  21766864.960    21766864.440          47.000
        42.500
 121950515.384 7  95026363.31746  23206418.100    23206418.240          44.500
        38.000
 117637377.837 7  91665494.72746  22385646.880    22385648.500          46.000
        40.250
 121731746.510 7  94855935.67046  23164784.880    23164788.660          43.250
        40.000
 108363601.810 8  84439179.60048  20620907.840    20620909.860          50.500
        50.000
 130732766.671 6 101869686.30344  24877626.420    24877625.160          39.000
        29.000
 115450236.802 8  89961219.17847  21969449.860    21969447.220          48.250
        43.750
 104759377.269 8  81630686.07648  19935047.640    19935047.980          50.750
        48.500
 124186412.764 6  96768641.15245  23631889.260    23631890.480          41.750
        35.750
 14  1  9  7 42  0.0000000  0 11G19G06G11G16G32G01G27G18G22G03G14
 108543105.731 8  84579029.54348  20655064.020    20655061.880          49.750
        49.750
 111339372.799 8  86757949.84547  21187178.260    21187178.960          49.000
        46.000
 114318859.277 7  89079628.88446  21754156.180    21754155.740          47.500
        41.750
 122053646.064 7  95106724.79646  23226043.080    23226043.680          44.750
        38.250
 117537313.719 7  91587522.71046  22366605.300    22366606.900          46.250
        40.500
 121661162.881 7  94800935.41546  23151353.180    23151357.060          43.250
        40.000
 108396653.875 8  84464934.43048  20627197.440    20627199.500          50.500
        50.000
 130825683.844 6 101942089.10644  24895308.140    24895307.200          38.250
        25.500
 115517506.243 8  90013636.90647  21982250.780    21982248.120          48.250
        43.500
 104784326.511 8  81650127.01948  19939795.320    19939795.640          50.750
        48.500
 124128841.974 7  96723780.77845  23620934.000    23620935.400          42.500
        32.750
 14  1  9  7 42 30.0000000  0 10G19G06G11G16G32G01G27G22G03G14
 108512036.585 8  84554819.81748  20649151.740    20649149.580          49.750
        49.500
 111392517.827 8  86799361.53147  21197291.320    21197292.100          49.250
        45.750
 114252265.818 7  89027737.87646  21741483.900    21741483.480          47.500
        41.250
 122156938.505 7  95187212.34546  23245698.840    23245699.800          45.000
        36.750
 117437562.463 7  91509794.47846  22347623.240    22347624.880          46.250
        40.750
 121590721.251 7  94746045.83746  23137948.580    23137952.560          43.500
        40.500
 108430119.040 8  84491011.14248  20633565.680    20633567.740          50.500
        50.000
 115585118.588 8  90066321.82647  21995116.940    21995114.340          48.000
        44.000
 104809785.474 8  81669965.14948  19944640.020    19944640.360          50.750
        48.500
 124071581.526 7  96679162.24545  23610037.680    23610039.240          42.000
        35.250
 14  1  9  7 43  0.0000000  0 10G19G06G11G16G32G01G27G22G03G14
 108481315.913 8  84530881.63148  20643305.800    20643303.680          50.000
        49.750
 111446028.571 8  86841058.19247  21207474.000    21207474.820          49.000
        45.750
 114185874.764 7  88976004.59447  21728850.080    21728849.740          47.000
        42.250
 122260400.829 7  95267832.26146  23265386.960    23265388.160          44.250
        38.250
 117338137.362 7  91432320.39346  22328703.340    22328704.960          46.500
        40.250
 121520432.377 7  94691275.25546  23124572.960    23124577.040          43.500
        39.250
 108464008.235 8  84517418.28148  20640014.640    20640016.700          50.750
        50.000
 115653082.248 8  90119280.49247  22008049.960    22008047.480          48.250
        43.750
 104835764.698 8  81690208.67648  19949583.720    19949584.100          50.750
        48.500
 124014644.712 6  96634795.83746  23599202.880    23599204.580          41.750
        36.250
 14  1  9  7 43 30.0000000  0 10G19G06G11G16G32G01G27G22G03G14
 108450930.260 8  84507204.50148  20637523.640    20637521.500          50.000
        49.750
 111499890.070 8  86883028.16047  21217723.460    21217724.340          49.250
        45.500
 114119672.019 7  88924418.04947  21716252.060    21716251.920          47.250
        43.000
 122364014.718 7  95348570.28146  23285103.980    23285105.400          45.000
        38.250
 117239025.859 7  91355090.67846  22309843.080    22309844.700          46.000
        41.250
 121450281.484 7  94636612.21446  23111223.700    23111227.660          43.750
        40.500
 108498306.840 8  84544144.43648  20646541.540    20646543.560          50.750
        49.750
 115721380.378 7  90172499.77547  22021046.620    22021044.340          47.750
        44.000
 104862249.034 8  81710845.80048  19954623.520    19954623.960          50.500
        48.750
 123958019.180 6  96590672.03345  23588427.260    23588429.240          41.500
        35.250
 14  1  9  7 44  0.0000000  0 10G19G06G11G16G32G01G27G22G03G14
 108420884.973 8  84483792.58348  20631806.200    20631804.060          49.750
        49.750
 111554105.659 8  86925274.04947  21228040.320    21228041.280          49.000
        45.750
 114053662.107 7  88872981.77746  21703690.760    21703690.720          47.500
        41.500
 122467781.431 7  95429427.38646  23304850.220    23304851.600          44.500
        39.250
 117140234.061 7  91278110.07946  22291043.580    22291045.220          46.250
        40.250
 121380272.278 7  94582059.55746  23097901.380    23097905.320          43.250
        41.000
 108533018.580 8  84571192.51448  20653147.020    20653149.020          50.500
        49.750
 115790014.502 8  90225980.89047  22034107.240    22034105.100          48.000
        44.000
 104889242.477 8  81731879.63048  19959760.200    19959760.620          50.750
        48.500
 123901711.369 6  96546795.80546  23577712.260    23577714.260          41.750
        36.250
 14  1  9  7 44 30.0000000  0 10G19G06G11G16G32G01G27G22G03G14
 108391184.085 8  84460649.03048  20626154.320    20626152.200          50.000
        49.750
 111608677.108 8  86967797.22547  21238424.940    21238425.940          49.000
        46.000
 113987848.251 8  88821698.27147  21691166.820    21691166.760          48.000
        42.250
 122571700.958 7  95510403.55746  23324625.500    23324626.760          44.250
        37.250
 117041766.917 7  91201382.44746  22272305.880    22272307.460          46.500
        40.250
 121310407.186 7  94527619.20947  23084606.420    23084610.500          42.500
        42.000
 108568146.311 8  84598564.74248  20659831.620    20659833.600          50.500
        50.000
 115858984.922 8  90279724.04347  22047231.920    22047229.800          48.250
        44.000
 104916747.737 8  81753312.27448  19964994.300    19964994.700          50.750
        48.500
 123845726.510 7  96503171.26645  23567058.800    23567060.580          42.250
        35.000
 14  1  9  7 45  0.0000000  0 10G19G06G11G16G32G01G27G22G03G14
 108361827.242 8  84437773.55948  20620567.980    20620565.840          50.000
        50.000
 111663602.925 8  87010596.53747  21248877.080    21248878.020          49.250
        46.000
 113922229.637 8  88770566.88846  21678680.100    21678679.920          48.000
        41.750
 122675768.754 7  95591495.25446  23344429.000    23344430.100          44.250
        37.750
 116943625.486 7  91124908.62546  22253630.120    22253631.740          46.500
        40.250
 121240685.046 7  94473290.26747  23071338.760    23071343.020          43.750
        42.250
 108603688.794 8  84626260.14648  20666595.120    20666597.120          50.500
        50.000
 115928287.925 8  90333726.34447  22060419.940    22060417.720          48.000
        43.750
 104944763.141 8  81775142.42748  19970325.480    19970325.920          50.750
        48.750
 123790066.044 7  96459799.51745  23556467.080    23556468.440          42.750
        35.000
 14  1  9  7 45 30.0000000  0 10G19G06G11G16G32G01G27G22G03G14
 108332817.738 8  84415168.74348  20615047.700    20615045.540          49.750
        50.000
 111718883.841 8  87053672.53847  21259396.840    21259397.660          49.250
        45.750
 113856808.253 8  88719589.19447  21666230.920    21666230.540          48.000
        42.000
 122779983.209 7  95672701.24346  23364260.420    23364261.400          43.750
        39.000
 116845813.466 7  91048691.49546  22235016.980    22235018.740          46.500
        40.750
 121171107.013 7  94419073.61646  23058098.600    23058102.840          43.750
        40.000
 108639647.385 8  84654279.80148  20673437.800    20673439.900          50.500
        50.000
 115997922.660 8  90387987.14847  22073671.020    22073668.800          48.000
        44.000
 104973289.822 8  81797370.98448  19975753.940    19975754.420          50.750
        48.500
 123734734.042 7  96416683.70645  23545937.840    23545939.060          42.250
        35.750
 14  1  9  7 46  0.0000000  0 10G19G06G11G16G32G01G27G22G03G14
 108304158.625 8  84392836.95448  20609594.080    20609591.860          50.000
        49.750
 111774521.090 8  87097026.21047  21269984.360    21269985.080          49.000
        45.750
 113791586.449 7  88668767.00546  21653819.640    21653819.080          47.750
        41.750
 122884342.832 7  95754020.34046  23384119.460    23384120.260          44.000
        38.250
 116748334.555 7  90972733.92246  22216467.280    22216469.080          46.000
        41.250
 121101674.625 7  94364970.45246  23044886.080    23044890.160          43.500
        41.500
 108676023.716 8  84682624.95948  20680360.000    20680362.180          50.500
        50.000
 116067888.305 7  90442505.78347  22086985.020    22086982.820          47.750
        43.500
 105002329.240 8  81819999.07348  19981279.940    19981280.400          50.750
        48.250
 123679734.404 7  96373826.92545  23535471.780    23535473.080          42.750
        35.750
 14  1  9  7 46 30.0000000  0 10G19G06G11G16G32G01G27G22G03G14
 108275848.650 8  84370777.22348  20604206.880    20604204.660          49.750
        49.750
 111830511.798 8  87140655.29747  21280639.060    21280639.840          49.000
        46.000
 113726562.464 8  88618098.96946  21641445.940    21641445.280          48.000
        41.750
 122988842.615 7  95835448.66246  23404005.160    23404005.880          43.500
        38.000
 116651188.831 7  90897035.98346  22197981.000    22197982.840          46.750
        41.000
 121032385.519 7  94310978.95346  23031700.920    23031704.740          43.500
        40.750
 108712815.551 8  84711293.89548  20687361.300    20687363.520          50.750
        49.750
 116138180.369 7  90497278.79347  22100361.120    22100359.020          47.750
        43.500
 105031878.778 8  81843024.66448  19986903.000    19986903.460          50.750
        48.500
 123625067.713 7  96331229.56345  23525068.900    23525070.380          42.000
        33.500
 14  1  9  7 47  0.0000000  0 10G19G06G11G16G32G01G27G22G03G14
 108247890.511 8  84348991.64248  20598886.540    20598884.360          50.000
        49.750
 111886856.698 8  87184560.38947  21291361.100    21291362.020          49.250
        45.750
 113661738.199 8  88567586.54647  21629110.280    21629109.580          48.000
        42.000
 123093480.987 7  95916984.96646  23423917.260    23423917.960          44.000
        38.000
 116554379.950 7  90821600.51046  22179558.840    22179560.680          46.250
        41.250
 120963241.095 7  94257100.18746  23018543.160    23018546.960          43.000
        41.250
 108750024.300 8  84740287.69648  20694441.960    20694444.120          50.500
        49.750
 116208798.045 7  90552305.50547  22113799.200    22113797.240          47.750
        43.500
 105061939.743 8  81866448.76648  19992623.460    19992623.880          50.750
        48.250
 123570737.682 7  96288894.53645  23514730.080    23514731.780          42.000
        35.750
 14  1  9  7 47 30.0000000  0 10G19G06G11G16G32G01G27G22G03G14
 108220285.274 8  84327481.05548  20593633.420    20593631.280          50.000
        50.000
 111943554.984 8  87228740.84347  21302150.460    21302151.420          49.000
        45.250
 113597113.917 8  88517229.94247  21616812.700    21616812.080          48.500
        42.250
 123198254.575 7  95998626.63546  23443855.040    23443855.880          43.750
        37.000
 116457909.807 7  90746428.99346  22161201.200    22161203.060          46.500
        41.250
 120894240.810 7  94203333.74847  23005412.860    23005416.700          43.000
        42.250
 108787649.608 8  84769606.08948  20701601.820    20701604.000          50.500
        50.000
 116279738.533 7  90607583.76647  22127298.640    22127296.860          47.500
        43.750
 105092511.561 8  81890270.93748  19998441.140    19998441.540          50.750
        48.500
 123516746.384 7  96246823.47845  23504455.780    23504457.600          42.500
        35.500
 14  1  9  7 50 30.0000000  3  0
 14  1  9  7 50 30.0000000  0 10G01G19G03G27G22G06G32G16G14G11
 120483280.864 7  93883093.96246  22927206.260    22927210.460          43.750
        41.500
 108062125.819 8  84204244.69048  20563539.220    20563536.920          50.000
        50.250
 105286655.315 8  82041552.26648  20035384.580    20035385.160          50.750
        48.500
 109022148.125 8  84952331.98548  20746225.140    20746227.360          50.250
        49.750
 116712032.386 7  90944434.59447  22209561.760    22209559.940          47.750
        44.000
 112291133.590 8  87499588.64347  21368292.380    21368293.560          48.750
        45.250
 115886314.299 7  90301031.91946  22052432.680    22052434.120          47.000
        41.750
 123829605.199 7  96490608.61046  23563991.120    23563991.980          43.500
        36.500
 123200052.270 7  96000046.62146  23444190.380    23444192.560          42.250
        38.250
 113213607.020 8  88218390.53347  21543833.260    21543832.880          48.750
        42.750
 14  1  9  7 51  0.0000000  0 10G01G19G03G27G22G06G32G16G14G11
 120415288.861 7  93830113.19146  22914267.860    22914271.920          44.000
        41.500
 108037029.188 8  84184688.85648  20558763.440    20558761.200          50.000
        50.250
 105320794.923 8  82068154.53248  20041881.160    20041881.720          50.750
        48.500
 109062689.207 8  84983922.40248  20753939.860    20753942.080          50.500
        49.500
 116785169.266 7  91001424.32647  22223479.300    22223477.440          47.750
        43.750
 112350290.714 8  87545685.07347  21379549.660    21379550.700          49.000
        45.000
 115792278.687 7  90227757.45146  22034538.340    22034539.760          47.000
        41.750
 123935244.560 7  96572924.90145  23584093.780    23584094.460          43.000
        35.000
 123148503.980 7  95959879.18746  23434380.880    23434383.280          42.500
        36.500
 113150401.786 8  88169139.69847  21531805.660    21531805.280          48.750
        43.250
 14  1  9  7 51 30.0000000  0 10G01G19G03G27G22G06G32G16G14G11
 120347442.462 7  93777245.86546  22901357.100    22901361.140          44.500
        41.250
 108012298.038 8  84165417.81748  20554057.240    20554055.080          50.000
        50.500
 105355444.525 8  82095154.20348  20048474.780    20048475.280          50.750
        48.250
 109103648.365 8  85015838.59648  20761734.140    20761736.340          50.250
        49.750
 116858612.643 7  91058652.88447  22237455.120    22237453.160          47.500
        43.500
 112409798.421 8  87592054.68747  21390873.660    21390874.540          49.000
        45.250
 115698601.473 7  90154762.24946  22016712.200    22016713.500          47.000
        41.500
 124040997.658 7  96655329.80646  23604218.020    23604218.680          42.750
        38.250
 123097316.416 7  95919992.84846  23424639.960    23424642.500          42.250
        36.250
 113087403.751 8  88120050.32647  21519817.500    21519817.120          48.750
        42.750
 14  1  9  7 52  0.0000000  0 10G01G19G03G27G22G06G32G16G14G11
 120279736.924 7  93724488.33346  22888473.220    22888477.140          44.500
        40.250
 107987929.337 8  84146429.20348  20549420.020    20549417.900          50.000
        50.250
 105390598.892 8  82122547.19748  20055164.440    20055164.980          50.750
        48.500
 109145020.891 8  85048076.89648  20769607.080    20769609.320          50.250
        49.500
 116932355.476 7  91116114.79147  22251487.920    22251485.860          47.750
        43.000
 112469651.638 8  87638693.51547  21402263.400    21402264.240          48.750
        45.000
 115605280.302 7  90082044.49247  21998953.760    21998955.040          47.250
        42.000
 124146857.127 7  96737817.60546  23624362.420    23624363.160          43.000
        37.250
 123046487.719 6  95880386.15646  23414967.560    23414969.900          41.750
        36.750
 113024609.099 8  88071119.42247  21507868.140    21507867.680          48.750
        42.500
 14  1  9  7 52 30.0000000  0 10G01G19G03G27G22G06G32G16G14G11
 120212175.571 7  93671843.14247  22875616.660    22875620.540          44.000
        42.000
 107963927.499 8  84127726.46548  20544852.600    20544850.560          50.000
        50.250
 105426261.354 8  82150336.10548  20061950.780    20061951.360          50.750
        48.250
 109186809.989 8  85080639.79448  20777559.320    20777561.560          50.500
        49.500
 117006398.513 8  91173810.62147  22265577.920    22265575.660          48.000
        42.750
 112529852.935 8  87685603.58247  21413719.360    21413720.300          48.750
        44.750
 115512320.582 7  90009608.38546  21981264.060    21981265.380          47.500
        41.500
 124252823.327 7  96820388.58445  23644527.120    23644527.980          43.000
        35.500
 122996023.435 7  95841063.44846  23405364.640    23405366.760          42.250
        37.000
 112962021.663 8  88022349.99947  21495958.220    21495957.700          48.500
        43.250
 14  1  9  7 53  0.0000000  0 10G01G19G03G27G22G06G32G16G14G11
 120144760.219 7  93619311.70947  22862787.880    22862791.740          44.500
        42.250
 107940295.670 8  84109312.03948  20540355.600    20540353.580          50.000
        50.250
 105462433.511 8  82178522.16848  20068834.100    20068834.720          50.500
        48.500
 109229017.438 8  85113528.69148  20785591.180    20785593.400          50.500
        49.500
 117080741.692 7  91231740.32647  22279725.040    22279722.560          47.750
        42.750
 112590403.627 8  87732785.90447  21425241.780    21425242.840          48.750
        45.250
 115419726.458 7  89937457.16746  21963643.880    21963645.360          47.000
        41.500
 124358895.180 7  96903041.85346  23664711.840    23664712.960          42.250
        37.000
 122945927.778 6  95802027.95146  23395831.860    23395833.800          41.500
        37.750
 112899644.051 8  87973744.05747  21484088.040    21484087.600          48.000
        43.750
 14  1  9  7 53 30.0000000  0 10G01G19G03G27G22G06G32G16G14G11
 120077487.751 7  93566891.61447  22849986.360    22849990.240          45.000
        42.250
 107917032.232 8  84091184.67348  20535928.700    20535926.680          50.000
        50.500
 105499111.630 8  82207102.50448  20075813.720    20075814.300          50.750
        48.500
 109271639.977 8  85146741.03148  20793702.000    20793704.220          50.250
        49.500
 117155379.757 7  91289899.79147  22293928.260    22293925.720          47.750
        42.500
 112651299.979 8  87780237.57047  21436829.940    21436831.120          48.750
        45.000
 115327496.891 7  89865590.02347  21946093.000    21946094.680          47.000
        42.250
 124465066.826 7  96985772.90646  23684915.600    23684916.940          43.000
        37.750
 122896200.205 7  95763279.28545  23386369.060    23386370.820          42.250
        32.750
 112837473.534 8  87925299.50547  21472257.300    21472256.920          48.250
        43.250
 14  1  9  7 54  0.0000000  0 10G01G19G03G27G22G06G32G16G14G11
 120010361.263 7  93514585.28247  22837212.620    22837216.480          45.250
        42.250
 107894141.371 8  84073347.62848  20531572.680    20531570.700          50.000
        50.500
 105536298.439 8  82236079.22048  20082890.180    20082890.740          50.750
        48.250
 109314680.733 8  85180279.24348  20801892.360    20801894.640          50.250
        49.500
 117230313.289 7  91348289.49747  22308187.740    22308185.100          47.750
        42.750
 112712544.401 8  87827960.46047  21448484.420    21448485.640          49.000
        45.000
 115235637.378 7  89794011.21147  21928612.580    21928614.400          47.250
        42.250
 124571338.439 7  97068581.84646  23705138.460    23705139.900          43.000
        36.500
 122846846.376 6  95724821.84846  23376977.200    23376978.980          41.750
        36.250
 112775514.435 8  87877019.69647  21460466.860    21460466.460          48.500
        43.000
 14  1  9  7 54 30.0000000  0 10G01G19G03G27G22G06G32G16G14G11
 119943379.372 7  93462391.60347  22824466.460    22824470.300          45.500
        43.000
 107871623.692 8  84055801.35948  20527287.740    20527285.680          50.250
        50.250
 105573992.115 8  82265450.89348  20090063.080    20090063.640          50.500
        48.500
 109358138.113 8  85214142.10048  20810162.000    20810164.260          50.500
        49.500
 117305538.719 7  91406906.65647  22322502.780    22322500.160          47.500
        43.000
 112774135.054 8  87875953.12947  21460204.820    21460205.960          48.750
        45.000
 115144148.575 7  89722721.28147  21911202.740    21911204.720          47.000
        42.750
 124677705.809 7  97151465.40746  23725379.620    23725381.240          43.000
        36.250
 122797867.348 6  95686656.46846  23367656.580    23367658.460          41.250
        37.750
 112713765.986 8  87828904.01447  21448716.580    21448716.040          48.500
        43.500
 14  1  9  7 55  0.0000000  0 10G01G19G03G27G22G06G32G16G14G11
 119876540.681 7  93410309.51047  22811747.500    22811751.320          45.250
        42.750
 107849478.846 8  84038545.62148  20523073.780    20523071.680          50.000
        50.500
 105612190.981 8  82295216.22248  20097332.080    20097332.700          50.750
        48.250
 109402010.644 8  85248328.45748  20818510.700    20818512.900          50.250
        49.500
 117381052.231 7  91465748.29647  22336872.560    22336869.940          47.250
        42.500
 112836070.013 8  87924214.09647  21471990.740    21471991.820          49.000
        44.750
 115053031.241 7  89651720.81247  21893863.620    21893865.620          47.500
        42.500
 124784164.551 7  97234420.16845  23745638.180    23745640.060          42.750
        35.750
 122749263.709 6  95648783.60546  23358407.460    23358409.380          41.750
        36.250
 112652227.414 8  87780951.88547  21437006.200    21437005.640          48.500
        43.750
 14  1  9  7 55 30.0000000  0 10G01G19G03G27G22G06G32G16G14G11
 119809846.185 7  93358339.76946  22799056.020    22799059.800          45.750
        41.750
 107827708.918 8  84021582.02548  20518931.180    20518929.060          50.250
        50.500
 105650895.415 8  82325375.50848  20104697.320    20104697.940          50.750
        48.250
 109446299.221 8  85282839.00648  20826938.560    20826940.760          50.250
        49.250
 117456852.628 7  91524813.47847  22351296.980    22351294.360          47.750
        42.750
 112898349.394 8  87972743.45047  21483842.200    21483843.240          48.750
        44.750
 114962288.684 7  89581012.37147  21876595.940    21876597.800          47.500
        42.500
 124890713.335 7  97317445.07445  23765913.880    23765915.920          42.500
        35.750
 122701039.696 7  95611206.55745  23349230.780    23349232.640          42.500
        35.750
 112590900.559 8  87733164.71547  21425336.080    21425335.540          48.500
        43.250
 14  1  9  7 56  0.0000000  0 10G01G19G03G27G22G06G32G16G14G11
 119743295.160 7  93306481.83646  22786391.760    22786395.540          45.000
        41.750
 107806314.904 8  84004911.35248  20514860.100    20514857.940          50.250
        50.500
 105690104.288 8  82355927.85648  20112158.520    20112159.140          50.500
        48.500
 109491002.883 8  85317673.00148  20835445.420    20835447.600          50.500
        49.000
 117532937.328 7  91584100.18147  22365775.560    22365772.900          47.500
        42.750
 112960971.754 8  88021540.05447  21495758.900    21495759.960          48.750
        44.750
 114871922.232 8  89510597.01046  21859399.860    21859401.500          48.000
        41.750
 124997348.129 7  97400537.02945  23786205.960    23786207.940          42.500
        35.000
 122653196.619 7  95573926.33946  23340126.680    23340128.400          42.250
        36.750
 112529785.306 8  87685542.44247  21413706.220    21413705.780          48.500
        43.750
 14  1  9  7 56 30.0000000  0 10G01G19G03G27G22G06G32G16G14G11
 119676889.702 7  93254737.33747  22773755.100    22773758.920          44.000
        43.500
 107785300.073 8  83988536.13648  20510861.120    20510858.920          50.250
        50.500
 105729819.534 8  82386874.77648  20119716.040    20119716.720          50.500
        48.500
 109536123.663 8  85352832.02248  20844031.660    20844033.820          50.250
        49.250
 117609305.640 7  91643607.87646  22380308.080    22380305.300          47.250
        41.750
 113023938.653 8  88070605.12947  21507741.160    21507742.220          48.750
        45.250
 114781936.200 7  89440478.06747  21842276.180    21842277.520          47.750
        42.000
 125104068.240 7  97483695.41045  23806514.280    23806516.260          43.000
        33.750
 122605739.145 7  95536946.57546  23331095.880    23331097.460          42.250
        36.750
 112468884.770 8  87638087.48447  21402117.200    21402116.900          48.500
        43.750
 14  1  9  7 57  0.0000000  0 10G01G19G03G27G22G06G32G16G14G11
 119610628.547 7  93203105.27547  22761145.900    22761149.880          43.750
        42.500
 107764664.450 8  83972456.41348  20506934.300    20506932.060          50.250
        50.500
 105770038.691 8  82418214.36048  20127369.480    20127370.200          50.750
        48.250
 109581660.028 8  85388314.87148  20852696.960    20852699.080          50.250
        49.250
 117685954.402 7  91703334.10547  22394893.900    22394891.000          47.500
        42.500
 113087248.170 8  88119937.17347  21519788.580    21519789.620          48.750
        44.500
 114692331.358 7  89370656.17347  21825224.980    21825226.180          47.750
        42.250
 125210869.705 7  97566917.22046  23826838.120    23826839.940          43.250
        36.500
 122558668.071 7  95500267.92346  23322138.560    23322139.980          42.250
        37.500
 112408198.341 8  87590799.35747  21390568.920    21390568.780          48.500
        43.750
 14  1  9  7 57 30.0000000  0 10G01G19G03G27G22G06G32G16G14G11
 119544512.361 7  93151586.17646  22748564.360    22748568.240          44.250
        41.500
 107744410.156 8  83956673.82648  20503080.040    20503077.820          50.000
        50.750
 105810762.144 8  82449946.89748  20135118.960    20135119.640          50.750
        48.500
 109627612.554 8  85424122.00348  20861441.500    20861443.600          50.250
        49.250
 117762882.015 7  91763277.64447  22409532.840    22409529.820          47.500
        42.250
 113150900.563 8  88169536.39747  21531901.260    21531902.220          48.500
        44.500
 114603110.652 7  89301133.59247  21808246.840    21808248.020          47.750
        42.500
 125317750.314 6  97650200.70946  23847176.980    23847178.400          41.750
        36.500
 122511986.816 7  95463892.99046  23313255.380    23313256.620          42.750
        36.000
 112347727.316 8  87543679.08847  21379061.720    21379061.660          48.750
        43.750
 14  1  9  7 58  0.0000000  0 10G01G19G03G27G22G06G32G16G14G11
 119478538.998 7  93100178.38846  22736010.000    22736013.840          44.250
        41.500
 107724536.355 8  83941187.73148  20499298.140    20499295.980          50.250
        50.750
 105851986.972 8  82482070.11748  20142963.840    20142964.520          50.750
        48.250
 109673978.812 8  85460251.52048  20870264.740    20870266.860          50.250
        49.250
 117840083.994 7  91823434.95847  22424223.960    22424221.040          47.500
        42.250
 113214892.493 8  88219400.19647  21544078.480    21544079.480          48.500
        44.750
 114514273.927 8  89231910.21147  21791341.760    21791343.060          48.000
        43.000
 125424705.493 7  97733542.28445  23867529.960    23867531.060          42.250
        33.250
 122465695.421 7  95427821.85446  23304446.320    23304447.420          42.000
        36.000
 112287470.276 8  87496725.55447  21367595.260    21367595.120          48.750
        44.000
 14  1  9  7 58 30.0000000  0 10G01G19G03G27G22G06G32G16G14G11
 119412712.789 7  93048885.25146  22723483.660    22723487.460          44.000
        41.000
 107705048.463 8  83926002.34148  20495589.700    20495587.540          50.250
        50.500
 105893717.088 8  82514587.07048  20150904.820    20150905.560          50.500
        48.500
 109720762.961 8  85496706.66648  20879167.520    20879169.640          50.250
        49.250
 117917562.253 7  91883807.55047  22438967.560    22438964.940          47.250
        43.000
 113279227.898 8  88269531.64147  21556321.120    21556322.140          48.750
        44.500
 114425827.645 7  89162991.08347  21774510.880    21774512.300          47.750
        42.750
 125531736.301 7  97816942.79145  23887897.280    23887898.300          42.500
        34.000
 122419800.440 7  95392059.57646  23295712.600    23295713.700          42.250
        36.750
 112227432.567 8  87449942.93047  21356170.480    21356170.240          48.750
        44.000
 14  1  9  7 59  0.0000000  0 10G01G19G03G27G22G06G32G16G14G11
 119347029.688 7  92997703.64646  22710984.580    22710988.320          44.250
        41.750
 107685944.055 8  83911115.77348  20491954.280    20491952.080          50.250
        50.750
 105935948.132 8  82547494.35748  20158941.100    20158941.920          50.750
        48.250
 109767960.678 8  85533484.07948  20888149.000    20888151.080          50.250
        49.000
 117995310.989 7  91944390.90047  22453762.720    22453760.280          47.500
        42.500
 113343901.888 8  88319926.91547  21568628.200    21568629.260          48.750
        44.250
 114337769.827 7  89094374.62947  21757753.960    21757755.420          47.750
        43.250
 125638835.666 7  97900396.70645  23908277.640    23908278.520          42.500
        34.750
 122374300.404 7  95356605.06846  23287054.000    23287055.300          42.250
        36.500
 112167610.791 8  87403328.55547  21344786.840    21344786.460          49.250
        44.000
 14  1  9  7 59 30.0000000  0 10G01G19G03G27G22G06G32G16G14G11
 119281489.630 7  92946633.45947  22698512.680    22698516.460          43.750
        42.250
 107667224.308 8  83896528.93248  20488392.040    20488389.800          50.000
        50.500
 105978679.277 8  82580791.33048  20167072.560    20167073.400          50.500
        48.250
 109815571.704 8  85570583.55048  20897209.120    20897211.160          50.250
        49.000
 118073327.358 7  92005182.83047  22468608.900    22468606.460          47.500
        42.500
 113408913.737 8  88370585.45147  21580999.600    21581000.640          48.500
        44.500
 114250102.506 7  89026062.46747  21741071.360    21741072.860          47.750
        43.000
 125746001.042 7  97983902.07545  23928670.660    23928671.300          42.500
        35.250
 122329197.664 7  95321460.08646  23278471.200    23278472.620          42.500
        37.500
 112108005.536 8  87356882.90047  21333444.380    21333443.880          49.250
        44.000
 14  1  9  8  0  0.0000000  0 10G01G19G03G27G22G06G32G16G14G11
 119216094.949 7  92895676.58946  22686068.440    22686072.300          43.750
        41.500
 107648892.797 8  83882244.62148  20484903.640    20484901.480          50.250
        50.750
 106021912.549 8  82614479.56948  20175299.580    20175300.400          50.500
        48.250
 109863598.054 8  85608006.64948  20906348.240    20906350.280          50.250
        49.000
 118151611.543 7  92066183.43446  22483505.960    22483503.500          47.000
        41.500
 113474265.024 8  88421508.48347  21593435.560    21593436.640          48.250
        44.750
 114162830.062 8  88958058.00047  21724463.940    21724465.480          48.250
        42.500
 125853231.975 6  98067458.49946  23949076.080    23949076.720          41.500
        36.000
 122284496.527 7  95286628.06646  23269964.940    23269966.420          42.500
        36.500
 112048619.943 8  87310608.39647  21322143.700    21322143.120          49.250
        44.000
 14  1  9  8  0 30.0000000  0 10G01G19G03G27G22G06G32G16G14G11
 119150844.960 7  92844832.44247  22673651.740    22673655.620          44.000
        42.000
 107630950.167 8  83868263.33148  20481489.240    20481487.160          50.250
        50.750
 106065646.344 8  82648557.82848  20183621.880    20183622.660          50.500
        48.000
 109912038.863 8  85645752.69948  20915566.260    20915568.320          50.250
        49.250
 118230160.865 7  92127390.64447  22498453.440    22498450.920          47.250
        42.250
 113539954.302 8  88472694.89347  21605935.860    21605936.980          48.500
        44.750
 114075953.968 8  88890362.38147  21707931.960    21707933.480          48.250
        42.750
 125960525.103 7  98151063.40545  23969493.380    23969494.060          42.000
        35.500
 122240198.954 7  95252110.49745  23261535.440    23261536.900          42.750
        35.500
 111989454.616 8  87264505.53147  21310884.920    21310884.260          49.250
        43.750
 14  1  9  8  1  0.0000000  0 10G01G19G03G27G22G06G32G16G14G11
 119085740.983 7  92794102.07847  22661262.780    22661266.720          44.500
        42.250
 107613398.787 8  83854586.91248  20478149.360    20478147.280          50.250
        50.500
 106109881.220 8  82683026.54048  20192039.560    20192040.320          50.750
        48.250
 109960895.133 8  85683822.48548  20924863.320    20924865.500          50.000
        49.250
 118308974.071 7  92188803.48147  22513451.140    22513448.700          47.000
        42.500
 113605982.015 8  88524145.01847  21618500.540    21618501.740          48.250
        44.500
 113989477.464 7  88822978.12147  21691476.000    21691477.480          47.750
        42.500
 126067878.633 6  98234715.38146  23989922.240    23989922.940          41.500
        36.250
 122196308.206 7  95217909.92746  23253183.200    23253184.760          42.250
        36.500
 111930511.045 8  87218575.47247  21299668.300    21299667.580          49.250
        44.000
 14  1  9  8  1 30.0000000  0 10G01G19G03G27G22G06G32G16G14G11
 119020780.941 7  92743483.87646  22648901.240    22648905.200          44.500
        41.250
 107596238.164 8  83841214.98248  20474883.820    20474881.780          50.250
        50.750
 106154614.512 8  82717883.62948  20200552.120    20200552.840          50.750
        48.250
 110010164.396 8  85722214.08748  20934238.940    20934241.260          50.250
        49.000
 118388047.362 7  92250418.96547  22528498.260    22528496.040          47.000
        42.250
 113672345.491 8  88575856.77247  21631129.140    21631130.400          48.250
        44.500
 113903400.516 8  88755905.20647  21675096.000    21675097.480          48.000
        42.750
 126175287.738 7  98318410.66545  24010361.700    24010362.440          42.000
        35.500
 122152824.470 7  95184026.50746  23244908.400    23244910.180          42.000
        36.750
 111871788.092 8  87172817.31847  21288493.600    21288492.960          49.000
        44.250
 14  1  9  8  2  0.0000000  0 10G01G19G03G27G22G06G32G16G14G11
 118955966.058 7  92692978.81147  22636567.280    22636571.300          44.000
        42.500
 107579470.733 8  83828149.43548  20471693.160    20471691.100          50.500
        50.750
 106199846.799 8  82753129.54448  20209159.600    20209160.240          50.750
        48.000
 110059847.690 8  85760928.31248  20943693.360    20943695.700          50.000
        49.000
 118467379.122 7  92312235.88446  22543594.600    22543592.380          47.250
        41.500
 113739045.228 8  88627830.54647  21643821.720    21643823.020          48.500
        44.500
 113817726.459 7  88689146.23747  21658792.620    21658794.140          47.750
        43.500
 126282750.917 6  98402148.08445  24030811.420    24030812.280          41.250
        35.250
 122109751.760 7  95150463.35646  23236711.860    23236713.600          42.250
        38.000
 111813287.860 8  87127232.71947  21277361.300    21277360.780          49.250
        44.500
 14  1  9  8  2 30.0000000  0 10G01G19G03G27G22G06G32G16G14G11
 118891294.397 7  92642585.32747  22624260.640    22624264.720          45.000
        42.750
 107563095.890 8  83815389.80348  20468577.220    20468575.040          50.500
        50.750
 106245575.385 8  82788762.18448  20217861.480    20217862.060          50.750
        48.000
 110109942.671 8  85799963.32748  20953226.140    20953228.480          50.250
        49.000
 118546965.426 7  92374251.14946  22558739.420    22558737.100          47.250
        41.750
 113806078.371 8  88680064.11747  21656577.760    21656579.040          48.500
        44.000
 113732455.240 7  88622701.16447  21642565.860    21642567.460          47.750
        43.000
 126390263.419 6  98485923.92945  24051270.420    24051271.720          41.500
        35.500
 122067089.851 7  95117220.28645  23228593.540    23228595.240          42.250
        35.500
 111755009.185 8  87081820.76947  21266271.220    21266270.780          49.500
        44.000
 14  1  9  8  3  0.0000000  0 10G01G19G03G27G22G06G32G16G14G11
 118826766.405 7  92592303.77147  22611981.440    22611985.520          45.750
        42.500
 107547115.062 8  83802937.19548  20465536.240    20465533.940          50.250
        50.750
 106291799.948 8  82824781.30248  20226657.680    20226658.300          50.750
        48.000
 110160449.455 8  85839319.23348  20962837.260    20962839.580          50.250
        48.750
 118626804.725 7  92436463.54946  22573932.360    22573930.020          47.000
        41.750
 113873444.699 8  88732557.31547  21669397.240    21669398.360          48.250
        44.250
 113647589.328 8  88556571.90747  21626416.320    21626417.880          48.000
        43.250
 126497822.981 6  98569736.43345  24071738.340    24071739.960          41.250
        34.500
 122024841.862 7  95084299.75146  23220554.080    23220555.540          42.500
        36.750
 111696953.288 8  87036582.40647  21255223.660    21255223.200          49.500
        44.250
 14  1  9  8  3 30.0000000  0 10G01G19G03G27G22G06G32G16G14G11
 118762382.073 7  92542134.15047  22599729.640    22599733.600          46.000
        43.000
 107531529.596 8  83790792.65848  20462570.400    20462568.080          50.500
        50.750
 106338519.710 8  82861186.28648  20235548.160    20235548.780          50.500
        48.000
 110211367.691 8  85878995.74348  20972526.700    20972528.960          50.000
        48.750
 118706894.217 7  92498870.88446  22589172.880    22589170.560          46.750
        41.500
 113941143.201 8  88785309.35347  21682279.900    21682280.860          48.250
        44.250
 113563130.701 7  88490760.01447  21610344.340    21610345.880          47.750
        43.750
 126605426.716 7  98653583.37345  24092214.760    24092216.640          42.250
        33.500
 121983009.622 7  95051703.20946  23212593.900    23212595.040          43.250
        36.000
 111639120.900 8  86991518.19347  21244218.600    21244218.080          49.250
        44.250
 14  1  9  8  4  0.0000000  0 11G01G19G03G27G22G06G32G16G14G20G11
 118698149.291 7  92492082.64447  22587506.700    22587510.520          46.000
        42.750
 107516348.001 8  83778962.81948  20459681.500    20459679.160          50.500
        51.000
 106385742.029 8  82897982.87648  20244534.260    20244534.920          50.500
        48.250
 110262704.905 8  85918998.73448  20982295.920    20982298.100          50.250
        48.750
 118787239.728 7  92561477.71846  22604462.160    22604459.800          47.000
        41.500
 114009180.886 8  88838325.68647  21695227.100    21695227.940          48.250
        44.250
 113479089.175 8  88425273.13147  21594351.760    21594353.340          48.000
        43.250
 126713079.646 6  98737468.63446  24112700.480    24112702.620          41.500
        36.500
 121941603.427 7  95019438.60246  23204714.740    23204715.660          43.500
        36.750
 129580082.004 6 100971502.49345  24658270.780    24658273.220          39.000
        30.750
 111581520.848 8  86946635.03347  21233257.700    21233257.160          49.250
        44.000
 14  1  9  8  4 30.0000000  0 11G01G19G03G27G22G06G32G16G14G20G11
 118634048.206 7  92442133.75847  22575308.700    22575312.540          46.000
        42.750
 107501552.980 8  83767434.22048  20456866.080    20456863.800          50.250
        50.750
 106433446.084 8  82935154.83248  20253612.020    20253612.740          50.500
        48.250
 110314440.768 8  85959312.36148  20992141.020    20992143.160          50.000
        48.750
 118867819.278 7  92624266.93346  22619796.040    22619793.500          47.250
        40.500
 114077537.286 8  88891590.36647  21708234.920    21708235.760          48.250
        43.750
 113395446.704 8  88360097.19047  21578435.220    21578436.680          48.250
        43.500
 126820759.243 7  98821374.65945  24133191.320    24133193.640          42.500
        34.750
 121900605.450 7  94987492.09846  23196913.120    23196913.980          42.750
        36.000
 129471586.210 6 100886960.38145  24637624.760    24637627.140          38.750
        31.750
 111524133.629 8  86901917.72947  21222337.220    21222336.780          49.250
        44.000
 14  1  9  8  5  0.0000000  0 11G01G19G03G27G22G06G32G16G14G20G11
 118570101.124 7  92392304.86847  22563140.080    22563143.800          46.000
        42.750
 107487167.485 8  83756224.72448  20454128.600    20454126.320          50.250
        51.000
 106481653.591 8  82972719.09948  20262785.620    20262786.380          50.750
        48.000
 110366597.295 8  85999953.77548  21002066.100    21002068.280          50.000
        49.000
 118948652.983 7  92687254.18646  22635178.280    22635175.560          46.750
        41.750
 114146233.624 8  88945119.94047  21721307.380    21721308.280          48.000
        44.250
 113312227.792 8  88295251.31547  21562599.300    21562600.680          48.250
        43.500
 126928484.945 7  98905316.60945  24153691.000    24153693.220          42.000
        34.000
 121860040.281 7  94955882.84145  23189193.800    23189194.680          42.250
        35.750
 129363201.627 6 100802504.97845  24616999.680    24617002.400          39.250
        30.000
 111466982.717 8  86857384.54647  21211461.700    21211461.300          49.000
        43.750
 14  1  9  8  5 30.0000000  0 11G01G19G03G27G22G06G32G16G14G20G11
 118506299.355 7  92342589.22447  22550999.020    22551002.600          45.500
        42.500
 107473183.728 8  83745328.28248  20451467.540    20451465.380          50.250
        51.000
 106530354.885 8  83010668.13048  20272053.220    20272053.960          50.750
        48.250
 110419165.301 8  86040915.81948  21012069.420    21012071.740          50.000
        48.750
 119029729.746 7  92750430.82546  22650606.640    22650603.960          46.250
        41.250
 114215260.851 8  88998907.33447  21734442.720    21734443.800          48.000
        44.250
 113229425.465 8  88230730.05247  21546842.660    21546843.980          48.500
        43.000
 127036245.352 6  98989285.62045  24174197.380    24174199.380          41.250
        34.250
 121819901.480 7  94924605.82646  23181555.440    23181556.520          42.000
        37.750
 129254921.248 6 100718130.74144  24596394.480    24596397.500          39.500
        27.750
 111410060.338 8  86813029.44247  21200629.660    21200629.240          49.250
        43.750
 14  1  9  8  6  0.0000000  0 11G01G19G03G27G22G06G32G16G14G20G11
 118442641.561 7  92292985.76847  22538885.260    22538888.740          45.750
        43.000
 107459601.871 8  83734745.00248  20448882.980    20448880.900          50.250
        51.000
 106579548.018 8  83049000.42348  20281414.420    20281415.120          50.750
        48.000
 110472143.079 8  86082197.16448  21022150.740    21022153.140          50.000
        48.750
 119111046.117 7  92813794.17846  22666080.580    22666078.040          46.750
        41.750
 114284616.021 8  89052950.27647  21747640.560    21747641.740          48.250
        43.750
 113147040.466 8  88166533.96147  21531165.420    21531166.580          48.500
        43.250
 127144036.379 6  99073278.46045  24194709.620    24194711.280          41.250
        33.500
 121780189.676 7  94893661.54745  23173998.340    23173999.680          42.750
        35.000
 129146745.473 6 100633838.07745  24575809.340    24575812.420          38.750
        32.250
 111353365.818 8  86768851.89147  21189841.040    21189840.560          49.250
        44.000
 14  1  9  8  6 30.0000000  0 11G01G19G03G27G22G06G32G16G14G20G11
 118379127.528 7  92243494.32247  22526798.860    22526802.340          45.250
        42.750
 107446422.718 8  83724475.52248  20446375.020    20446373.020          50.250
        51.250
 106629231.832 8  83087715.05548  20290868.980    20290869.640          50.750
        48.000
 110525529.918 8  86123797.25748  21032309.940    21032312.320          50.000
        48.500
 119192599.446 7  92877342.16746  22681599.620    22681597.240          46.750
        41.500
 114354298.637 8  89107248.37047  21760900.780    21760902.000          48.000
        44.000
 113065074.272 8  88102664.23047  21515567.740    21515568.840          48.500
        43.500
 127251855.119 6  99157292.93445  24215227.020    24215228.540          41.250
        34.500
 121740906.662 7  94863051.35946  23166523.020    23166524.400          42.500
        37.000
 129038675.831 6 100549628.11044  24555244.320    24555247.500          39.750
        29.500
 111296899.718 8  86724852.32947  21179095.860    21179095.420          49.250
        44.000
 14  1  9  8  7  0.0000000  0 11G01G19G03G27G22G06G32G16G14G20G11
 118315758.740 7  92194116.05246  22514740.100    22514743.700          45.750
        41.500
 107433649.038 8  83714521.99648  20443944.220    20443942.360          50.250
        51.250
 106679406.653 8  83126812.28148  20300416.960    20300417.620          50.500
        48.000
 110579326.859 8  86165716.92248  21042547.220    21042549.500          50.000
        48.500
 119274388.897 7  92941074.13746  22697163.720    22697161.400          46.750
        41.000
 114424308.908 8  89161801.77847  21774223.400    21774224.520          48.250
        43.500
 112983530.329 8  88039123.49947  21500050.420    21500051.500          48.500
        43.750
 127359699.953 6  99241327.73045  24235749.380    24235750.740          41.250
        35.750
 121702056.258 7  94832778.27246  23159130.120    23159131.520          43.250
        37.750
 128930715.613 6 100465503.43445  24534700.040    24534703.300          39.750
        34.750
 111240664.578 8  86681032.72447  21168394.640    21168394.220          48.750
        44.750
 14  1  9  8  7 30.0000000  0 11G01G19G03G27G22G06G32G16G14G20G11
 118252548.682 7  92144861.48447  22502711.580    22502715.180          45.500
        42.250
 107421295.463 8  83704895.82348  20441593.440    20441591.600          50.500
        51.000
 106730085.390 8  83166302.17848  20310060.840    20310061.520          50.750
        48.000
 110633546.930 8  86207966.29448  21052864.920    21052867.300          49.750
        48.750
 119356426.115 7  93004999.18146  22712775.040    22712772.740          46.750
        41.750
 114494659.747 7  89216620.55847  21787610.860    21787611.920          47.750
        44.000
 112902424.040 8  87975923.81547  21484616.340    21484617.500          48.500
        43.750
 127467581.861 6  99325391.40945  24256278.660    24256279.940          40.250
        33.000
 121663654.007 7  94802854.38946  23151822.560    23151823.820          43.000
        36.500
 128822879.844 6 100381475.69845  24514179.500    24514182.680          39.750
        33.250
 111184674.474 8  86637404.06847  21157740.060    21157739.660          49.000
        44.250
 14  1  9  8  8  0.0000000  0 11G01G19G03G27G22G06G32G16G14G20G11
 118189456.642 7  92095698.86847  22490705.460    22490709.120          45.750
        42.000
 107409322.498 8  83695566.23348  20439315.060    20439313.280          50.500
        51.000
 106781226.063 8  83206152.01847  20319792.600    20319793.300          50.750
        47.750
 110688148.885 8  86250513.22648  21063255.320    21063257.780          50.000
        48.500
 119438667.917 7  93069083.63246  22728425.200    22728422.980          46.500
        40.750
 114565309.200 7  89271672.03147  21801055.020    21801056.160          47.750
        44.500
 112821716.412 8  87913034.77647  21469258.140    21469259.380          48.500
        44.000
 127575457.126 6  99409449.89445  24276806.620    24276808.060          40.750
        34.000
 121625661.209 7  94773249.55245  23144593.020    23144594.020          43.750
        35.750
 128715129.354 6 100297514.44544  24493675.260    24493678.140          40.500
        29.500
 111128889.503 8  86593935.25547  21147124.480    21147124.140          48.750
        44.250
 14  1  9  8  8 30.0000000  0 11G01G19G03G27G22G06G32G16G14G20G11
 118126522.177 7  92046659.04746  22478729.320    22478733.020          45.500
        41.750
 107397771.045 8  83686565.08448  20437116.900    20437115.080          50.500
        50.750
 106832867.533 8  83246392.09647  20329619.660    20329620.360          50.750
        47.750
 110743171.786 8  86293388.16148  21073725.880    21073728.400          50.000
        48.500
 119521151.618 7  93133356.57246  22744121.300    22744119.180          46.250
        40.500
 114636296.059 7  89326986.41947  21814563.320    21814564.640          47.500
        44.250
 112741448.875 8  87850488.66247  21453983.720    21453985.020          48.500
        44.250
 127683362.735 6  99493532.02445  24297340.220    24297341.900          40.000
        33.250
 121588119.459 7  94743996.18546  23137449.240    23137450.100          43.500
        37.500
 128607505.542 6 100213651.81045  24473195.060    24473197.760          39.750
        33.500
 111073349.798 8  86550657.55347  21136555.520    21136555.300          49.000
        44.250
 14  1  9  8  9  0.0000000  0 11G01G19G03G27G22G06G32G16G14G20G11
 118063733.813 7  91997733.05946  22466781.080    22466784.740          45.500
        41.250
 107386630.204 8  83677883.90848  20434996.900    20434995.000          50.500
        51.000
 106884997.603 8  83287012.89748  20339539.680    20339540.400          50.500
        48.000
 110798603.655 8  86336581.78948  21084274.260    21084276.780          49.750
        48.750
 119603863.514 7  93197807.32546  22759860.840    22759858.860          46.250
        41.250
 114707607.652 7  89382553.83947  21828133.420    21828134.920          47.750
        44.000
 112661611.801 8  87788277.97347  21438791.320    21438792.560          49.000
        44.000
 127791284.402 6  99577626.68945  24317877.000    24317878.820          40.500
        35.000
 121551019.316 7  94715086.91946  23130389.280    23130390.240          43.500
        38.000
 128499998.857 6 100129880.48345  24452737.120    24452739.520          39.500
        33.500
 111018045.184 8  86507563.04147  21126031.380    21126031.200          49.000
        44.000
 14  1  9  8  9 30.0000000  0 12G01G19G03G27G22G06G32G16G14G20G11G28
 118001091.110 7  91948920.56446  22454860.520    22454864.120          44.750
        41.500
 107375901.043 8  83669523.51648  20432955.260    20432953.280          50.500
        51.000
 106937614.752 8  83328013.24247  20349552.420    20349553.120          50.500
        47.750
 110854443.531 8  86380093.33348  21094900.240    21094902.800          49.750
        48.500
 119686801.017 7  93262433.86246  22775643.340    22775641.540          46.250
        41.750
 114779242.882 8  89438373.44247  21841765.180    21841766.720          48.000
        43.750
 112582206.465 8  87726403.70847  21423681.040    21423682.180          49.000
        43.750
 127899219.134 6  99661731.52145  24338416.360    24338418.380          40.000
        32.000
 121514362.535 7  94686523.11846  23123413.640    23123414.880          43.750
        37.500
 128392610.454 6 100046201.28045  24432301.620    24432303.940          39.500
        34.250
 110962975.852 8  86464651.85647  21115552.100    21115551.820          49.250
        44.250
 131625656.921 5                  25047530.000                          33.500

 14  1  9  8 10  0.0000000  0 12G01G19G03G27G22G06G32G16G14G20G11G28
 117938589.231 7  91900217.78546  22442966.740    22442970.340          45.500
        41.500
 107365579.796 8  83661480.96548  20430991.260    20430989.160          50.500
        50.750
 106990712.868 8  83369388.36047  20359656.640    20359657.340          50.500
        47.750
 110910686.039 8  86423918.61748  21105602.840    21105605.420          49.750
        48.500
 119769957.071 7  93327230.71046  22791467.500    22791465.680          46.250
        41.750
 114851196.010 8  89494440.73647  21855457.500    21855459.020          48.000
        43.750
 112503229.896 8  87664863.55547  21408652.360    21408653.400          49.000
        44.250
 128007159.260 6  99745840.50945  24358956.720    24358958.980          40.500
        34.250
 121478145.952 7  94658302.33245  23116521.920    23116523.180          44.250
        35.500
 128285336.927 6  99962611.56645  24411887.980    24411890.360          39.750
        33.500
 110908137.767 8  86421920.86747  21105116.860    21105116.520          49.500
        44.250
 131547772.232 5 102504763.03644  25032710.060    25032709.600          34.750
        24.250
 14  1  9  8 10 30.0000000  0 11G01G19G03G27G22G06G32G16G14G20G11
 117876238.853 7  91851633.06647  22431101.920    22431105.440          45.750
        42.250
 107355678.219 8  83653765.44148  20429107.120    20429104.860          50.750
        50.750
 107044301.542 8  83411145.73748  20369854.180    20369855.000          50.500
        48.000
 110967341.186 8  86468065.44048  21116384.040    21116386.600          50.000
        48.250
 119853339.857 7  93392204.23346  22807334.740    22807332.960          46.000
        40.500
 114923476.834 7  89550763.40347  21869212.200    21869213.620          47.500
        43.500
 112424694.439 8  87603667.11747  21393707.520    21393708.580          48.750
        44.250
 128115112.195 6  99829959.51045  24379499.700    24379502.020          41.000
        34.250
 121442382.322 7  94630434.52046  23109716.540    23109717.660          44.250
        36.000
 128178190.771 6  99879121.12145  24391498.520    24391500.960          39.250
        32.250
 110853542.374 8  86379378.99647  21094727.780    21094727.420          49.250
        45.000
 14  1  9  8 11  0.0000000  0 11G01G19G03G27G22G06G32G16G14G20G11
 117814028.379 7  91803157.37947  22419263.860    22419267.160          45.750
        42.250
 107346186.067 8  83646368.93848  20427300.920    20427298.480          50.500
        50.750
 107098368.620 8  83453275.89447  20380142.800    20380143.720          50.500
        47.750
 111024396.909 8  86512524.39748  21127241.520    21127243.980          49.750
        48.500
 119936935.744 7  93457343.78647  22823242.460    22823240.900          45.500
        42.250
 114996072.395 7  89607331.30347  21883026.720    21883028.080          47.750
        43.500
 112346590.234 8  87542806.70847  21378844.640    21378845.760          48.500
        44.250
 128223064.066 6  99914077.68145  24400042.540    24400044.800          41.250
        34.250
 121407062.136 7  94602912.23746  23102995.540    23102996.560          43.750
        37.500
 128071162.055 6  99795722.13344  24371131.480    24371133.760          40.250
        28.750
 110799179.179 8  86337018.04847  21084382.840    21084382.480          49.250
        45.000
 14  1  9  8 11 30.0000000  0 11G01G19G03G27G22G06G32G16G14G20G11
 117751965.370 7  91754796.58047  22407453.620    22407456.900          45.250
        43.000
 107337111.690 8  83639297.97648  20425574.080    20425571.720          50.250
        51.250
 107152920.755 8  83495784.01647  20390523.780    20390524.740          50.500
        47.750
 111081860.088 8  86557300.85248  21138176.480    21138178.920          49.750
        48.250
 120020749.950 7  93522653.46646  22839191.780    22839190.400          45.500
        40.500
 115068989.318 7  89664149.61947  21896902.460    21896903.680          47.500
        43.000
 112268926.661 8  87482289.65547  21364065.560    21364066.860          48.250
        44.500
 128331019.725 6  99998198.80445  24420586.040    24420588.240          40.750
        33.750
 121372194.815 7  94575742.86446  23096360.540    23096361.480          43.500
        37.000
 127964260.064 6  99712421.91745  24350788.620    24350790.900          39.250
        33.000
 110745056.184 8  86294844.28247  21074083.620    21074083.280          49.500
        45.250
 14  1  9  8 12  0.0000000  0 11G01G19G03G27G22G06G32G16G14G20G11
 117690046.882 7  91706548.38747  22395671.020    22395674.180          46.250
        43.000
 107328453.288 8  83632551.15848  20423926.440    20423924.160          50.500
        51.000
 107207953.754 8  83538666.83347  20400996.300    20400997.200          50.500
        47.750
 111139727.183 8  86602392.04848  21149188.260    21149190.620          49.750
        48.250
 120104777.536 7  93588129.42846  22855181.780    22855180.460          46.000
        41.250
 115142223.734 7  89721215.32047  21910838.540    21910839.760          47.500
        42.750
 112191702.396 8  87422114.93047  21349370.040    21349371.580          48.750
        44.250
 128438973.546 6 100082318.45945  24441129.180    24441131.400          40.250
        34.500
 121337779.183 7  94548925.44346  23089811.400    23089812.400          43.250
        38.000
 127857483.421 6  99629219.32645  24330469.680    24330472.040          40.000
        30.750
 110691171.284 8  86252856.03447  21063829.700    21063829.380          49.250
        45.750
 14  1  9  8 12 30.0000000  0 12G01G19G03G27G22G06G32G16G14G20G11G28
 117628274.111 7  91658413.76047  22383916.200    22383919.220          46.000
        43.250
 107320213.563 8  83626130.58148  20422358.420    20422356.240          50.500
        51.000
 107263467.673 8  83581924.38947  20411560.320    20411561.140          50.500
        47.750
 111197998.782 8  86647798.43148  21160276.980    21160279.380          49.750
        48.250
 120189017.318 7  93653770.73646  22871212.200    22871210.820          45.750
        39.750
 115215775.812 7  89778528.56847  21924835.060    21924836.320          47.750
        43.000
 112114920.340 8  87362284.75647  21334758.780    21334760.480          48.500
        44.500
 128546923.564 6 100166435.14246  24461671.600    24461673.800          40.750
        36.500
 121303818.398 7  94522462.46746  23083348.840    23083349.880          44.250
        36.500
 127750835.172 6  99546116.82345  24310175.200    24310177.620          39.500
        31.250
 110637526.689 8  86211055.04747  21053621.520    21053621.160          49.500
        45.250
 131163101.021 5 102204998.55655  24959508.020    24959504.560          34.000
        31.750
 14  1  9  8 13  0.0000000  0 12G01G19G03G27G22G06G32G16G14G20G11G28
 117566645.619 7  91610391.55547  22372188.700    22372191.920          45.750
        43.750
 107312391.259 8  83620035.26448  20420869.800    20420867.760          50.250
        51.000
 107319459.860 8  83625554.62847  20422215.320    20422216.080          50.500
        47.750
 111256672.806 8  86693518.39848  21171442.340    21171444.760          49.750
        48.250
 120273465.588 7  93719574.52046  22887282.180    22887280.720          45.500
        40.500
 115289643.049 7  89836087.38747  21938891.580    21938892.800          47.500
        43.250
 112038580.784 8  87302799.40447  21320231.800    21320233.600          48.750
        44.500
 128654865.745 6 100250545.74045  24482212.600    24482214.760          40.750
        34.500
 121270313.419 7  94496354.63646  23076973.040    23076974.060          44.250
        37.000
 127644315.485 6  99463114.44545  24289905.220    24289907.620          38.500
        32.000
 110584121.776 8  86169440.80647  21043458.920    21043458.540          49.750
        45.500
 131087126.627 5 102145797.69745  24945050.880    24945050.440          34.750
        31.500
 14  1  9  8 13 30.0000000  0 11G01G19G03G27G22G06G32G16G14G20G11
 117505164.794 7  91562484.41447  22360489.240    22360492.700          46.250
        43.000
 107304991.294 8  83614269.04248  20419461.580    20419459.640          50.500
        51.000
 107375932.418 8  83669559.18247  20432961.760    20432962.460          50.500
        47.750
 111315751.980 8  86739554.07748  21182684.800    21182687.240          49.750
        48.000
 120358123.637 7  93785541.74446  22903391.920    22903390.480          44.500
        40.500
 115363827.810 7  89893893.62847  21953008.560    21953009.640          47.500
        42.500
 111962688.718 8  87243662.74347  21305790.100    21305791.880          49.000
        44.500
 128762801.018 6 100334650.93245  24502752.340    24502754.440          40.500
        33.250
 121237269.131 7  94470605.81346  23070684.980    23070686.060          44.500
        36.000
 127537924.276 6  99380213.08445  24269660.440    24269663.280          39.500
        33.500
 110530960.563 8  86128016.47247  21033342.740    21033342.340          49.750
        45.250
 14  1  9  8 14  0.0000000  0 11G01G19G03G27G22G06G32G16G14G20G11
 117443828.320 7  91514689.75747  22348817.320    22348820.860          45.750
        43.500
 107298011.367 8  83608830.12948  20418133.340    20418131.480          50.500
        51.250
 107432881.301 8  83713934.89247  20443798.820    20443799.480          50.500
        47.500
 111375232.318 8  86785902.34948  21194003.540    21194006.040          49.500
        48.250
 120442985.873 7  93851668.07246  22919540.520    22919539.160          45.250
        40.000
 115438325.778 7  89951943.92347  21967185.140    21967186.180          47.500
        42.750
 111887242.478 8  87184873.46847  21291433.300    21291434.920          49.250
        44.750
 128870723.072 6 100418745.85744  24523289.520    24523291.400          40.250
        28.750
 121204683.626 7  94445214.50446  23064484.240    23064485.500          44.000
        39.500
 127431669.808 6  99297417.39746  24249440.840    24249443.960          39.500
        37.500
 110478040.942 8  86086780.38647  21023272.560    21023272.100          49.750
        45.500
 14  1  9  8 14 30.0000000  0 11G01G19G03G27G22G06G32G16G14G20G11
 117382637.205 7  91467008.36247  22337173.040    22337176.520          46.250
        43.250
 107291453.519 8  83603720.09348  20416885.420    20416883.660          50.500
        51.250
 107490306.675 8  83758681.89647  20454726.540    20454727.200          50.500
        47.500
 111435114.138 8  86832563.45547  21205398.640    21205401.260          49.250
        47.750
 120528051.055 7  93917952.56246  22935728.000    22935726.560          45.750
        40.000
 115513136.931 7  90010238.26747  21981421.300    21981422.460          47.500
        43.500
 111812244.722 8  87126433.66847  21277161.900    21277163.300          49.250
        45.000
 128978630.262 6 100502829.17345  24543823.720    24543825.700          39.750
        33.500
 121172560.161 7  94420183.24446  23058371.380    23058372.760          43.500
        37.250
 127325549.858 6  99214726.50845  24229246.840    24229249.820          39.500
        31.750
 110425364.354 8  86045733.67347  21013248.600    21013248.060          49.750
        45.250
 14  1  9  8 15  0.0000000  0 11G01G19G03G27G22G06G32G16G14G20G11
 117321591.849 7  91419440.53647  22325556.540    22325559.920          46.750
        43.500
 107285319.316 8  83598940.17048  20415718.140    20415716.360          50.500
        51.250
 107548207.342 8  83803799.26247  20465744.640    20465745.360          50.500
        47.250
 111495397.122 8  86879537.16247  21216870.100    21216872.760          49.750
        47.750
 120613317.248 7  93984393.66546  22951953.700    22951952.280          45.500
        40.250
 115588260.482 7  90068776.02147  21995716.860    21995718.200          47.250
        42.750
 111737697.493 8  87068344.93047  21262976.140    21262977.380          49.000
        44.750
 129086520.352 6 100586899.11745  24564354.680    24564356.680          40.000
        31.750
 121140900.872 7  94395513.68046  23052346.780    23052348.240          43.500
        38.250
 127219566.515 6  99132142.07145  24209078.720    24209081.700          38.750
        34.250
 110372932.151 8  86004877.39847  21003271.080    21003270.560          49.750
        45.750
 14  1  9  8 15 30.0000000  0 11G01G19G03G27G22G06G32G16G14G20G11
 117260691.033 7  91371985.34947  22313967.500    22313970.880          46.500
        44.000
 107279608.327 8  83594490.02448  20414631.440    20414629.580          50.750
        51.250
 107606580.833 8  83849285.05047  20476852.700    20476853.540          50.500
        47.500
 111556079.297 8  86926821.93147  21228417.560    21228420.220          49.500
        47.750
 120698781.056 7  94050988.75246  22968217.040    22968215.540          45.500
        40.750
 115663694.012 7  90127555.32647  22010071.400    22010072.900          47.000
        43.000
 111663601.007 8  87010607.42347  21248876.080    21248877.240          49.250
        44.750
 129194389.516 6 100670952.82945  24584881.740    24584883.660          39.750
        33.500
 121109706.193 7  94371206.16646  23046410.600    23046412.040          43.500
        38.000
 127113719.925 6  99049664.22545  24188936.820    24188939.740          38.750
        34.750
 110320743.981 8  85964211.28447  20993339.980    20993339.600          49.750
        45.500
 14  1  9  8 16  0.0000000  0 12G01G19G03G27G22G06G32G16G14G20G11G28
 117199937.704 7  91324645.08947  22302406.560    22302409.820          47.000
        44.000
 107274324.544 8  83590372.76648  20413626.080    20413624.100          50.750
        51.250
 107665428.885 8  83895140.63447  20488051.100    20488052.040          50.250
        47.750
 111617162.918 8  86974419.51048  21240041.420    21240044.020          49.500
        48.000
 120784443.337 7  94117738.49546  22984518.140    22984516.540          45.750
        39.250
 115739439.618 7  90186577.80647  22024485.260    22024486.920          46.750
        43.500
 111589959.938 8  86953224.77847  21234862.600    21234863.740          49.000
        45.000
 129302237.679 6 100754990.10944  24605404.760    24605406.640          40.500
        28.250
 121078981.141 7  94347264.57846  23040563.800    23040565.120          43.250
        38.750
 127008014.873 6  98967296.69544  24168821.960    24168824.420          39.500
        26.000
 110268803.775 8  85923738.38647  20983456.020    20983455.800          49.500
        45.500
 130638208.441 5 101796011.88045  24859625.100    24859625.080          35.250
        30.000
 14  1  9  8 16 30.0000000  0 11G01G19G03G27G22G06G32G16G14G20G11
 117139328.135 7  91277416.84947  22290872.980    22290876.160          46.750
        44.000
 107269465.245 8  83586586.26448  20412701.460    20412699.440          50.500
        51.250
 107724746.593 8  83941362.17947  20499338.920    20499339.920          50.500
        47.250
 111678643.465 8  87022326.38447  21251740.840    21251743.380          49.500
        47.750
 120870298.228 7  94184638.32846  23000855.880    23000854.180          45.500
        40.000
 115815492.162 7  90245839.44547  22038957.500    22038959.220          47.000
        43.000
 111516771.997 8  86896195.22647  21220935.320    21220936.460          49.250
        45.250
 129410058.300 6 100839005.94645  24625922.500    24625924.500          41.000
        33.250
 121048723.419 7  94323687.14646  23034805.820    23034807.220          43.500
        37.500
 126902449.406 6  98885037.90444  24148733.740    24148735.520          40.500
        28.500
 110217108.533 8  85883456.35547  20973618.740    20973618.480          49.750
        45.500
 14  1  9  8 17  0.0000000  0 11G01G19G03G27G22G06G32G16G14G20G11
 117078864.798 7  91230302.54447  22279367.220    22279370.460          47.250
        44.000
 107265033.431 8  83583132.87348  20411858.120    20411856.100          50.500
        51.250
 107784535.444 8  83987950.84947  20510716.380    20510717.400          50.250
        47.500
 111740522.697 8  87070543.91747  21263516.140    21263518.600          49.500
        47.750
 120956345.844 7  94251688.32746  23017230.300    23017228.600          45.750
        41.000
 115891853.143 7  90305341.43247  22053488.520    22053490.300          47.250
        43.000
 111444041.250 8  86839521.91947  21207095.040    21207096.160          49.000
        45.250
 129517851.650 6 100923000.53745  24646435.080    24646436.860          40.000
        34.500
 121018937.253 7  94300477.17146  23029137.620    23029139.040          43.750
        37.500
 126797027.409 6  98802890.99845  24128672.840    24128674.520          40.000
        34.000
 110165661.397 8  85843367.65947  20963828.660    20963828.320          49.500
        45.250
 14  1  9  8 17 30.0000000  0 11G01G19G03G27G22G06G32G16G14G20G11
 117018546.531 7  91183301.29547  22267889.060    22267892.320          46.750
        44.250
 107261029.397 8  83580012.82148  20411096.200    20411094.160          50.750
        51.250
 107844792.981 8  84034904.73547  20522183.040    20522184.040          50.250
        47.500
 111802798.657 8  87119070.59147  21275366.940    21275369.360          49.500
        47.750
 121042582.584 7  94318885.69946  23033640.800    23033638.980          45.750
        39.250
 115968520.395 7  90365082.07847  22068077.920    22068079.580          47.500
        42.250
 111371768.004 8  86783205.11447  21193341.840    21193342.980          49.250
        45.250
 129625613.331 6 101006970.44445  24666941.540    24666943.400          39.250
        30.750
 120989623.391 7  94277635.22746  23023559.400    23023560.880          43.750
        37.750
 126691749.607 6  98720856.38445  24108639.460    24108640.920          41.000
        34.750
 110114462.296 8  85803472.24347  20954085.780    20954085.380          49.500
        45.000
 14  1  9  8 18  0.0000000  0 11G01G19G03G27G22G06G32G16G14G20G11
 116958376.804 7  91136415.78347  22256439.100    22256442.400          47.000
        43.500
 107257457.565 8  83577229.54048  20410416.560    20410414.460          50.750
        51.250
 107905521.203 8  84082225.38947  20533739.300    20533740.260          50.500
        47.500
 111865473.951 8  87167908.43847  21287293.720    21287296.080          49.500
        47.750
 121129009.977 7  94386231.61346  23050087.540    23050085.620          45.250
        39.000
 116045496.002 7  90425062.99947  22082726.080    22082727.540          47.000
        43.000
 111299957.235 8  86727248.68347  21179676.700    21179677.800          49.500
        45.000
 129733344.196 6 101090916.31745  24687442.000    24687444.020          39.000
        35.000
 120960786.833 7  94255165.20146  23018072.040    23018073.560          44.250
        36.750
 126586620.513 6  98638937.66945  24088634.240    24088635.600          40.750
        31.500
 110063515.478 8  85763773.41647  20944390.940    20944390.500          49.750
        45.500
 14  1  9  8 18 30.0000000  0 11G01G19G03G27G22G06G32G16G14G20G11
 116898353.534 7  91089644.39347  22245017.020    22245020.360          46.250
        43.500
 107254316.669 8  83574782.06148  20409818.880    20409816.820          50.500
        51.250
 107966716.777 8  84129910.21347  20545384.480    20545385.440          50.500
        47.500
 111928545.762 8  87217055.26147  21299295.940    21299298.300          49.500
        47.750
 121215623.785 7  94453722.77746  23066569.720    23066567.780          45.500
        39.750
 116122776.867 7  90485281.78347  22097432.320    22097433.660          47.250
        42.750
 111228608.454 8  86671652.23247  21166099.560    21166100.620          49.500
        45.250
 129841039.860 6 101174834.77945  24707935.660    24707938.200          38.750
        33.750
 120932427.248 7  94233066.82546  23012675.360    23012676.840          43.250
        37.750
 126481640.110 6  98557134.81645  24068657.120    24068658.640          40.500
        34.500
 110012819.505 8  85724270.04647  20934743.880    20934743.460          49.500
        46.000
 14  1  9  8 19  0.0000000  0 12G01G19G03G27G22G06G32G16G14G20G11G28
 116838475.739 7  91042986.37947  22233622.580    22233626.080          46.250
        44.000
 107251606.690 8  83572670.35448  20409303.220    20409301.180          50.750
        51.250
 108028377.603 8  84177957.56547  20557118.200    20557119.180          50.500
        47.500
 111992012.257 8  87266509.62647  21311373.240    21311375.620          49.500
        47.750
 121302420.559 7  94521356.51446  23083086.700    23083084.860          44.750
        40.250
 116200360.776 7  90545736.69747  22112196.200    22112197.560          47.000
        42.000
 111157721.972 8  86616416.02147  21152610.380    21152611.460          49.500
        45.500
 129948696.293 6 101258722.64845  24728421.860    24728424.740          39.000
        32.000
 120904545.170 7  94211340.54146  23007369.480    23007371.040          44.000
        38.000
 126376808.800 6  98475448.15745  24048708.200    24048710.060          39.500
        35.500
 109962374.026 8  85684961.86047  20925144.460    20925144.100          49.750
        45.250
 130201472.317 6                  24776517.040                          36.250

 14  1  9  8 19 30.0000000  0 12G01G19G03G27G22G06G32G16G14G20G11G28
 116778746.055 7  90996443.75447  22222256.300    22222259.920          45.750
        43.500
 107249331.165 8  83570897.18248  20408870.260    20408868.140          50.750
        51.250
 108090504.955 8  84226368.44547  20568940.780    20568941.680          50.500
        47.000
 112055875.182 8  87316272.89747  21323525.980    21323528.440          49.500
        47.750
 121389400.847 7  94589133.23146  23099638.560    23099636.860          45.250
        40.250
 116278249.035 7  90606428.77247  22127017.940    22127019.400          47.000
        42.750
 111087301.956 8  86561543.27947  21139209.940    21139211.000          49.500
        45.250
 130056313.395 6 101342579.88845  24748900.660    24748903.880          38.000
        35.750
 120877144.940 7  94189989.71646  23002155.320    23002156.880          43.500
        38.250
 126272130.824 6  98393880.94445  24028788.160    24028790.400          39.000
        33.750
 109912183.384 8  85645852.25247  20915593.480    20915593.160          49.250
        45.250
 130129904.741 6                  24762898.580                          37.000

 14  1  9  8 20  0.0000000  0 12G01G19G03G27G22G06G32G16G14G20G11G28
 116719159.231 7  90950012.46947  22210917.200    22210920.920          45.750
        44.000
 107247485.596 8  83569459.03648  20408519.060    20408516.960          50.500
        51.250
 108153092.414 8  84275137.85547  20580850.880    20580851.740          50.500
        47.250
 112120128.472 8  87366340.35047  21335753.020    21335755.520          49.500
        47.500
 121476557.373 7  94657047.27446  23116224.080    23116222.360          45.250
        39.500
 116356435.329 7  90667353.07347  22141896.340    22141897.880          46.750
        42.750
 111017344.517 8  86507030.97747  21125897.500    21125898.540          49.500
        45.500
 130163883.267 6 101426400.26745  24769370.560    24769373.980          36.750
        31.750
 120850222.658 7  94169011.31046  22997032.180    22997033.780          43.500
        37.250
 126167602.574 6  98312430.43845  24008896.680    24008899.300          40.250
        35.250
 109862242.326 8  85606937.11747  20906089.940    20906089.620          49.500
        45.250
 130058687.223 6 101344425.24542  24749346.420    24749348.460          38.000
        14.000
 14  1  9  8 20 30.0000000  0 12G01G19G03G27G22G06G32G16G14G20G11G28
 116659720.161 7  90903696.32047  22199606.260    22199610.080          45.750
        44.000
 107246075.820 8  83568360.47648  20408250.780    20408248.680          50.500
        51.250
 108216143.305 8  84324268.37647  20592849.080    20592849.920          50.250
        47.500
 112184776.154 8  87416715.11947  21348055.120    21348057.620          49.250
        47.750
 121563892.679 7  94725100.60946  23132843.520    23132841.920          45.000
        40.000
 116434923.485 7  90728512.59947  22156832.200    22156833.760          47.250
        42.500
 110947856.006 8  86452884.07947  21112674.260    21112675.360          49.500
        45.750
 130271408.303 6 101510185.77545  24789831.900    24789835.500          37.250
        35.000
 120823785.100 7  94148410.61146  22992001.340    22992002.820          44.000
        37.750
 126063230.123 6  98231101.31745  23989035.040    23989037.880          40.000
        34.250
 109812556.838 8  85568221.13447  20896635.040    20896634.720          49.500
        45.500
 129987826.843 6 101289209.27244  24735862.180    24735862.900          38.250
        28.000
 14  1  9  8 21  0.0000000  0 12G01G19G03G27G22G06G32G16G14G20G11G28
 116600423.954 7  90857491.49447  22188322.540    22188326.440          46.000
        43.750
 107245097.779 8  83567598.34048  20408064.640    20408062.580          50.750
        51.250
 108279650.952 8  84373754.81647  20604934.200    20604935.040          50.250
        47.500
 112249812.434 8  87467392.69047  21360431.140    21360433.660          49.250
        47.500
 121651399.742 7  94793287.79446  23149495.660    23149494.140          45.250
        39.500
 116513707.282 7  90789902.49347  22171824.280    22171825.880          46.750
        42.250
 110878832.991 8  86399099.90747  21099539.600    21099540.720          49.500
        45.250
 130378881.046 6 101593930.49045  24810283.420    24810287.140          37.750
        35.500
 120797828.793 7  94128184.90346  22987062.140    22987063.480          44.250
        37.750
 125959010.673 6  98149891.42945  23969202.780    23969205.600          41.250
        32.000
 109763122.995 8  85529701.22847  20887228.140    20887227.760          49.500
        45.500
 129917320.712 6 101234269.42043  24722445.400    24722445.660          39.250
        21.750
 14  1  9  8 21 30.0000000  0 12G01G19G03G27G22G06G32G16G14G20G11G28
 116541276.769 7  90811402.78147  22177067.180    22177071.140          46.250
        44.000
 107244558.386 8  83567177.99748  20407962.000    20407959.960          50.500
        51.250
 108343620.186 8  84423600.92547  20617107.140    20617108.000          50.250
        47.000
 112315242.510 8  87518377.11847  21372882.120    21372884.700          49.250
        47.250
 121739082.421 7  94861611.81646  23166181.180    23166179.820          45.250
        38.000
 116592791.485 7  90851526.46547  22186873.460    22186875.160          46.750
        42.500
 110810282.809 8  86345684.18347  21086494.880    21086496.000          49.500
        45.750
 130486304.628 6 101677636.89044  24830725.600    24830729.560          37.250
        29.500
 120772361.380 7  94108340.17246  22982215.960    22982217.180          44.250
        37.500
 125854951.674 6  98068806.56945  23949401.220    23949403.600          41.750
        33.500
 109713947.844 8  85491382.90047  20877870.500    20877870.020          49.250
        45.250
 129847176.940 6 101179611.87645  24709097.560    24709097.820          38.750
        34.500
 14  1  9  8 22  0.0000000  0 12G01G19G03G27G22G06G32G16G14G20G11G28
 116482275.625 7  90765427.86347  22165839.760    22165843.660          46.500
        44.000
 107244455.732 8  83567097.97448  20407942.520    20407940.460          50.750
        51.500
 108408047.076 8  84473803.65847  20629367.180    20629368.100          50.250
        47.250
 112381062.457 8  87569665.34747  21385407.280    21385409.900          49.000
        47.500
 121826935.479 7  94930068.60146  23182899.100    23182897.980          44.500
        39.750
 116672171.933 7  90913381.28647  22201979.000    22201980.800          46.250
        42.500
 110742203.890 8  86292635.65847  21073539.840    21073540.940          49.500
        45.500
 130593673.366 6 101761300.56246  24851157.400    24851161.440          37.750
        37.750
 120747381.319 7  94088875.19246  22977462.500    22977463.700          44.250
        37.000
 125751051.770 6  97987845.68646  23929629.960    23929631.880          41.000
        37.000
 109665029.066 8  85453264.35347  20868561.580    20868561.080          49.500
        45.250
 129777394.058 6 101125235.58645  24695818.240    24695818.580          38.750
        33.750
 14  1  9  8 22 30.0000000  0 12G01G19G03G27G22G06G32G16G14G20G11G28
 116423421.807 7  90719567.75047  22154640.320    22154644.080          46.000
        44.000
 107244791.847 8  83567359.85348  20408006.540    20408004.500          50.750
        51.250
 108472931.372 8  84524362.81247  20641714.220    20641715.260          50.500
        47.250
 112447272.749 8  87621257.72747  21398006.620    21398009.360          49.000
        47.500
 121914958.350 7  94998657.71746  23199649.340    23199648.440          44.500
        39.500
 116751848.760 7  90975467.04547  22217140.860    22217142.860          46.000
        42.750
 110674598.881 8  86239956.41447  21060674.940    21060676.100          49.250
        46.000
 130700985.943 6 101844920.50245  24871578.680    24871582.800          38.500
        34.250
 120722891.424 7  94069792.14146  22972802.180    22972803.440          44.250
        38.000
 125647313.717 6  97907010.90846  23909889.480    23909891.040          41.750
        37.000
 109616368.764 8  85415347.22947  20859301.800    20859301.420          49.500
        45.500
 129707975.904 6 101071143.48345  24682608.260    24682608.820          39.250
        32.500
 14  1  9  8 23  0.0000000  0 12G01G19G03G27G22G06G32G16G14G20G11G28
 116364713.316 7  90673820.87947  22143468.440    22143472.200          46.000
        44.000
 107245565.207 8  83567962.44048  20408153.760    20408151.760          50.750
        51.500
 108538269.971 8  84575275.96447  20654147.700    20654148.820          50.250
        47.250
 112513870.339 8  87673151.90847  21410679.660    21410682.480          49.000
        47.250
 122003146.668 7  95067375.74546  23216431.020    23216430.300          44.500
        40.000
 116831818.463 7  91037781.01147  22232358.560    22232360.680          46.500
        42.500
 110607467.101 8  86187645.92347  21047900.100    21047901.380          49.250
        46.000
 130808237.673 6 101928492.97144  24891988.500    24891992.740          38.250
        26.500
 120698891.310 7  94051090.74246  22968234.940    22968236.340          43.500
        37.500
 125543737.121 6  97826301.95345  23890179.560    23890180.980          41.000
        30.750
 109567965.894 8  85377630.68847  20850091.080    20850090.760          49.750
        45.500
 129638922.029 6 101017335.30946  24669467.680    24669468.620          38.500
        36.500
 14  1  9  8 23 30.0000000  0 12G01G19G03G27G22G06G32G16G14G20G11G28
 116306156.030 7  90628191.81547  22132325.300    22132329.080          45.500
        44.000
 107246782.785 8  83568911.17448  20408385.500    20408383.540          50.750
        51.250
 108604066.710 8  84626546.10647  20666668.420    20666669.600          50.250
        47.000
 112580860.151 8  87725351.70947  21423427.400    21423430.200          49.250
        47.000
 122091504.328 7  95136225.73046  23233244.860    23233244.420          43.750
        40.250
 116912085.590 7  91100326.74547  22247632.940    22247635.060          46.000
        42.000
 110540815.610 8  86135709.68047  21035216.720    21035218.060          49.500
        45.750
 130915431.830 6 102012020.57945  24912387.260    24912391.700          38.500
        32.500
 120675388.200 7  94032776.63546  22963762.300    22963763.760          43.750
        36.500
 125440329.615 6  97745724.74445  23870501.500    23870503.140          39.750
        32.750
 109519827.029 8  85340119.86747  20840930.580    20840930.220          49.500
        45.750
 129570240.484 6 100963817.18346  24656397.820    24656399.220          38.500
        37.250
 14  1  9  8 24  0.0000000  0 12G01G19G03G27G22G06G32G16G14G20G11G28
 116247740.588 7  90582673.29747  22121209.160    22121212.960          46.250
        44.000
 107248436.077 8  83570199.42948  20408700.140    20408698.220          50.750
        51.500
 108670310.764 8  84678164.80347  20679274.280    20679275.460          50.500
        47.250
 112648231.869 8  87777849.10547  21436247.880    21436250.580          49.250
        46.750
 122180019.494 7  95205198.45846  23250088.700    23250088.440          43.750
        39.250
 116992640.242 7  91163096.51147  22262962.060    22262964.160          46.000
        42.500
 110474636.394 8  86084141.44647  21022623.260    21022624.640          49.500
        45.750
 131022556.690 6 102095494.23845  24932772.960    24932777.200          38.750
        31.000
 120652374.301 7  94014843.73946  22959382.820    22959384.320          44.000
        39.250
 125337083.258 6  97665273.09845  23850854.100    23850856.020          40.000
        35.250
 109471943.847 8  85302808.27747  20831818.720    20831818.260          49.750
        45.750
 129501923.882 6 100910583.46245  24643397.640    24643399.220          39.000
        34.000
 14  1  9  8 24 30.0000000  0 12G01G19G03G27G22G06G32G16G14G20G11G28
 116189472.933 7  90537269.93247  22110121.160    22110124.940          46.250
        44.000
 107250531.685 8  83571832.34248  20409098.940    20409097.000          50.750
        51.500
 108737006.952 8  84730135.81647  20691966.200    20691967.300          50.250
        47.000
 112715990.383 8  87830647.90147  21449141.960    21449144.620          49.000
        47.000
 122268695.831 7  95274296.77046  23266963.240    23266963.120          44.000
        39.000
 117073486.569 7  91226093.56346  22278346.720    22278348.720          46.500
        41.250
 110408936.658 8  86032946.84547  21010121.080    21010122.480          49.750
        45.500
 131129615.137 6 102178916.10345  24953146.140    24953150.140          39.500
        32.250
 120629856.702 7  93997297.58346  22955097.860    22955099.420          44.000
        37.750
 125234005.059 6  97584952.52446  23831238.540    23831240.980          39.500
        36.250
 109424323.036 8  85265701.13347  20822756.820    20822756.340          49.750
        46.000
 129433979.986 6 100857640.19745  24630468.320    24630469.940          38.750
        35.250
 14  1  9  8 25  0.0000000  0 11G01G19G03G27G22G06G32G14G20G11G28
 116131357.170 7  90491984.90647  22099062.120    22099065.880          45.750
        44.000
 107253074.284 8  83573813.56148  20409582.800    20409580.840          50.750
        51.500
 108804157.729 8  84782461.05947  20704744.560    20704745.660          50.250
        47.000
 112784138.794 8  87883750.50647  21462110.200    21462112.900          49.000
        46.750
 122357535.475 7  95343522.33746  23283868.940    23283868.840          44.500
        39.500
 117154626.873 7  91289319.69747  22293787.340    22293789.180          46.500
        42.250
 110343721.634 8  85982129.93047  20997711.140    20997712.540          49.750
        46.250
 120607840.820 7  93980142.38746  22950908.440    22950909.940          43.750
        38.500
 125131100.821 6  97504767.47545  23811656.220    23811658.880          40.750
        35.000
 109376969.591 8  85228802.32247  20813745.840    20813745.320          49.750
        46.250
 129366414.611 6 100804991.83445  24617611.040    24617612.420          40.000
        34.500
 14  1  9  8 25 30.0000000  0 11G01G19G03G27G22G06G32G14G20G11G28
 116073385.146 7  90446811.87347  22088030.400    22088034.260          46.750
        43.750
 107256056.499 8  83576137.33248  20410150.340    20410148.360          50.750
        51.500
 108871753.658 8  84835133.16047  20717607.600    20717608.760          50.000
        46.750
 112852667.925 8  87937149.78147  21475150.920    21475153.680          49.250
        46.750
 122446528.110 7  95412867.12346  23300803.780    23300803.600          43.750
        38.750
 117236051.906 7  91352767.69446  22309282.120    22309283.860          46.500
        41.750
 110278984.411 8  85931685.34347  20985392.160    20985393.540          49.750
        46.000
 120586320.189 7  93963373.08846  22946813.260    22946814.840          44.500
        37.750
 125028364.084 6  97424712.97146  23792106.000    23792108.780          41.000
        36.750
 109329875.813 8  85192105.85147  20804784.240    20804783.760          49.750
        46.250
 129299221.796 6 100752633.75545  24604824.740    24604826.060          40.250
        33.250
 14  1  9  8 26  0.0000000  0 11G01G19G03G27G22G06G32G14G20G11G28
 116015560.992 7  90401754.08547  22077026.880    22077030.640          47.000
        43.750
 107259483.449 8  83578807.66248  20410802.460    20410800.520          50.750
        51.250
 108939796.987 8  84888153.88747  20730555.860    20730557.080          50.250
        47.000
 112921580.833 8  87990848.10247  21488264.680    21488267.500          49.000
        47.000
 122535675.578 7  95482332.56946  23317768.060    23317767.760          43.750
        39.250
 117317764.872 7  91416440.04346  22324831.680    22324833.440          46.750
        41.250
 110214730.320 8  85881617.22647  20973165.100    20973166.420          49.500
        46.500
 120565299.947 7  93946993.71046  22942813.240    22942814.820          44.000
        38.250
 124925800.548 7  97344793.40045  23772588.760    23772591.660          42.000
        32.000
 109283047.125 8  85155615.94247  20795873.080    20795872.600          49.750
        46.000
 129232407.572 6 100700570.72446  24592110.340    24592111.880          38.750
        36.250
 14  1  9  8 26 30.0000000  0 11G01G19G03G27G22G06G32G14G20G11G28
 115957883.210 7  90356810.35247  22066051.320    22066054.840          47.000
        43.000
 107263354.245 8  83581823.83848  20411539.000    20411537.140          50.500
        51.500
 109008284.876 8  84941521.03547  20743588.760    20743589.980          50.250
        46.750
 112990874.995 8  88044843.49847  21501450.900    21501453.800          48.750
        47.000
 122624974.398 7  95551915.94546  23334761.100    23334760.760          43.500
        38.750
 117399762.711 7  91480334.39446  22340435.480    22340437.220          46.500
        41.500
 110150959.014 8  85831925.30647  20961029.840    20961031.140          49.750
        46.250
 120544779.880 7  93931004.08046  22938908.360    22938910.000          44.500
        37.500
 124823409.821 6  97265008.52445  23753104.560    23753107.240          41.250
        35.750
 109236482.784 8  85119332.01947  20787012.240    20787011.780          50.000
        46.500
 129165972.024 6 100648802.72745  24579467.900    24579469.760          38.500
        32.500
 14  1  9  8 27  0.0000000  0 11G01G19G03G27G22G06G32G14G20G11G28
 115900354.064 7  90311982.42047  22055104.000    22055107.320          46.750
        44.250
 107267671.591 8  83585187.97548  20412360.580    20412358.740          50.750
        51.500
 109077217.911 8  84995235.04147  20756706.380    20756707.580          50.250
        47.000
 113060551.513 8  88099136.83947  21514709.840    21514712.900          48.750
        46.750
 122714424.524 7  95621617.20646  23351782.980    23351782.640          43.750
        39.750
 117482046.117 7  91544451.25047  22356093.600    22356095.420          46.250
        42.500
 110087673.794 8  85782612.15347  20948987.060    20948988.300          49.750
        46.250
 120524763.691 7  93915407.08746  22935099.360    22935101.000          44.250
        39.250
 124721195.815 6  97185361.33445  23733653.920    23733656.380          40.750
        35.750
 109190185.835 8  85083256.44647  20778202.280    20778201.860          49.750
        46.250
 129099919.237 6 100597333.03145  24566898.300    24566900.360          38.250
        35.750
 14  1  9  8 27 30.0000000  0 11G01G19G03G27G22G06G32G14G20G11G28
 115842971.055 7  90267268.36047  22044184.400    22044187.760          47.250
        44.500
 107272433.861 8  83588898.81148  20413266.860    20413265.020          50.750
        51.500
 109146591.800 8  85049292.56947  20769907.840    20769908.980          50.250
        46.750
 113130606.893 8  88153725.38347  21528040.940    21528044.100          48.750
        46.750
 122804021.381 7  95691432.81846  23368832.800    23368832.460          43.500
        39.250
 117564611.674 7  91608787.95546  22371805.340    22371807.400          46.000
        41.500
 110024873.419 8  85733676.79647  20937036.500    20937037.620          49.500
        45.750
 120505250.118 7  93900201.74446  22931386.020    22931387.660          44.000
        37.750
 124619157.667 7  97105851.16645  23714236.900    23714238.800          42.250
        34.000
 109144154.656 8  85047387.97347  20769442.840    20769442.480          50.000
        46.500
 129034248.800 6 100546161.16445  24554401.580    24554403.600          37.750
        30.750
 14  1  9  8 28  0.0000000  0 11G01G19G03G27G22G06G32G14G20G11G28
 115785735.747 7  90222669.39047  22033292.920    22033296.320          47.250
        44.250
 107277642.721 8  83592957.63448  20414258.100    20414256.260          50.750
        51.250
 109216406.501 8  85103693.58047  20783193.200    20783194.280          50.250
        46.750
 113201041.468 8  88208609.42147  21541444.300    21541447.420          49.000
        46.750
 122893764.107 7  95761362.10546  23385910.400    23385910.040          43.250
        39.750
 117647459.384 7  91673344.52446  22387570.760    22387572.920          46.250
        41.500
 109962560.469 8  85685121.24947  20925178.620    20925179.720          49.500
        46.250
 120486241.819 7  93885390.11346  22927768.900    22927770.420          44.000
        37.750
 124517298.145 6  97026480.21946  23694853.640    23694855.300          41.000
        36.250
 109098391.432 8  85011728.28747  20760734.400    20760733.960          49.750
        46.250
 128968964.000 6 100495289.89345  24541978.240    24541980.220          37.750
        33.500
 14  1  9  8 28 30.0000000  0 11G01G19G03G27G22G06G32G14G20G11G28
 115728648.505 7  90178185.81247  22022429.640    22022433.000          47.500
        44.500
 107283300.095 8  83597365.94848  20415334.700    20415332.800          50.750
        51.500
 109286660.824 8  85158437.16347  20796562.260    20796563.260          50.250
        46.500
 113271854.597 8  88263788.42147  21554919.720    21554922.760          49.000
        46.500
 122983651.279 7  95831403.95246  23403015.480    23403015.020          43.250
        38.750
 117730587.970 7  91738119.94346  22403389.660    22403391.840          46.000
        41.500
 109900736.461 8  85636946.70447  20913413.820    20913415.020          49.500
        46.250
 120467740.300 7  93870973.36246  22924248.160    22924249.720          44.000
        38.500
 124415619.158 6  96947249.90645  23675504.600    23675506.080          41.500
        35.250
 109052897.699 8  84976278.59047  20752077.220    20752076.700          50.000
        46.250
 128904066.847 6 100444720.66945  24529628.960    24529630.540          39.500
        30.000
 14  1  9  8 29  0.0000000  0 11G01G19G03G27G22G06G32G14G20G11G28
 115671708.301 7  90133816.80447  22011594.340    22011597.660          47.250
        44.750
 107289405.314 8  83602123.23548  20416496.480    20416494.620          50.750
        51.500
 109357352.244 8  85213521.33547  20810014.420    20810015.400          50.000
        46.750
 113343044.029 8  88319260.65347  21568466.740    21568469.720          48.750
        47.000
 123073679.535 7  95901555.73246  23420147.380    23420146.820          43.750
        38.000
 117813995.207 7  91803112.50346  22419261.520    22419263.700          46.000
        40.750
 109839401.272 8  85589153.05347  20901742.100    20901743.400          49.750
        46.500
 120449745.832 7  93856951.74146  22920823.860    22920825.480          43.750
        38.750
 124314121.106 6  96868160.57946  23656189.980    23656191.500          41.750
        37.500
 109007673.087 8  84941038.60447  20743471.240    20743470.720          49.750
        46.500
 128839558.178 6 100394454.14745  24517353.700    24517354.800          38.500
        33.000
 14  1  9  8 29 30.0000000  0 11G01G19G03G27G22G06G32G14G20G11G28
 115614917.301 7  90089564.06447  22000787.360    22000790.760          47.250
        44.750
 107295960.797 8  83607231.36548  20417743.980    20417742.100          50.750
        51.500
 109428481.322 8  85268946.54247  20823549.840    20823550.900          50.000
        46.750
 113414610.765 8  88375026.86747  21582085.440    21582088.460          48.500
        47.000
 123163848.741 7  95971817.33246  23437306.140    23437305.540          43.250
        37.500
 117897681.555 7  91868322.55746  22435186.540    22435188.660          45.750
        41.500
 109778558.151 8  85541742.82947  20890164.100    20890165.460          50.000
        46.250
 120432261.882 7  93843327.90246  22917496.660    22917498.440          44.000
        38.250
 124212807.711 6  96789215.15246  23636910.640    23636912.260          41.750
        37.500
 108962720.518 8  84906010.61047  20734916.980    20734916.620          49.750
        46.750
 128775441.956 6 100344493.43445  24505152.960    24505153.900          39.500
        31.500
 14  1  9  8 30  0.0000000  0 11G01G19G03G27G22G06G32G14G20G11G28
 115558272.830 7  90045425.49747  21990008.240    21990011.820          47.000
        45.000
 107302964.396 8  83612688.68648  20419076.740    20419074.920          50.750
        51.500
 109500043.617 8  85324709.32247  20837167.700    20837168.840          50.250
        46.500
 113486550.945 8  88431084.10047  21595775.180    21595778.220          48.500
        46.500
 123254154.209 7  96042185.11446  23454490.860    23454490.240          43.500
        39.250
 117981642.951 7  91933746.92346  22451163.980    22451166.020          46.250
        41.000
 109718205.424 8  85494714.72447  20878679.460    20878680.780          50.000
        46.250
 120415286.836 7  93830100.61446  22914266.280    22914268.000          44.000
        37.750
 124111677.594 7  96710412.54545  23617666.240    23617667.920          42.500
        35.250
 108918038.074 8  84871193.10447  20726414.140    20726413.980          49.750
        46.750
 128711717.357 6 100294837.85545  24493026.840    24493027.460          39.750
        32.500
 14  1  9  8 30 30.0000000  0 11G01G19G03G27G22G06G32G14G20G11G28
 115501778.287 7  90001403.76547  21979257.620    21979261.340          47.000
        44.750
 107310420.471 8  83618498.57848  20420495.620    20420493.820          50.750
        51.250
 109572040.627 8  85380810.83347  20850868.340    20850869.540          50.000
        46.750
 113558866.812 8  88487434.06147  21609536.440    21609539.460          48.500
        46.250
 123344597.463 7  96112660.27146  23471701.880    23471701.100          43.750
        40.000
 118065881.719 7  91999387.42946  22467194.280    22467196.140          46.250
        40.250
 109658347.596 8  85448072.25547  20867289.000    20867290.280          49.750
        46.500
 120398825.085 7  93817273.26546  22911133.620    22911135.180          43.750
        36.750
 124010735.635 7  96631756.51246  23598457.660    23598459.280          42.000
        37.250
 108873630.162 8  84836589.51047  20717963.580    20717963.500          49.750
        46.500
 128648389.360 6 100245491.32245  24480976.280    24480976.600          41.750
        30.000
 14  1  9  8 31  0.0000000  0 11G01G19G03G27G22G06G32G14G20G11G28
 115445430.481 7  89957496.36547  21968534.900    21968538.660          46.750
        44.500
 107318326.207 8  83624658.86148  20422000.040    20421998.300          50.750
        51.500
 109644468.156 8  85437247.81647  20864650.920    20864652.140          50.000
        46.500
 113631553.958 8  88544073.33547  21623368.500    21623371.360          48.750
        46.500
 123435172.663 7  96183238.22646  23488938.020    23488937.020          43.750
        38.250
 118150392.945 7  92065240.26046  22483276.400    22483278.140          46.000
        41.250
 109598982.233 8  85401813.51847  20855992.120    20855993.380          49.500
        46.750
 120382874.350 7  93804844.09646  22908098.320    22908099.680          44.000
        37.750
 123909979.876 7  96553245.58846  23579284.480    23579286.300          42.500
        37.000
 108829494.381 8  84802197.95747  20709564.820    20709564.760          49.750
        46.750
 128585456.341 6 100196452.56045  24469000.880    24469001.080          41.250
        32.250
 14  1  9  8 31 30.0000000  0 11G01G19G03G27G22G06G32G14G20G11G28
 115389233.810 7  89913706.74547  21957841.080    21957844.700          47.000
        44.500
 107326686.698 8  83631173.50348  20423591.020    20423589.320          50.750
        51.500
 109717327.999 8  85494021.66647  20878515.700    20878516.980          50.000
        46.500
 113704615.560 8  88601004.37947  21637271.800    21637274.560          48.750
        46.500
 123525882.334 7  96253920.97446  23506199.680    23506198.560          43.250
        38.250
 118235179.277 7  92131307.43646  22499410.760    22499412.520          46.000
        40.500
 109540114.886 8  85355942.85247  20844789.980    20844791.260          49.750
        46.500
 120367440.174 7  93792817.45646  22905161.360    22905162.620          44.000
        37.750
 123809416.288 6  96474884.38446  23560147.860    23560149.780          41.250
        36.000
 108785636.033 8  84768022.60547  20701218.900    20701218.840          49.750
        46.750
 128522925.023 6 100147726.82744  24457101.600    24457102.120          40.750
        28.750
 14  1  9  8 32  0.0000000  0 11G01G19G03G27G22G06G32G14G20G11G28
 115333185.934 7  89870033.07047  21947175.580    21947179.180          47.000
        45.000
 107335499.676 8  83638040.72448  20425268.120    20425266.360          50.750
        51.250
 109790616.345 8  85551129.40647  20892462.040    20892463.320          50.250
        46.500
 113778047.933 8  88658224.33847  21651245.660    21651248.360          48.750
        46.000
 123616721.912 7  96324704.94646  23523485.920    23523484.900          43.500
        38.000
 118320237.375 7  92197586.38646  22515596.820    22515598.720          45.750
        41.000
 109481743.910 8  85310458.96447  20833682.320    20833683.580          50.000
        46.250
 120352521.280 7  93781192.31546  22902322.440    22902323.680          43.750
        39.000
 123709043.684 6  96396672.02946  23541047.600    23541049.480          41.750
        37.250
 108742053.368 8  84734062.06047  20692925.460    20692925.320          49.750
        46.750
 128460794.235 6 100099313.22445  24445278.580    24445279.100          40.750
        33.250
 14  1  9  8 32 30.0000000  0 11G01G19G03G27G22G06G32G14G20G11G28
 115277287.560 7  89826475.87047  21936538.500    21936542.100          47.250
        45.000
 107344766.789 8  83645261.81248  20427031.580    20427029.800          50.750
        51.250
 109864332.258 8  85608570.32147  20906489.720    20906490.980          50.000
        46.500
 113851850.694 8  88715732.91647  21665289.960    21665292.640          48.750
        46.250
 123707690.234 7  96395589.25846  23540796.600    23540795.740          43.250
        37.250
 118405566.510 7  92264076.52746  22531834.320    22531836.400          45.000
        40.750
 109423871.129 8  85265363.27247  20822669.520    20822670.700          50.000
        46.500
 120338119.522 7  93769970.13946  22899581.840    22899583.160          44.000
        38.500
 123608864.570 7  96318610.42645  23521984.140    23521986.000          42.500
        35.000
 108698748.223 8  84700317.78147  20684684.740    20684684.620          49.750
        46.500
 128399066.357 6 100051213.52245  24433532.180    24433532.520          41.500
        34.250
 14  1  9  8 33  0.0000000  0 11G01G19G03G27G22G06G32G14G20G11G28
 115221537.577 7  89783034.31347  21925929.680    21925933.360          47.250
        45.250
 107354487.317 8  83652836.21248  20428881.360    20428879.560          50.500
        51.500
 109938472.937 8  85666342.23347  20920598.240    20920599.460          50.000
        46.000
 113926021.397 8  88773528.18947  21679404.200    21679406.980          48.500
        45.750
 123798783.707 7  96466571.09146  23558131.040    23558130.400          43.250
        38.000
 118491163.931 7  92330775.72146  22548122.960    22548125.200          45.250
        40.500
 109366496.203 8  85220655.51947  20811751.440    20811752.600          49.750
        46.750
 120324234.667 7  93759150.74146  22896939.580    22896941.100          43.750
        38.750
 123508879.238 7  96240699.79345  23502957.460    23502959.280          42.000
        35.000
 108655720.022 8  84666789.27847  20676496.720    20676496.620          49.750
        46.750
 128337742.145 7 100003428.41945  24421862.680    24421862.900          42.000
        34.750
 14  1  9  8 33 30.0000000  0 11G01G19G03G27G22G06G32G14G20G11G28
 115165937.108 7  89739709.25247  21915349.300    21915353.020          46.750
        45.750
 107364662.924 8  83660765.21548  20430817.740    20430815.960          50.750
        51.500
 110013037.347 8  85724444.29747  20934787.360    20934788.620          49.750
        46.500
 114000559.911 8  88831610.08447  21693588.420    21693591.300          48.500
        46.250
 123890001.382 7  96537649.68746  23575489.200    23575488.640          43.250
        39.250
 118577029.250 7  92397683.65846  22564462.620    22564465.020          45.750
        39.750
 109309621.022 8  85176337.17447  20800928.500    20800929.620          49.750
        46.750
 120310868.548 7  93748735.54446  22894396.140    22894397.660          44.250
        39.250
 123409089.888 7  96162941.87045  23483968.160    23483969.840          42.500
        34.000
 108612970.818 8  84633478.18347  20668361.920    20668361.780          50.000
        46.750
 128276824.510 6  99955960.08546  24410270.380    24410270.900          40.750
        38.000
 14  1  9  8 34  0.0000000  0 11G01G19G03G27G22G06G32G14G20G11G28
 115110485.868 7  89696500.47147  21904797.120    21904801.120          46.250
        45.250
 107375293.669 8  83669048.87448  20432840.740    20432838.980          50.750
        51.250
 110088023.716 8  85782875.17247  20949056.820    20949058.160          50.000
        46.750
 114075464.572 8  88889977.27947  21707842.320    21707845.260          48.250
        46.000
 123981340.974 7  96608823.27646  23592870.680    23592870.100          43.500
        38.250
 118663160.067 7  92464798.48246  22580852.880    22580855.300          45.500
        39.750
 109253246.279 8  85132408.78047  20790200.780    20790201.920          50.000
        46.500
 120298021.943 7  93738725.15646  22891951.660    22891953.080          44.500
        38.250
 123309497.383 7  96085337.37646  23465016.380    23465017.920          43.250
        36.500
 108570501.200 8  84600384.94847  20660280.300    20660280.120          49.750
        46.750
 128216314.614 6  99908809.48245  24398755.640    24398756.340          41.250
        34.750
 14  1  9  8 34 30.0000000  0 11G01G19G03G27G22G06G32G14G20G11G28
 115055184.080 7  89653408.15247  21894273.440    21894277.500          47.000
        44.750
 107386380.227 8  83677687.71248  20434950.500    20434948.720          50.750
        51.250
 110163430.172 8  85841633.38847  20963406.300    20963407.660          50.000
        46.500
 114150734.318 8  88948628.94947  21722165.700    21722168.680          48.500
        46.000
 124072800.453 7  96680090.28146  23610275.020    23610274.420          43.250
        38.750
 118749555.838 7  92532119.76946  22597293.640    22597295.900          45.500
        39.750
 109197372.955 8  85088871.10347  20779568.480    20779569.680          50.000
        46.750
 120285696.363 7  93729120.76746  22889606.300    22889607.600          45.000
        37.500
 123210103.742 7  96007887.81846  23446102.440    23446103.880          43.250
        36.750
 108528312.118 8  84567510.31247  20652251.980    20652251.840          49.750
        46.750
 128156214.344 6  99861978.10745  24387318.780    24387319.580          40.500
        35.000
 14  1  9  8 35  0.0000000  0 11G01G19G03G27G22G06G32G14G20G11G28
 115000032.495 7  89610432.88547  21883778.480    21883782.400          47.250
        44.750
 107397923.617 8  83686682.51848  20437147.160    20437145.360          50.500
        51.250
 110239255.617 8  85900718.09047  20977835.540    20977836.920          50.000
        46.500
 114226368.598 8  89007564.67647  21736558.440    21736561.420          48.000
        45.000
 124164378.532 7  96751449.73546  23627701.940    23627701.320          43.250
        37.000
 118836215.453 7  92599646.63646  22613784.560    22613786.740          45.250
        41.000
 109142002.522 8  85045725.28047  20769031.860    20769033.140          50.000
        47.250
 120273893.112 7  93719923.38946  22887360.300    22887361.560          44.000
        37.250
 123110910.862 7  95930594.68345  23427226.700    23427228.020          43.750
        34.000
 108486405.026 8  84534855.40047  20644277.320    20644277.180          49.750
        46.500
 128096526.290 6  99815467.94745  24375960.240    24375961.260          41.250
        35.000
 14  1  9  8 35 30.0000000  0 11G01G19G03G27G22G06G32G14G20G11G28
 114945030.654 7  89567574.28147  21873312.040    21873315.840          47.000
        45.000
 107409923.908 8  83696033.35348  20439430.760    20439428.960          50.500
        51.250
 110315497.971 8  85960127.65447  20992344.020    20992345.420          49.750
        46.250
 114302365.579 8  89066783.01447  21751020.160    21751023.160          48.250
        46.000
 124256072.668 7  96822899.59146  23645150.820    23645150.380          42.250
        38.250
 118923136.724 7  92667377.41146  22630325.220    22630327.420          45.500
        40.750
 109087135.343 8  85002971.61047  20758591.000    20758592.320          50.000
        47.000
 120262612.498 7  93711133.27846  22885213.720    22885215.000          44.250
        37.500
 123011919.691 7  95853458.71446  23408389.340    23408390.480          43.000
        36.250
 108444780.376 8  84502420.56547  20636356.460    20636356.200          50.000
        46.500
 128037251.308 6  99769279.61745  24364680.420    24364681.460          41.500
        34.000
 14  1  9  8 36  0.0000000  0 11G01G19G03G27G22G06G32G14G20G11G28
 114890179.439 7  89524833.05847  21862874.220    21862878.120          47.250
        45.000
 107422382.523 8  83705741.32248  20441801.580    20441799.780          50.750
        51.250
 110392156.324 8  86019861.36647  21006931.620    21006933.040          50.000
        46.000
 114378724.757 8  89126283.60747  21765550.880    21765553.860          48.500
        45.500
 124347881.800 7  96894439.02746  23662621.420    23662621.280          42.000
        37.250
 119010319.226 7  92735311.72446  22646915.580    22646917.760          45.500
        41.000
 109032773.008 8  84960611.32447  20748246.240    20748247.620          50.000
        47.000
 120251856.396 7  93702751.84146  22883166.920    22883168.180          44.250
        38.750
 122913132.255 7  95776481.52445  23389590.640    23389591.840          42.500
        35.500
 108403439.976 8  84470207.22947  20628489.700    20628489.360          49.750
        46.750
 127978391.737 6  99723414.95745  24353479.760    24353480.880          41.500
        35.250
 14  1  9  8 36 30.0000000  0 11G01G19G03G27G22G06G32G14G20G11G28
 114835477.815 7  89482208.38347  21852464.860    21852468.820          47.000
        44.500
 107435298.457 8  83715805.64348  20444259.400    20444257.620          50.500
        51.250
 110469227.741 8  86079916.95047  21021597.860    21021599.280          50.000
        46.000
 114455443.711 8  89186064.53547  21780150.140    21780153.020          48.000
        45.750
 124439802.221 7  96966065.19846  23680113.240    23680113.400          42.500
        39.250
 119097760.139 7  92803447.40646  22663555.140    22663557.240          45.750
        39.500
 108978915.176 8  84918644.15247  20737997.520    20737998.800          50.000
        46.750
 120241624.207 7  93694778.67146  22881219.780    22881220.960          44.000
        39.000
 122814548.959 7  95699663.39646  23370830.680    23370832.020          42.000
        36.250
 108362383.222 8  84438214.92947  20620676.900    20620676.560          49.750
        47.250
 127919948.268 6  99677874.54845  24342358.360    24342359.480          41.250
        34.500
 14  1  9  8 37  0.0000000  0 11G01G19G03G27G22G06G32G14G20G11G28
 114780928.734 7  89439702.58147  21842084.500    21842088.520          47.000
        45.250
 107448675.102 8  83726228.95648  20446804.940    20446803.160          50.750
        51.250
 110546712.910 8  86140294.93747  21036342.840    21036344.260          50.000
        46.000
 114532524.038 8  89246127.05947  21794818.180    21794820.880          48.500
        45.250
 124531835.111 7  97037779.01746  23697626.600    23697626.960          42.750
        37.750
 119185460.833 7  92871785.50846  22680244.140    22680246.240          45.750
        40.750
 108925565.549 8  84877072.98747  20727845.460    20727846.660          50.000
        47.000
 120231920.129 7  93687217.01346  22879373.080    22879374.320          43.750
        37.500
 122716174.062 7  95623007.63246  23352110.300    23352111.840          42.000
        37.750
 108321614.155 8  84406446.79647  20612918.880    20612918.560          49.750
        47.000
 127861925.432 6  99632661.92245  24331316.880    24331318.220          40.750
        33.750
 14  1  9  8 37 30.0000000  0 11G01G19G03G27G22G06G32G14G20G11G28
 114726527.903 7  89397312.28847  21831732.340    21831736.360          46.750
        45.250
 107462508.841 8  83737008.45248  20449437.460    20449435.660          50.750
        51.250
 110624605.792 8  86200990.61547  21051165.400    21051166.840          49.750
        46.250
 114609959.960 8  89306466.67147  21809553.840    21809556.520          48.500
        45.750
 124623974.059 7  97109575.45546  23715160.180    23715160.700          42.000
        38.250
 119273415.494 7  92940321.50146  22696981.440    22696983.620          45.500
        39.500
 108872720.458 8  84835894.97347  20717789.360    20717790.540          50.000
        47.250
 120222740.389 7  93680063.93646  22877626.200    22877627.520          44.000
        37.000
 122618004.424 6  95546511.83446  23333428.980    23333430.680          41.750
        38.500
 108281129.624 8  84374900.38447  20605214.960    20605214.740          49.750
        46.750
 127804320.382 6  99587774.84645  24320355.000    24320356.400          41.750
        34.000
 14  1  9  8 38  0.0000000  0 11G01G19G03G27G22G06G32G14G20G11G28
 114672277.518 7  89355039.24147  21821408.840    21821412.800          47.250
        44.750
 107476801.818 8  83748145.79748  20452157.340    20452155.580          50.500
        51.250
 110702906.824 8  86262004.34347  21066065.640    21066067.060          49.750
        46.250
 114687752.323 8  89367084.02147  21824357.280    21824360.020          48.250
        45.500
 124716219.150 7  97181454.58246  23732713.900    23732714.560          42.000
        38.250
 119361624.693 7  93009055.83546  22713767.140    22713769.340          45.250
        40.000
 108820382.798 8  84795112.36547  20707829.840    20707831.020          50.000
        47.000
 120214087.863 7  93673321.69046  22875979.820    22875981.020          44.500
        38.250
 122520043.776 7  95470178.86045  23314787.620    23314789.320          43.000
        35.250
 108240932.297 8  84343577.76947  20597565.680    20597565.480          49.750
        47.000
 127747137.033 6  99543216.34945  24309473.400    24309474.840          41.000
        34.500
 14  1  9  8 38 30.0000000  0 11G01G19G03G27G22G06G32G14G20G11G28
 114618178.622 7  89312884.24147  21811114.120    21811118.080          47.250
        44.750
 107491555.435 8  83759642.07748  20454964.880    20454963.160          50.500
        51.250
 110781614.917 8  86323335.25247  21081043.360    21081044.700          50.000
        45.750
 114765900.709 8  89427978.79447  21839228.440    21839231.240          48.000
        45.750
 124808569.335 7  97253415.60646  23750287.680    23750288.340          42.750
        38.500
 119450087.800 7  93077988.01846  22730601.160    22730603.460          44.750
        40.500
 108768554.131 8  84754726.38647  20697967.140    20697968.360          50.000
        47.250
 120205964.274 7  93666991.57646  22874434.060    22874435.060          44.750
        36.750
 122422294.588 7  95394010.70646  23296186.500    23296188.200          42.500
        37.250
 108201023.800 8  84312480.21247  20589971.360    20589971.140          49.750
        47.000
 127690377.568 6  99498988.19045  24298672.460    24298674.020          41.250
        34.250
 14  1  9  8 39  0.0000000  0 11G01G19G03G27G22G06G32G14G20G11G28
 114564229.674 7  89270846.07547  21800847.960    21800851.980          47.500
        45.250
 107506768.550 8  83771496.40948  20457859.840    20457858.180          50.500
        51.250
 110860726.496 8  86384980.56947  21096097.860    21096099.140          49.750
        45.750
 114844402.100 8  89489148.64847  21854166.740    21854169.660          48.000
        45.500
 124901020.867 7  97325455.60346  23767880.800    23767881.340          42.750
        38.000
 119538801.627 7  93147115.57346  22747482.860    22747485.240          45.000
        39.750
 108717233.583 8  84714736.34147  20688201.160    20688202.460          50.000
        47.250
 120198368.719 7  93661072.92546  22872988.780    22872989.700          44.500
        37.250
 122324756.003 7  95318006.63345  23277625.660    23277627.200          43.500
        35.500
 108161403.565 8  84281607.26947  20582431.920    20582431.640          50.000
        46.750
 127634042.006 6  99455090.37046  24287952.200    24287953.800          40.500
        37.250
 14  1  9  8 39 30.0000000  0 11G01G19G03G27G22G06G32G14G20G11G28
 114510432.901 7  89228926.49547  21790610.860    21790614.860          47.500
        45.000
 107522443.627 8  83783710.70848  20460842.720    20460841.120          50.500
        51.250
 110940241.909 8  86446940.55647  21111229.200    21111230.520          49.750
        45.500
 114923257.216 8  89550594.11547  21869172.420    21869175.380          48.250
        45.250
 124993573.894 7  97397574.67746  23785493.240    23785493.700          42.750
        37.500
 119627766.802 7  93216438.98046  22764412.460    22764414.920          45.250
        39.250
 108666423.872 8  84675144.34647  20678532.360    20678533.740          49.750
        47.250
 120191304.333 7  93655568.17346  22871644.520    22871645.460          44.500
        37.000
 122227431.800 7  95242169.60646  23259105.600    23259107.060          43.750
        37.000
 108122074.665 8  84250961.33847  20574947.960    20574947.600          50.000
        47.250
 127578134.189 6  99411525.85345  24277313.260    24277314.900          41.000
        33.000
 14  1  9  8 40  0.0000000  0 11G01G19G03G27G22G06G32G14G20G11G28
 114456786.966 7  89187124.44147  21780402.500    21780406.340          47.750
        44.500
 107538579.492 8  83796284.06248  20463913.320    20463911.720          50.500
        51.250
 111020157.961 8  86509212.73447  21126436.780    21126438.140          49.750
        45.750
 115002463.257 8  89612313.03247  21884244.940    21884247.880          48.250
        45.250
 125086225.022 7  97469770.18046  23803124.440    23803124.620          42.750
        36.500
 119716980.328 7  93285955.90346  22781389.280    22781391.900          45.000
        39.750
 108616124.254 8  84635949.83547  20668960.600    20668962.100          50.000
        47.000
 120184770.114 7  93650476.54346  22870401.160    22870402.200          44.500
        38.250
 122130321.856 7  95166499.55246  23240626.240    23240627.900          43.000
        37.000
 108083036.359 8  84220541.85247  20567519.280    20567518.960          50.000
        47.250
 127522653.994 6  99368294.50245  24266755.900    24266757.200          41.750
        35.000
 14  1  9  8 40 30.0000000  0 11G01G19G03G27G22G06G32G14G20G11G28
 114403294.221 7  89145441.75847  21770223.220    21770227.020          47.750
        45.000
 107555178.853 8  83809218.58748  20467072.140    20467070.500          50.750
        51.250
 111100474.790 8  86571797.20547  21141720.640    21141722.000          49.750
        45.750
 115082021.054 7  89674306.05147  21899384.400    21899387.340          47.750
        45.500
 125178974.785 7  97542042.53046  23820774.420    23820774.420          42.250
        38.000
 119806442.719 7  93355666.74846  22798413.460    22798416.120          45.250
        39.500
 108566337.604 8  84597155.03647  20659486.480    20659488.040          50.000
        47.000
 120178769.100 7  93645800.41846  22869259.320    22869260.320          44.750
        39.000
 122033429.643 7  95090999.14146  23222188.280    23222189.980          42.750
        37.000
 108044292.128 8  84190351.52047  20560146.520    20560146.240          49.750
        47.250
 127467605.306 6  99325399.38845  24256280.540    24256281.780          41.250
        34.750
 14  1  9  8 41  0.0000000  0 11G01G19G03G27G22G06G32G14G20G11G28
 114349952.994 7  89103877.13747  21760072.740    21760076.540          47.500
        45.250
 107572240.059 8  83822512.98448  20470318.840    20470317.160          50.500
        51.250
 111181188.593 8  86634690.99847  21157080.020    21157081.400          49.250
        45.750
 115161927.455 8  89736570.68947  21914590.180    21914593.180          48.000
        45.000
 125271819.054 7  97614388.51146  23838442.280    23838442.280          42.250
        37.000
 119896150.799 7  93425569.03646  22815484.480    22815487.080          45.250
        39.750
 108517062.787 8  84558759.05847  20650109.820    20650111.340          50.000
        47.250
 120173300.046 7  93641538.80346  22868218.680    22868219.740          44.500
        38.000
 121936755.073 7  95015668.30346  23203791.680    23203793.380          43.000
        36.000
 108005840.976 8  84160389.55247  20552829.500    20552829.240          50.000
        47.250
 127412987.862 6  99282840.31245  24245887.300    24245888.500          41.500
        33.750
 14  1  9  8 41 30.0000000  0 11G01G19G03G27G22G06G32G14G20G11G28
 114296763.388 8  89062430.66847  21749951.120    21749954.980          48.250
        45.750
 107589763.272 8  83836167.39448  20473653.420    20473651.780          50.500
        51.250
 111262297.375 8  86697892.57447  21172514.480    21172515.980          49.500
        45.750
 115242180.977 8  89799105.83447  21929862.000    21929865.080          48.000
        45.250
 125364755.747 7  97686806.52846  23856127.780    23856127.740          42.000
        36.250
 119986102.794 7  93495661.38946  22832601.880    22832604.420          45.000
        39.750
 108468300.333 8  84520762.32847  20640830.700    20640832.100          50.000
        47.000
 120168363.552 7  93637692.17246  22867279.400    22867280.300          45.250
        37.750
 121840299.307 7  94940507.99746  23185436.720    23185438.400          43.250
        36.250
 107967683.415 8  84130656.35947  20545568.380    20545568.140          50.000
        47.500
 127358803.071 6  99240618.39445  24235576.440    24235577.500          41.500
        34.500
 14  1  9  8 42  0.0000000  0 11G01G19G03G27G22G06G32G14G20G11G28
 114243727.772 8  89021104.19247  21739858.900    21739862.700          48.250
        45.000
 107607751.429 8  83850184.10148  20477076.460    20477074.880          50.750
        51.250
 111343801.583 8  86761402.27547  21188024.240    21188025.800          49.750
        45.500
 115322782.507 7  89861912.14247  21945199.980    21945203.140          47.750
        45.000
 125457785.272 6  97759296.89346  23873830.900    23873830.900          41.750
        38.000
 120076299.558 7  93565944.48546  22849765.840    22849768.320          45.000
        38.000
 108420053.143 8  84483167.10747  20631649.640    20631650.900          50.250
        47.000
 120163962.523 7  93634262.77446  22866441.900    22866442.820          44.500
        38.500
 121744065.703 7  94865520.79346  23167124.020    23167125.680          43.500
        37.000
 107929823.099 8  84101154.78847  20538363.780    20538363.540          49.750
        47.250
 127305054.894 6  99198736.68445  24225348.600    24225349.580          41.500
        33.500
 14  1  9  8 42 30.0000000  0 11G01G19G03G27G22G06G32G14G20G11G28
 114190844.220 8  88979896.19447  21729795.540    21729799.360          48.000
        45.500
 107626202.437 8  83864561.46448  20480587.640    20480586.020          50.500
        51.250
 111425697.390 8  86825217.11047  21203608.560    21203610.120          49.500
        45.500
 115403728.474 7  89924986.84547  21960603.460    21960606.740          47.750
        45.000
 125550903.927 7  97831856.71746  23891550.800    23891551.120          42.000
        38.500
 120166737.142 7  93636415.21346  22866975.600    22866978.140          44.500
        39.750
 108372319.590 8  84445972.11747  20622566.280    20622567.480          50.000
        47.250
 120160095.589 7  93631249.55946  22865705.940    22865707.080          44.250
        38.000
 121648053.611 7  94790706.18345  23148853.480    23148855.080          44.000
        35.500
 107892258.427 8  84071883.59247  20531215.400    20531215.200          50.000
        47.500
 127251742.469 6  99157194.52945  24215203.680    24215204.620          41.750
        34.750
 14  1  9  8 43  0.0000000  0 11G01G19G03G27G22G06G32G14G20G11G28
 114138113.817 7  88938807.53447  21719761.220    21719765.180          47.500
        45.750
 107645117.419 8  83879300.37348  20484187.080    20484185.500          50.500
        51.250
 111507983.797 8  86889336.31447  21219267.200    21219268.720          49.500
        45.750
 115485018.463 7  89988329.62147  21976072.440    21976075.860          47.750
        45.250
 125644110.652 7  97904485.14346  23909287.540    23909287.940          42.000
        38.500
 120257415.155 7  93707073.28846  22884231.140    22884233.740          44.500
        38.750
 108325101.226 8  84409178.56847  20613580.940    20613582.080          50.000
        47.000
 120156764.160 7  93628653.61146  22865071.860    22865073.280          44.250
        38.750
 121552265.343 7  94716065.98145  23130625.660    23130627.060          44.000
        35.500
 107854991.331 8  84042844.27047  20524123.760    20524123.540          50.000
        47.500
 127198868.439 6  99115994.00445  24205142.120    24205143.080          41.750
        35.250
 14  1  9  8 43 30.0000000  0 11G01G19G03G27G22G06G32G14G20G11G28
 114085535.132 7  88897837.09947  21709755.780    21709759.780          47.750
        45.250
 107664495.383 8  83894400.04748  20487874.600    20487873.100          50.500
        51.250
 111590657.060 8  86953756.96347  21234999.440    21235001.020          49.750
        45.250
 115566649.388 7  90051938.05647  21991606.340    21991609.800          47.750
        44.750
 125737401.952 6  97977179.49846  23927040.420    23927040.840          41.750
        37.500
 120348330.222 7  93777916.10746  22901531.780    22901534.380          44.000
        41.000
 108278396.961 8  84372785.61647  20604693.380    20604694.520          49.750
        47.000
 120153967.488 7  93626474.34546  22864539.680    22864541.180          45.000
        37.000
 121456700.654 7  94641600.01346  23112440.340    23112441.700          43.750
        36.750
 107818021.460 8  84014036.56047  20517088.640    20517088.480          50.000
        47.500
 127146432.484 6  99075134.75345  24195163.920    24195164.880          41.750
        33.250
 14  1  9  8 44  0.0000000  0 11G01G19G03G27G22G06G32G14G20G11G28
 114033112.036 7  88856987.90747  21699779.940    21699783.920          47.750
        45.500
 107684340.237 8  83909863.53048  20491651.000    20491649.480          50.500
        51.000
 111673719.008 8  87018480.48047  21250805.640    21250807.260          49.250
        45.250
 115648623.477 7  90115813.89047  22007205.580    22007208.980          47.500
        45.000
 125830779.331 6  98049940.93145  23944809.620    23944810.080          41.000
        35.250
 120439484.548 7  93848945.34146  22918877.800    22918880.680          44.000
        39.500
 108232211.101 8  84336796.62247  20595904.440    20595905.600          50.000
        47.250
 120151709.588 7  93624714.90046  22864110.020    22864111.520          44.750
        38.000
 121361364.250 7  94567311.91446  23094298.500    23094299.760          43.500
        36.500
 107781353.257 8  83985463.91247  20510110.880    20510110.780          49.750
        47.250
 127094439.788 7  99034620.95245  24185270.060    24185271.020          42.000
        34.750
 14  1  9  8 44 30.0000000  0 11G01G19G03G27G22G06G32G14G20G11G28
 113980842.117 7  88816258.07347  21689833.280    21689837.320          47.750
        46.000
 107704649.188 8  83925688.64248  20495515.720    20495514.140          50.500
        51.000
 111757164.943 8  87083503.20947  21266684.880    21266686.540          49.500
        45.000
 115730936.771 7  90179954.04347  22022869.420    22022872.720          47.500
        44.750
 125924238.547 6  98122766.13946  23962594.240    23962594.800          40.500
        37.000
 120530873.784 7  93920157.60946  22936268.620    22936271.640          44.500
        39.000
 108186541.595 8  84301209.99447  20587213.800    20587215.000          50.000
        47.500
 120149988.356 7  93623373.63346  22863782.560    22863783.960          44.750
        37.750
 121266255.444 7  94493201.16646  23076199.860    23076201.300          43.250
        38.750
 107744984.975 8  83957124.97047  20503190.200    20503190.120          50.000
        47.500
 127042889.269 7  98994451.69045  24175460.200    24175461.180          42.000
        34.250
 14  1  9  8 45  0.0000000  0 11G01G19G03G27G22G06G32G14G20G11G28
 113928725.552 7  88775647.73047  21679915.840    21679919.960          47.750
        45.500
 107725422.958 8  83941875.95648  20499468.880    20499467.240          50.500
        51.000
 111840993.174 8  87148823.83147  21282636.920    21282638.600          49.500
        45.000
 115813587.706 7  90244357.28947  22038597.480    22038600.720          47.500
        44.500
 126017777.556 6  98195653.55346  23980393.900    23980394.840          39.750
        37.750
 120622496.838 7  93991552.07446  22953704.020    22953707.020          44.500
        39.250
 108141388.764 8  84266025.96647  20578621.520    20578622.720          50.000
        47.500
 120148804.441 7  93622451.04946  22863557.420    22863558.720          44.750
        39.000
 121171375.445 7  94419268.68546  23058144.800    23058146.340          44.000
        37.000
 107708917.625 8  83929020.51547  20496326.840    20496326.700          49.750
        47.500
 126991782.187 7  98954627.98546  24165734.840    24165735.920          42.500
        36.500
 14  1  9  8 45 30.0000000  0 11G01G19G03G27G22G06G32G14G20G11G28
 113876763.535 7  88735157.82647  21670027.780    21670031.980          47.500
        46.000
 107746662.761 8  83958426.41148  20503510.720    20503509.080          50.750
        50.750
 111925202.627 8  87214441.50247  21298661.540    21298663.220          49.500
        45.000
 115896575.864 7  90309023.32147  22054389.720    22054392.920          47.750
        44.500
 126111395.414 6  98268602.38845  23998208.540    23998209.940          40.000
        35.000
 120714352.691 7  94063127.95246  22971183.740    22971186.680          44.000
        40.000
 108096754.191 8  84231245.77247  20570127.940    20570129.100          50.250
        47.250
 120148159.336 7  93621948.30046  22863434.700    22863436.060          44.000
        39.000
 121076726.502 7  94345516.27846  23040133.700    23040135.460          43.500
        38.750
 107673153.433 8  83901152.29747  20489521.160    20489521.100          49.750
        47.750
 126941121.198 7  98915151.87245  24156094.300    24156095.540          42.250
        35.750
 14  1  9  8 46  0.0000000  0 11G01G19G03G27G22G06G32G14G20G11G28
 113824955.814 7  88694788.14947  21660169.080    21660173.240          47.500
        45.750
 107768368.225 8  83975339.71648  20507641.200    20507639.540          50.500
        51.250
 112009790.665 8  87280354.17847  21314758.160    21314759.860          49.250
        45.000
 115979899.376 7  90373950.64747  22070245.660    22070248.880          47.500
        44.250
 126205089.958 6  98341610.98846  24016037.980    24016039.660          40.750
        38.000
 120806439.297 7  94134883.66546  22988707.340    22988710.360          44.000
        39.500
 108052637.855 8  84196869.39947  20561732.940    20561734.100          50.000
        47.750
 120148053.066 7  93621865.43346  22863414.400    22863416.000          44.000
        39.000
 120982308.962 7  94271944.17146  23022166.600    23022168.480          44.250
        36.500
 107637692.382 8  83873520.29148  20482773.140    20482773.180          49.750
        48.000
 126890907.201 7  98876024.03445  24146538.900    24146540.040          42.250
        35.000
 14  1  9  8 46 30.0000000  0 11G01G19G03G27G22G06G32G14G20G11G28
 113773301.858 7  88654538.29947  21650339.620    21650343.740          47.500
        45.250
 107790538.844 8  83992615.48048  20511860.160    20511858.560          50.500
        51.000
 112094754.633 8  87346559.78347  21330926.320    21330928.040          49.250
        45.000
 116063555.930 7  90439137.49547  22086164.960    22086168.120          47.250
        44.500
 126298858.670 6  98414677.39046  24033881.740    24033883.640          40.750
        38.000
 120898754.395 7  94206817.37246  23006274.400    23006277.520          43.750
        39.250
 108009039.495 8  84162896.64547  20553436.480    20553437.660          50.250
        47.500
 120148485.371 7  93622202.22846  22863496.680    22863498.320          44.750
        39.500
 120888123.894 7  94198553.23046  23004243.720    23004245.600          43.250
        37.250
 107602534.779 8  83846124.74647  20476082.880    20476082.960          49.750
        47.750
 126841140.654 7  98837244.85846  24137068.640    24137069.860          42.000
        37.500
 14  1  9  8 47  0.0000000  0 11G01G19G03G27G22G06G32G14G20G11G28
 113721802.298 7  88614408.74947  21640539.580    21640543.620          47.750
        46.000
 107813174.983 8  84010253.99348  20516167.660    20516166.140          50.500
        51.000
 112180092.898 8  87413057.04347  21347165.720    21347167.400          49.250
        45.000
 116147544.469 7  90504583.02747  22102147.400    22102150.660          47.250
        44.000
 126392700.064 6  98487800.40545  24051739.320    24051741.400          40.750
        35.000
 120991296.641 7  94278928.11346  23023884.660    23023887.840          44.000
        38.750
 107965959.884 8  84129328.11047  20545238.700    20545239.880          50.000
        47.250
 120149456.836 7  93622959.11946  22863681.620    22863683.180          44.500
        38.750
 120794173.080 7  94125344.80946  22986365.400    22986367.280          44.000
        38.750
 107567682.038 8  83818966.75647  20469450.580    20469450.720          49.750
        47.750
 126791823.710 7  98798816.04545  24127683.980    24127685.140          42.500
        35.250
 14  1  9  8 47 30.0000000  0 11G01G19G03G27G22G06G32G14G20G11G28
 113670458.660 8  88574400.70947  21630769.300    21630773.320          48.000
        46.000
 107836278.397 8  84028256.61048  20520564.060    20520562.580          50.500
        51.000
 112265804.955 8  87479845.56847  21363476.300    21363477.880          49.250
        45.000
 116231864.808 7  90570287.10047  22118193.020    22118196.440          47.250
        44.250
 126486613.943 6  98560979.90946  24069610.720    24069612.840          41.750
        37.500
 121084065.874 7  94351215.72146  23041538.140    23041541.400          44.250
        39.250
 107923400.705 8  84096165.10147  20537139.880    20537141.160          50.000
        47.500
 120150969.379 7  93624137.63946  22863969.520    22863971.140          44.000
        39.500
 120700459.005 7  94052320.86146  22968532.140    22968533.860          43.750
        37.500
 107533136.623 8  83792048.22648  20462876.840    20462876.940          50.000
        48.250
 126742958.738 7  98760739.39745  24118385.320    24118386.400          42.000
        34.500
 14  1  9  8 48  0.0000000  0 11G01G19G03G27G22G06G32G14G20G11G28
 113619269.624 8  88534513.13247  21621028.460    21621032.340          48.000
        45.750
 107859847.549 8  84046622.13648  20525049.160    20525047.680          50.500
        50.750
 112351887.304 8  87546922.63647  21379857.400    21379858.880          49.500
        44.500
 116316513.912 7  90636247.36547  22134301.260    22134304.740          47.500
        43.750
 126580596.295 6  98634212.77845  24087495.240    24087497.240          41.500
        35.500
 121177058.790 7  94423677.60446  23059234.280    23059237.560          44.500
        38.750
 107881360.818 8  84063406.73547  20529139.880    20529141.260          50.000
        47.750
 120153022.049 7  93625737.04446  22864360.180    22864361.900          44.250
        38.500
 120606981.412 7  93979481.17446  22950743.940    22950745.600          43.750
        38.250
 107498897.991 8  83765368.75247  20456361.500    20456361.520          50.000
        47.750
 126694545.693 6  98723014.92246  24109172.580    24109173.700          41.250
        36.000
 14  1  9  8 48 30.0000000  0 11G01G19G03G27G22G06G32G14G20G11G28
 113568236.672 8  88494747.18547  21611317.300    21611321.140          48.000
        46.250
 107883883.773 8  84065351.62148  20529623.160    20529621.680          50.500
        50.750
 112438339.175 8  87614287.64447  21396308.800    21396310.260          49.250
        44.500
 116401491.528 7  90702463.60747  22150472.120    22150475.540          47.250
        44.750
 126674646.779 6  98707498.73445  24105392.700    24105394.500          41.250
        35.750
 121270275.131 7  94496313.59146  23076972.940    23076976.120          44.500
        38.500
 107839841.999 8  84031054.40147  20521239.060    20521240.580          50.000
        47.750
 120155616.276 7  93627758.45246  22864853.780    22864855.660          44.000
        38.000
 120513742.944 7  93906827.82046  22933001.160    22933002.720          44.250
        37.500
 107464968.195 8  83738929.92547  20449904.940    20449904.880          49.750
        47.750
 126646587.254 6  98685644.66546  24100046.340    24100047.440          41.250
        37.250
 14  1  9  8 49  0.0000000  0 11G01G19G03G27G22G06G32G14G20G11G28
 113517357.891 7  88455101.38247  21601635.420    21601639.240          47.750
        46.250
 107908385.079 8  84084443.51148  20534285.640    20534284.160          50.250
        50.750
 112525156.242 8  87681937.21447  21412829.620    21412831.160          49.250
        44.750
 116486793.941 7  90768932.94247  22166704.800    22166708.200          47.250
        44.000
 126768761.721 6  98780834.90946  24123302.520    24123304.140          41.250
        37.750
 121363711.173 7  94569120.77246  23094753.460    23094756.640          43.750
        39.250
 107798842.170 8  83999106.47647  20513437.040    20513438.660          50.000
        47.500
 120158750.161 7  93630200.37946  22865450.140    22865452.080          44.000
        37.750
 120420742.829 7  93834360.18846  22915303.980    22915305.380          43.750
        38.500
 107431345.645 8  83712730.51347  20443506.840    20443506.740          49.750
        47.750
 126599082.049 6  98648627.58745  24091006.360    24091007.460          40.250
        35.500
 14  1  9  8 49 30.0000000  0 11G01G19G03G27G22G06G32G14G20G11G28
 113466636.649 8  88415578.31847  21591983.480    21591987.340          48.000
        46.500
 107933354.995 8  84103900.54148  20539037.260    20539035.760          50.250
        50.750
 112612339.501 8  87749872.13147  21429420.120    21429421.780          49.250
        44.500
 116572422.792 7  90835656.63747  22182999.560    22183002.840          47.000
        44.000
 126862942.383 6  98854222.26246  24141224.720    24141226.300          41.000
        36.750
 121457368.307 7  94642100.23646  23112575.960    23112579.080          44.000
        39.000
 107758364.936 8  83967565.75247  20505734.480    20505736.120          50.000
        47.750
 120162427.312 7  93633065.62346  22866149.860    22866151.820          44.000
        39.000
 120327985.097 7  93762081.43146  22897652.900    22897654.280          44.000
        37.500
 107398035.055 8  83686774.18547  20437168.060    20437168.000          50.000
        47.750
 126552035.054 6  98611967.56845  24082053.540    24082054.700          40.750
        35.000
 14  1  9  8 50  0.0000000  0 11G01G19G03G27G22G06G32G14G20G11G28
 113416071.074 8  88376176.55947  21582361.200    21582365.140          48.000
        46.250
 107958791.464 8  84123721.12348  20543877.660    20543876.180          50.500
        50.750
 112699885.189 8  87818089.46447  21446079.560    21446081.300          49.250
        44.500
 116658374.325 7  90902631.77247  22199355.660    22199358.940          47.250
        44.250
 126957184.788 6  98927657.76346  24159158.760    24159160.080          41.500
        36.000
 121551242.794 7  94715249.05846  23130439.760    23130442.800          43.500
        38.750
 107718408.466 8  83936430.82647  20498131.040    20498132.660          50.000
        47.500
 120166645.923 7  93636352.82446  22866952.640    22866954.560          44.000
        38.250
 120235469.039 7  93689991.00346  22880047.800    22880049.200          44.000
        38.250
 107365034.951 8  83661059.77947  20430888.340    20430888.320          49.750
        47.750
 126505445.223 7  98575663.78545  24073187.900    24073189.060          42.500
        33.000
 14  1  9  8 50 30.0000000  0 11G01G19G03G27G22G06G32G14G20G11G28
 113365663.738 8  88336898.11347  21572769.000    21572773.060          48.000
        46.750
 107984696.828 8  84143907.07848  20548807.320    20548805.880          50.500
        50.750
 112787793.366 8  87886589.25547  21462807.960    21462809.760          49.000
        45.000
 116744649.416 7  90969859.04147  22215773.300    22215776.620          46.750
        44.250
 127051489.398 6  99001141.71946  24177104.600    24177105.720          41.750
        36.000
 121645335.082 7  94788567.59146  23148344.880    23148348.020          43.250
        39.000
 107678975.389 8  83905703.73247  20490627.200    20490628.760          50.250
        47.500
 120171408.493 7  93640063.88546  22867858.980    22867860.960          44.250
        39.750
 120143198.230 7  93618091.67846  22862489.300    22862490.800          44.500
        37.750
 107332348.875 8  83635590.08547  20424668.380    20424668.280          49.750
        47.500
 126459316.348 7  98539719.13445  24064410.120    24064410.980          42.250
        35.000
 14  1  9  8 51  0.0000000  0 11G01G19G03G27G22G06G32G14G20G11G28
 113315413.986 8  88297742.46047  21563206.720    21563210.920          48.250
        46.750
 108011070.057 8  84164457.59748  20553826.000    20553824.540          50.250
        50.500
 112876060.720 8  87955368.90747  21479604.700    21479606.560          49.000
        44.250
 116831245.493 7  91037336.40147  22232251.920    22232255.300          46.750
        44.000
 127145853.305 6  99074671.89545  24195061.640    24195062.540          41.000
        34.750
 121739642.865 7  94862054.05646  23166291.040    23166294.260          44.000
        37.000
 107640064.986 8  83875383.91147  20483222.860    20483224.340          50.000
        47.500
 120176714.584 7  93644198.47946  22868868.760    22868870.880          44.250
        39.000
 120051173.405 7  93546383.99746  22844977.560    22844979.180          44.250
        38.500
 107299976.690 8  83610364.97347  20418508.160    20418508.040          49.750
        47.750
 126413648.790 6  98504133.98245  24055719.860    24055720.560          41.250
        35.500
 14  1  9  8 51 30.0000000  0 11G01G19G03G27G22G06G32G14G20G11G28
 113265321.582 8  88258709.40347  21553674.400    21553678.560          48.500
        46.500
 108037910.568 8  84185372.23248  20558933.600    20558932.080          50.250
        50.750
 112964684.723 8  88024426.48347  21496469.340    21496471.160          49.000
        44.250
 116918160.540 7  91105062.31947  22248791.240    22248794.720          46.500
        44.000
 127240274.597 6  99148246.77146  24213029.440    24213030.280          41.000
        36.000
 121834164.064 7  94935706.81746  23184277.900    23184281.160          43.750
        39.750
 107601677.073 8  83845471.22947  20475917.960    20475919.320          50.000
        47.750
 120182563.709 7  93648756.22046  22869981.840    22869984.100          44.000
        38.750
 119959394.802 7  93474868.21246  22827512.560    22827514.280          44.750
        37.750
 107267918.887 8  83585384.83447  20412407.760    20412407.700          49.750
        47.750
 126368442.907 6  98468908.58046  24047117.360    24047118.320          39.750
        36.250
 14  1  9  8 52  0.0000000  0 11G01G19G03G27G22G06G32G14G20G11G28
 113215387.024 8  88219799.34847  21544172.280    21544176.320          48.750
        46.500
 108065218.523 8  84206651.11548  20564130.180    20564128.600          50.250
        50.750
 113053663.914 8  88093760.82147  21513401.600    21513403.320          49.000
        44.250
 117005393.162 7  91173035.70347  22265391.100    22265394.580          46.750
        43.750
 127334751.606 6  99221865.05145  24231007.840    24231008.500          40.750
        35.000
 121928896.877 7  95009524.45946  23202305.100    23202308.300          44.000
        37.500
 107563812.073 8  83815966.01147  20468712.540    20468713.840          50.250
        47.500
 120188956.199 7  93653737.37446  22871198.200    22871200.540          43.500
        39.500
 119867864.068 7  93403545.53246  22810094.820    22810096.460          44.250
        38.250
 107236176.513 8  83560650.49248  20406367.360    20406367.380          50.000
        48.000
 126323700.465 6  98434044.27445  24038602.980    24038604.300          41.000
        31.750
 14  1  9  8 52 30.0000000  0 11G01G19G03G27G22G06G32G14G20G11G28
 113165608.624 8  88181010.96247  21534699.860    21534703.820          48.500
        46.750
 108092992.316 8  84228292.98648  20569415.360    20569413.840          50.000
        50.750
 113142994.041 8  88163368.62447  21530400.660    21530402.260          49.000
        43.750
 117092939.843 7  91241253.80647  22282050.740    22282054.240          46.750
        43.500
 127429280.635 6  99295523.89746  24248996.240    24248996.560          41.000
        36.750
 122023837.853 7  95083504.30346  23220371.880    23220375.120          43.500
        39.250
 107526468.233 8  83786866.90147  20461606.280    20461607.560          50.000
        47.750
 120195890.408 7  93659140.63946  22872517.680    22872520.000          44.000
        39.500
 119776580.565 7  93332415.50746  22792724.120    22792725.580          44.500
        36.750
 107204748.545 8  83536161.13348  20400386.940    20400386.900          50.000
        48.000
 126279420.659 7  98399540.47445  24030176.980    24030178.020          42.750
        34.500
 14  1  9  8 53  0.0000000  0 11G01G19G03G27G22G06G32G14G20G11G28
 113115988.569 8  88142345.96147  21525257.540    21525261.460          48.750
        46.750
 108121234.190 8  84250299.59048  20574789.640    20574788.200          50.250
        50.750
 113232674.900 8  88233249.72547  21547466.440    21547468.060          48.750
        44.250
 117180800.841 7  91309716.84147  22298770.220    22298773.760          47.000
        44.000
 127523862.263 6  99369223.71846  24266994.640    24266994.860          40.750
        38.500
 122118987.175 7  95157646.50746  23238478.240    23238481.500          43.500
        38.000
 107489647.647 8  83758175.52147  20454599.580    20454600.840          50.000
        47.750
 120203368.534 7  93664967.71546  22873940.800    22873943.020          45.000
        38.500
 119685547.305 7  93261480.49146  22775401.020    22775402.260          44.500
        38.000
 107173637.747 8  83511918.92048  20394466.860    20394466.780          49.750
        48.250
 126235606.643 6  98365399.65046  24021839.660    24021840.580          41.250
        36.000
 14  1  9  8 53 30.0000000  0 11G01G19G03G27G22G06G32G14G20G11G28
 113066528.816 8  88103805.87647  21515845.700    21515849.500          48.750
        46.500
 108149945.455 8  84272671.96348  20580253.240    20580251.840          50.250
        50.750
 113322706.238 8  88303403.92247  21564598.920    21564600.680          49.000
        44.000
 117268976.319 7  91378424.91547  22315549.600    22315553.140          46.750
        43.500
 127618496.130 6  99442964.25845  24285003.020    24285003.240          41.000
        35.750
 122214344.899 7  95231951.08846  23256624.200    23256627.540          43.000
        37.750
 107453352.218 8  83729893.36247  20447692.800    20447694.080          50.250
        47.500
 120211391.951 7  93671219.70146  22875467.700    22875469.780          44.000
        39.000
 119594767.324 7  93190742.80746  22758126.220    22758127.260          45.500
        37.000
 107142847.220 8  83487926.28148  20388607.660    20388607.600          50.000
        48.000
 126192261.169 6  98331623.90046  24013591.240    24013592.280          41.000
        36.500
 14  1  9  8 54  0.0000000  0 11G01G19G03G27G22G06G32G14G20G11G28
 113017225.934 8  88065388.03847  21506463.740    21506467.400          49.000
        46.250
 108179122.405 8  84295407.19648  20585805.480    20585804.120          50.250
        50.750
 113413082.133 8  88373826.60847  21581796.960    21581798.820          48.750
        44.250
 117357460.819 7  91447373.78847  22332387.760    22332391.340          46.750
        43.750
 127713176.492 6  99516740.99246  24303020.360    24303020.460          41.000
        37.000
 122309905.943 7  95306414.11246  23274808.880    23274812.300          43.250
        38.250
 107417578.275 8  83702017.53847  20440885.240    20440886.560          50.250
        47.750
 120219957.564 7  93677894.17446  22877097.680    22877099.900          43.500
        38.000
 119504238.124 7  93120200.53846  22740899.180    22740900.080          45.250
        38.500
 107112374.005 8  83464180.89648  20382808.780    20382808.780          49.750
        48.000
 126149381.742 7  98298211.31945  24005431.560    24005432.680          42.750
        34.500
 14  1  9  8 54 30.0000000  0 11G01G19G03G27G22G06G32G14G20G11G28
 112968082.532 8  88027094.45947  21497112.140    21497115.660          48.750
        46.500
 108208767.108 8  84318506.90948  20591446.800    20591445.360          50.250
        50.500
 113503802.695 8  88444517.86947  21599060.560    21599062.540          48.750
        44.000
 117446255.001 7  91516563.96447  22349284.820    22349288.400          46.500
        43.500
 127807904.096 6  99590554.57445  24321046.700    24321046.920          41.250
        33.250
 122405670.104 7  95381035.40546  23293032.280    23293035.740          43.000
        39.500
 107382328.214 8  83674549.94247  20434177.380    20434178.780          50.250
        47.750
 120229067.641 7  93684992.89346  22878831.180    22878833.520          43.500
        38.250
 119413963.104 7  93049856.32246  22723720.520    22723721.420          45.500
        39.000
 107082221.352 8  83440685.29248  20377070.900    20377070.960          49.750
        48.250
 126106971.872 7  98265164.61245  23997361.320    23997362.560          42.000
        35.000
 14  1  9  8 55  0.0000000  0 11G01G19G03G27G22G06G32G14G20G11G28
 112919099.671 8  87988925.98047  21487791.040    21487794.500          48.750
        46.500
 108238880.600 8  84341971.91548  20597177.300    20597175.840          50.000
        50.750
 113594866.346 8  88515476.46347  21616389.400    21616391.420          48.750
        44.000
 117535358.126 7  91585994.88347  22366240.680    22366244.260          46.500
        43.250
 127902678.122 6  99664404.31145  24339081.820    24339082.100          40.750
        35.500
 122501637.055 7  95455814.70246  23311294.300    23311297.860          43.250
        38.000
 107347603.076 8  83647491.36848  20427569.420    20427570.860          50.250
        48.000
 120238722.696 7  93692516.27646  22880668.520    22880670.740          44.250
        38.500
 119323944.375 7  92979711.81946  22706590.600    22706591.620          45.000
        38.750
 107052391.033 8  83417440.85748  20371394.400    20371394.480          49.500
        48.250
 126065033.278 6  98232485.13946  23989380.680    23989382.040          41.250
        36.000
 14  1  9  8 55 30.0000000  0 11G01G19G03G27G22G06G32G14G20G11G28
 112870275.620 8  87950881.24647  21478500.060    21478503.620          48.500
        46.500
 108269460.513 8  84365800.36848  20602996.500    20602995.060          50.250
        50.500
 113686269.372 8  88586699.50447  21633782.880    21633784.880          49.000
        43.500
 117624766.461 7  91655663.61347  22383254.580    22383258.320          46.000
        43.500
 127997494.910 6  99738287.38545  24357125.120    24357125.320          40.750
        35.750
 122597803.143 7  95530749.17646  23329594.180    23329597.820          42.750
        38.250
 107313400.854 8  83620840.27047  20421060.960    20421062.440          50.000
        47.750
 120248921.144 7  93700463.06746  22882609.280    22882611.380          43.500
        39.250
 119234180.900 7  92909766.20646  22689509.240    22689510.400          45.250
        39.500
 107022881.815 8  83394446.63648  20365779.000    20365779.100          50.000
        48.250
 126023565.089 6  98200172.20745  23981489.600    23981490.920          41.750
        35.500
 14  1  9  8 56  0.0000000  0 11G01G19G03G27G22G06G32G14G20G11G28
 112821612.983 8  87912962.27947  21469239.840    21469243.520          48.750
        46.750
 108300509.276 8  84389994.16148  20608904.900    20608903.480          50.250
        50.500
 113778011.644 8  88658186.89947  21651241.000    21651242.920          48.750
        43.750
 117714480.598 7  91725570.64647  22400326.640    22400330.440          46.250
        42.750
 128092355.103 6  99812204.28646  24375176.620    24375176.820          40.500
        36.250
 122694168.538 7  95605838.95446  23347932.000    23347935.720          43.000
        38.000
 107279723.862 8  83594598.43147  20414652.440    20414653.900          50.250
        47.750
 120259665.161 7  93708834.95946  22884653.900    22884655.960          44.250
        39.500
 119144676.371 7  92840022.37546  22672477.120    22672478.320          45.500
        38.750
 106993697.132 8  83371705.29448  20360225.400    20360225.420          49.750
        48.500
 125982570.529 7  98168228.34046  23973688.680    23973690.020          43.250
        36.250
 14  1  9  8 56 30.0000000  0 11G01G19G03G27G22G06G32G14G20G11G28
 112773109.447 8  87875167.29247  21460009.960    21460013.680          49.000
        46.750
 108332023.939 8  84414550.98848  20614901.960    20614900.560          50.000
        50.500
 113870088.237 8  88729934.79147  21668762.660    21668764.580          48.750
        43.750
 117804496.250 7  91795712.60847  22417456.040    22417459.860          46.250
        43.250
 128187254.228 6  99886151.56645  24393235.400    24393235.600          40.500
        35.250
 122790729.071 7  95681080.77846  23366306.980    23366310.700          42.500
        36.500
 107246569.499 8  83568763.83848  20408343.420    20408344.820          50.250
        48.000
 120270951.992 7  93717629.82046  22886801.880    22886803.780          44.250
        37.750
 119055429.384 7  92770479.22546  22655493.920    22655495.300          45.250
        39.000
 106964835.240 8  83349215.49248  20354733.200    20354733.180          50.000
        48.250
 125942048.391 7  98136652.61546  23965977.840    23965978.900          42.750
        36.250
 14  1  9  8 57  0.0000000  0 11G01G19G03G27G22G06G32G14G20G11G28
 112724769.542 8  87837499.79947  21450811.300    21450815.020          49.000
        47.000
 108364008.715 8  84439474.13548  20620988.460    20620987.060          50.000
        50.500
 113962501.756 8  88801945.22747  21686348.440    21686350.380          48.250
        43.750
 117894816.008 7  91866091.54047  22434643.340    22434647.160          46.500
        42.500
 128282195.017 6  99960131.27244  24411301.960    24411302.320          39.750
        29.750
 122887487.251 7  95756476.62846  23384719.520    23384723.180          42.250
        37.750
 107213942.101 8  83543339.87548  20402134.660    20402136.000          50.250
        48.000
 120282785.988 7  93726851.05446  22889053.980    22889055.720          44.500
        38.000
 118966445.203 7  92701140.85746  22638560.720    22638562.340          45.250
        39.500
 106936301.393 8  83326981.29548  20349303.420    20349303.360          49.750
        48.250
 125902003.749 7  98105448.95745  23958357.620    23958358.860          43.500
        35.750
 14  1  9  8 57 30.0000000  0 11G01G19G03G27G22G06G32G14G20G11G28
 112676589.740 8  87799957.06947  21441643.040    21441646.760          49.000
        47.000
 108396459.570 8  84464760.46348  20627163.680    20627162.280          50.250
        50.500
 114055245.899 8  88874213.30047  21703997.140    21703999.040          48.250
        43.500
 117985434.294 7  91936703.08547  22451887.500    22451891.320          46.500
        42.750
 128377171.735 6 100034138.98045  24429375.200    24429375.840          38.250
        35.750
 122984437.285 7  95832021.96346  23403168.480    23403172.180          42.000
        37.750
 107181837.770 8  83518323.49547  20396025.460    20396026.760          50.250
        47.750
 120295163.309 7  93736495.65146  22891409.380    22891411.180          44.250
        37.500
 118877721.082 7  92632005.13746  22621677.040    22621678.900          45.500
        39.000
 106908092.557 8  83305000.37348  20343935.460    20343935.480          50.000
        48.250
 125862433.925 7  98074615.26745  23950827.960    23950828.880          43.750
        35.750
 14  1  9  8 58  0.0000000  0 11G01G19G03G27G22G06G32G14G20G11G28
 112628571.330 8  87762540.09247  21432505.480    21432509.180          49.000
        46.500
 108429377.428 8  84490410.68248  20633427.780    20633426.400          50.250
        50.500
 114148319.253 8  88946737.88447  21721708.460    21721710.400          48.250
        43.250
 118076350.370 7  92007546.67847  22469188.460    22469192.060          46.500
        42.250
 128472183.746 6 100108174.20845  24447455.180    24447456.100          38.000
        35.500
 123081578.825 7  95907716.51446  23421653.980    23421657.660          42.500
        38.000
 107150257.421 8  83493715.41348  20390015.900    20390017.220          50.250
        48.000
 120308084.708 7  93746564.21846  22893868.320    22893870.080          43.750
        37.750
 118789259.199 7  92563073.77846  22604843.360    22604845.160          46.000
        39.000
 106880210.576 8  83283274.12448  20338629.700    20338629.680          50.000
        48.000
 125823340.676 7  98044152.94045  23943388.840    23943389.640          43.000
        35.000
 14  1  9  8 58 30.0000000  0 11G01G19G03G27G22G06G32G14G20G11G28
 112580714.006 8  87725248.63647  21423398.560    21423402.200          49.000
        46.500
 108462761.428 8  84516424.13748  20639780.600    20639779.240          50.000
        50.500
 114241718.799 8  89019516.67047  21739481.920    21739483.780          48.500
        43.250
 118167561.884 7  92078620.47747  22486545.640    22486549.120          46.500
        43.250
 128567228.809 6 100182235.16745  24465541.600    24465542.440          39.000
        34.000
 123178909.326 7  95983558.32645  23440175.540    23440179.160          42.500
        35.500
 107119200.361 8  83469515.08848  20384105.900    20384107.320          50.000
        48.000
 120321549.339 7  93757056.07946  22896430.560    22896432.320          44.000
        38.750
 118701060.176 7  92494347.23046  22588059.760    22588061.260          46.250
        38.500
 106852655.924 8  83261802.94648  20333386.220    20333386.200          49.750
        48.500
 125784724.445 7  98014062.32346  23936040.440    23936041.340          43.750
        37.000
 14  1  9  8 59  0.0000000  0 11G01G19G03G27G22G06G32G14G20G11G28
 112533019.903 8  87688084.36747  21414322.640    21414326.240          48.750
        46.500
 108496613.171 8  84542802.06248  20646222.420    20646221.080          50.250
        50.250
 114335444.490 8  89092549.57047  21757317.440    21757319.340          48.750
        43.250
 118259068.954 7  92149924.56347  22503959.020    22503962.540          46.250
        42.750
 128662307.028 6 100256321.96245  24483634.400    24483635.080          39.750
        32.750
 123276428.712 7  96059547.31646  23458733.000    23458736.680          43.000
        37.750
 107088668.437 8  83445723.95548  20378295.800    20378297.320          50.000
        48.000
 120335559.038 7  93767972.66346  22899096.480    22899098.340          44.000
        38.000
 118613126.880 7  92425827.76546  22571326.780    22571328.040          46.250
        39.500
 106825431.377 8  83240588.98948  20328205.520    20328205.560          49.750
        48.250
 125746588.030 7  97984345.59545  23928783.340    23928784.240          43.250
        35.000
 14  1  9  8 59 30.0000000  0 11G01G19G03G27G22G06G32G14G20G11G28
 112485488.846 8  87651047.15047  21405277.700    21405281.420          48.500
        46.250
 108530932.010 8  84569543.95548  20652753.160    20652751.840          50.000
        50.500
 114429493.366 8  89165834.30847  21775214.460    21775216.340          48.750
        43.000
 118350869.295 7  92221457.17747  22521428.120    22521431.700          45.750
        42.250
 128757416.262 6 100330432.89846  24501733.040    24501733.720          39.250
        36.500
 123374134.790 7  96135681.75746  23477325.920    23477329.680          42.250
        37.250
 107058660.934 8  83422341.46548  20372585.560    20372587.080          50.250
        48.250
 120350112.998 7  93779313.35446  22901866.100    22901867.840          45.500
        37.250
 118525460.089 7  92357515.95446  22554644.460    22554645.580          45.750
        39.500
 106798537.220 8  83219632.47648  20323087.740    20323087.780          50.000
        48.250
 125708931.854 7  97955003.06745  23921617.680    23921618.460          44.000
        35.750
 14  1  9  9  0  0.0000000  0 11G01G19G03G27G22G06G32G14G20G11G28
 112438120.970 8  87614137.09147  21396263.760    21396267.680          48.500
        46.750
 108565717.213 8  84596649.25348  20659372.600    20659371.380          50.000
        50.500
 114523863.524 8  89239369.39447  21793172.680    21793174.500          48.750
        43.250
 118442960.972 7  92293216.80547  22538952.600    22538956.260          46.250
        42.000
 128852554.730 6 100404566.62245  24519837.160    24519838.060          39.750
        33.000
 123472025.207 7  96211959.84246  23495953.880    23495957.780          42.750
        37.500
 107029177.589 8  83399367.42448  20366975.120    20366976.660          50.250
        48.000
 120365211.106 7  93791078.07546  22904739.360    22904740.780          44.500
        37.750
 118438060.399 7  92289412.27946  22538012.860    22538013.960          46.000
        40.000
 106771974.269 8  83198934.05048  20318033.060    20318033.080          50.000
        48.750
 125671756.579 7  97926035.26346  23914543.540    23914544.140          43.000
        36.500
 14  1  9  9  0 30.0000000  0 11G01G19G03G27G22G06G32G14G20G11G28
 112390917.175 8  87577354.88047  21387281.100    21387285.120          48.750
        46.500
 108600969.342 8  84624118.38848  20666080.840    20666079.740          50.000
        50.250
 114618553.143 8  89313153.41547  21811191.620    21811193.480          48.000
        43.250
 118535342.819 7  92365202.52947  22556532.320    22556536.080          46.000
        43.000
 128947721.260 6 100478722.21045  24537946.760    24537947.960          40.000
        35.500
 123570099.372 7  96288381.13846  23514617.020    23514620.840          42.250
        38.750
 107000218.854 8  83376802.16148  20361464.480    20361466.060          50.250
        48.000
 120380853.599 7  93803267.00246  22907716.160    22907717.360          44.750
        38.000
 118350929.631 7  92221518.16146  22521432.400    22521433.640          46.250
        39.250
 106745744.161 8  83178494.98048  20313041.680    20313041.720          50.000
        48.250
 125635063.796 7  97897443.41746  23907561.100    23907561.900          43.000
        37.000
 14  1  9  9  1  0.0000000  0 11G01G19G03G27G22G06G32G14G20G11G28
 112343875.661 8  87540699.12247  21378329.440    21378333.360          49.000
        46.500
 108636685.934 8  84651949.43448  20672877.500    20672876.480          50.000
        50.500
 114713557.490 8  89387182.68347  21829270.400    21829272.360          48.250
        42.750
 118628010.898 7  92437411.29047  22574166.540    22574170.360          45.750
        42.750
 129042912.163 6 100552896.75945  24556061.280    24556062.600          41.250
        32.000
 123668352.977 6  96364942.24246  23533314.240    23533318.140          41.750
        38.000
 106971782.383 8  83354643.85648  20356053.280    20356054.860          50.250
        48.500
 120397038.094 7  93815878.26046  22910795.960    22910797.080          44.000
        38.500
 118264066.953 7  92153832.94146  22504902.940    22504904.340          45.750
        40.500
 106719845.544 8  83158314.21948  20308113.340    20308113.400          49.750
        48.500
 125598852.114 7  97869226.49546  23900670.160    23900671.260          43.000
        37.500
 14  1  9  9  1 30.0000000  0 11G01G19G03G27G22G06G32G14G20G11G28
 112296999.568 8  87504172.26347  21369409.360    21369413.080          49.000
        46.250
 108672869.525 8  84680144.37948  20679763.080    20679762.060          50.000
        50.000
 114808877.412 7  89461457.84947  21847409.200    21847411.240          47.750
        43.000
 118720966.243 7  92509843.90947  22591855.480    22591859.260          46.000
        42.000
 129138128.489 6 100627091.09045  24574180.860    24574182.040          41.500
        34.750
 123766786.962 7  96441643.86446  23552045.640    23552049.860          42.000
        37.000
 106943870.856 8  83332894.60448  20350741.940    20350743.540          50.250
        48.250
 120413767.000 7  93828913.76146  22913979.360    22913980.320          44.000
        37.500
 118177476.039 7  92086359.51446  22488425.120    22488426.800          45.750
        40.500
 106694282.269 8  83138394.75348  20303248.800    20303248.880          49.750
        48.500
 125563125.130 7  97841387.25645  23893871.460    23893872.840          43.500
        35.750
 14  1  9  9  2  0.0000000  0 11G01G19G03G27G22G06G32G14G20G11G28
 112250287.952 8  87467773.56747  21360520.480    21360524.160          48.750
        46.750
 108709518.726 8  84708702.13648  20686737.240    20686736.220          50.000
        50.250
 114904509.722 7  89535976.42547  21865607.340    21865609.580          47.750
        42.750
 118814205.806 7  92582497.99647  22609598.540    22609602.280          45.750
        42.750
 129233367.444 6 100701303.01945  24592304.760    24592305.760          41.000
        34.500
 123865398.396 7  96518483.76846  23570810.900    23570815.140          42.250
        37.500
 106916482.852 8  83311553.29348  20345530.200    20345531.800          50.250
        48.250
 120431039.146 7  93842372.56346  22917266.040    22917267.160          43.750
        38.500
 118091156.671 7  92019097.65346  22471999.000    22472000.900          45.750
        40.250
 106669053.847 8  83118736.22148  20298448.000    20298448.140          49.750
        48.750
 125527882.676 7  97813925.55246  23887165.040    23887166.620          42.250
        36.000
 14  1  9  9  2 30.0000000  0 11G01G19G03G27G22G06G32G14G20G11G28
 112203741.415 8  87431503.50947  21351662.860    21351666.760          48.250
        46.750
 108746633.160 8  84737622.42348  20693799.900    20693798.880          50.000
        50.250
 115000451.451 8  89610736.12247  21883864.380    21883866.700          48.000
        42.500
 118907727.988 7  92655372.29147  22627395.260    22627399.040          45.750
        42.750
 129328627.637 6 100775531.52645  24610432.680    24610433.540          40.750
        33.500
 123964185.824 7  96595460.82546  23589609.680    23589613.820          42.000
        36.750
 106889618.128 8  83290619.73048  20340417.980    20340419.640          50.000
        48.250
 120448854.066 7  93856254.31546  22920656.080    22920657.300          44.500
        37.000
 118005110.240 7  91952048.49446  22455624.840    22455627.060          46.000
        40.500
 106644161.327 8  83099339.42548  20293711.140    20293711.280          49.750
        48.250
 125493125.443 7  97786841.98846  23880550.900    23880552.700          43.500
        36.250
 14  1  9  9  3  0.0000000  0 11G01G19G03G27G22G06G32G14G20G11G28
 112157358.895 8  87395361.26847  21342836.400    21342840.600          48.500
        47.000
 108784211.257 8  84766903.99748  20700950.780    20700949.780          49.750
        50.250
 115096699.393 8  89685734.41247  21902179.800    21902182.120          48.000
        42.750
 119001529.617 7  92728464.35046  22645245.160    22645249.000          45.750
        41.750
 129423906.370 6 100849774.48245  24628564.000    24628564.900          40.250
        33.000
 124063145.888 7  96672572.38146  23608441.420    23608445.500          42.000
        38.250
 106863275.289 8  83270092.84148  20335405.060    20335406.700          50.250
        48.000
 120467210.262 7  93870557.83246  22924149.180    22924150.420          44.250
        37.500
 117919336.326 7  91885211.68446  22439302.600    22439305.000          46.250
        40.000
 106619604.323 8  83080204.06748  20289038.160    20289038.260          49.750
        48.750
 125458853.326 7  97760136.39345  23874029.280    23874030.940          43.000
        35.250
 14  1  9  9  3 30.0000000  0 11G01G19G03G27G22G06G32G14G20G11G28
 112111144.408 8  87359349.95647  21334042.000    21334046.380          48.250
        46.750
 108822256.192 8  84796549.34048  20708190.500    20708189.480          50.000
        50.000
 115193254.800 7  89760972.28747  21920553.820    21920556.060          47.750
        42.500
 119095612.483 7  92801775.52046  22663148.580    22663152.480          45.500
        41.250
 129519205.266 6 100924033.14945  24646699.120    24646700.180          39.250
        35.000
 124162280.453 7  96749819.92046  23627306.280    23627310.260          42.000
        36.500
 106837457.605 8  83249975.15448  20330492.060    20330493.660          50.000
        48.000
 120486110.606 7  93885285.35746  22927745.780    22927746.980          43.750
        38.000
 117833839.548 7  91818590.84046  22423033.100    22423035.440          46.000
        40.500
 106595387.328 8  83061333.65448  20284429.840    20284429.980          49.750
        48.750
 125425070.527 7  97733812.15445  23867600.620    23867602.160          42.250
        35.500
 14  1  9  9  4  0.0000000  0 11G01G19G03G27G22G06G32G14G20G11G28
 112065095.867 8  87323467.96647  21325279.260    21325283.700          48.750
        47.250
 108860764.979 8  84826556.12448  20715518.500    20715517.480          49.750
        50.000
 115290113.065 8  89836446.15847  21938985.480    21938987.620          48.250
        42.250
 119189972.312 7  92875302.52346  22681104.760    22681108.600          45.750
        41.000
 129614520.466 6 100998304.53746  24664837.160    24664838.560          38.750
        36.750
 124261585.171 7  96827200.05845  23646203.560    23646207.480          42.250
        35.250
 106812162.339 8  83230264.54548  20325678.520    20325680.040          50.000
        48.000
 120505552.916 7  93900435.17646  22931445.480    22931446.660          43.750
        38.250
 117748618.575 7  91752184.89146  22406816.120    22406818.240          46.000
        40.000
 106571508.941 8  83042727.09248  20279885.940    20279886.100          49.750
        48.500
 125391775.400 7  97707867.88145  23861264.800    23861266.340          42.750
        34.500
 14  1  9  9  4 30.0000000  0 11G01G19G03G27G22G06G32G14G20G11G28
 112019214.756 8  87287716.44347  21316548.440    21316552.860          48.750
        47.000
 108899738.697 8  84856925.19948  20722935.000    20722934.020          49.750
        50.000
 115387273.140 7  89912155.20347  21957474.460    21957476.720          47.500
        42.750
 119284608.449 7  92949044.83847  22699113.460    22699117.380          45.250
        42.000
 129709924.458 6 101072675.19845  24682978.180    24682981.500          38.750
        31.000
 124361059.719 7  96904712.48445  23665133.060    23665137.100          42.000
        35.000
 106787390.380 8  83210961.71048  20320964.560    20320966.040          50.000
        48.000
 120525537.414 7  93916007.46946  22935248.400    22935249.680          44.500
        38.000
 117663675.661 7  91685995.61446  22390652.080    22390653.880          46.250
        39.250
 106547971.356 8  83024386.08848  20275406.900    20275407.060          49.750
        48.750
 125358969.698 7  97682304.94545  23855022.080    23855023.440          43.000
        34.750
 14  1  9  9  5  0.0000000  0 11G01G19G03G27G22G06G32G14G20G11G28
 111973500.972 8  87252095.29647  21307849.460    21307853.760          48.750
        47.000
 108939176.304 8  84887655.74548  20730439.800    20730438.860          50.000
        50.000
 115484732.158 7  89988097.19047  21976020.260    21976022.720          47.500
        42.250
 119379518.506 7  93023000.58647  22717174.320    22717178.420          45.000
        42.000
 129805269.402 6 101146969.76945  24701121.360    24701124.300          38.000
        34.750
 124460701.072 7  96982354.90846  23684094.320    23684098.500          42.000
        37.500
 106763140.898 8  83192065.99647  20316350.060    20316351.520          50.000
        47.750
 120546063.194 7  93932001.54246  22939154.340    22939155.660          44.000
        39.250
 117579011.191 7  91620023.32646  22374541.100    22374542.500          46.250
        40.500
 106524774.765 8  83006310.79648  20270992.760    20270992.940          49.500
        48.750
 125326653.650 7  97657123.59545  23848872.500    23848874.040          42.500
        35.000
 14  1  9  9  5 30.0000000  0 11G01G19G03G27G22G06G32G14G20G11G28
 111927955.608 8  87216605.38647  21299182.540    21299186.760          48.750
        47.000
 108979077.977 8  84918747.90048  20738032.900    20738031.960          50.000
        50.000
 115582488.703 7  90064271.00747  21994622.700    21994625.360          47.500
        42.500
 119474701.437 7  93097168.95446  22735287.040    22735291.220          45.000
        41.250
 129900624.293 6 101221273.44745  24719266.040    24719270.460          37.000
        32.500
 124560508.591 7  97060126.83745  23703087.240    23703091.440          42.000
        34.000
 106739414.237 8  83173577.67047  20311835.060    20311836.540          50.000
        47.750
 120567130.644 7  93948417.69446  22943163.400    22943164.740          44.250
        37.750
 117494627.022 7  91554269.43646  22358483.380    22358484.520          46.750
        39.500
 106501920.749 8  82988502.44548  20266643.780    20266643.940          49.750
        48.500
 125294828.653 7  97632324.91245  23842816.500    23842817.960          42.750
        35.500
 14  1  9  9  6  0.0000000  0 11G01G19G03G27G22G06G32G14G20G11G28
 111882577.329 8  87181245.68247  21290547.420    21290551.520          49.000
        47.000
 109019441.918 8  84950200.26648  20745713.960    20745712.940          49.750
        49.750
 115680538.440 7  90140673.29347  22013281.020    22013283.720          47.500
        42.250
 119570153.523 7  93171547.07046  22753451.080    22753455.200          45.250
        41.750
 129995991.896 6 101295585.70146  24737413.900    24737417.880          37.000
        38.250
 124660478.437 7  97138025.23646  23722111.020    23722115.320          42.000
        37.000
 106716208.237 8  83155495.05648  20307419.140    20307420.640          50.000
        48.000
 120588737.581 7  93965254.23246  22947274.940    22947276.580          43.250
        38.250
 117410522.512 7  91488733.45546  22342478.800    22342479.940          46.000
        40.500
 106479408.435 8  82970960.36448  20262359.820    20262360.000          49.750
        48.750
 125263493.730 7  97607908.11245  23836853.740    23836855.140          42.250
        35.000
 14  1  9  9  6 30.0000000  0 10G01G19G03G27G06G32G14G20G11G28
 111837357.023 8  87146009.07047  21281942.400    21281946.380          49.250
        47.250
 109060258.099 8  84982005.02948  20753481.060    20753480.020          49.750
        49.750
 115778869.668 8  90217294.92447  22031993.000    22031995.680          48.000
        42.500
 119665863.618 7  93246126.20346  22771664.200    22771668.360          45.500
        40.750
 124760599.556 7  97216041.49846  23741163.620    23741167.880          42.750
        37.000
 106693513.284 8  83137810.65048  20303100.440    20303101.940          50.250
        48.000
 120610874.303 7  93982503.58046  22951487.260    22951489.300          43.500
        38.500
 117326688.965 7  91423408.62446  22326525.760    22326527.000          46.250
        40.000
 106457229.426 8  82953677.98548  20258139.320    20258139.500          49.750
        48.500
 125232640.311 7  97583866.49946  23830982.660    23830983.880          42.750
        36.000
 14  1  9  9  7  0.0000000  0 10G01G19G03G27G06G32G14G20G11G28
 111792328.408 8  87110921.82747  21273373.880    21273377.680          49.000
        47.500
 109101559.096 8  85014187.57648  20761340.400    20761339.440          49.750
        49.750
 115877513.250 7  90294159.93447  22050764.480    22050767.080          47.750
        42.750
 119761863.000 7  93320930.79146  22789932.440    22789936.540          45.250
        41.000
 124860903.340 6  97294200.10046  23760250.940    23760255.320          41.750
        36.500
 106671362.106 8  83120549.96747  20298885.260    20298886.700          50.250
        47.750
 120633573.452 7  94000191.18646  22955806.660    22955809.140          44.000
        37.750
 117243160.676 7  91358321.64746  22310630.740    22310632.240          46.250
        40.250
 106435417.897 8  82936681.96548  20253988.680    20253988.980          49.750
        48.250
 125202302.116 6  97560226.35345  23825209.420    23825210.740          41.500
        34.500
 14  1  9  9  7 30.0000000  0 10G01G19G03G27G06G32G14G20G11G28
 111747458.929 8  87075958.59047  21264835.560    21264839.260          49.000
        47.000
 109143311.541 8  85046721.89548  20769285.620    20769284.820          49.750
        50.000
 115976434.310 7  90371241.17047  22069588.700    22069591.220          47.250
        42.250
 119858116.876 7  93395933.65146  22808249.120    22808253.240          45.000
        41.500
 124961354.943 6  97372473.86246  23779366.200    23779370.860          40.000
        37.500
 106649721.368 8  83103687.02648  20294767.200    20294768.580          50.000
        48.250
 120656801.213 7  94018290.65846  22960226.740    22960229.480          43.750
        38.750
 117159905.835 7  91293447.74146  22294787.780    22294789.520          46.250
        40.750
 106413941.902 8  82919947.38748  20249901.940    20249902.240          49.500
        48.750
 125172446.575 7  97536962.31045  23819527.980    23819529.520          42.500
        34.750
 14  1  9  9  8  0.0000000  0 10G01G19G03G27G06G32G14G20G11G28
 111702756.620 8  87041125.61847  21256328.920    21256332.680          48.750
        47.000
 109185522.437 8  85079613.44948  20777318.100    20777317.440          49.750
        49.750
 116075637.927 7  90448542.57247  22088466.620    22088469.120          47.500
        42.000
 119954631.041 7  93471139.34746  22826615.400    22826619.440          45.250
        40.750
 125061960.301 6  97450867.43646  23798510.640    23798515.680          40.500
        36.500
 106628598.353 8  83087227.52048  20290747.620    20290749.040          50.250
        48.000
 120680564.796 7  94036807.68546  22964748.980    22964751.700          44.250
        37.500
 117076933.129 7  91228793.67446  22278998.600    22279000.440          46.500
        40.500
 106392809.723 8  82903480.72548  20245880.660    20245880.980          49.750
        48.500
 125143082.349 7  97514081.07046  23813940.080    23813941.720          42.500
        37.000
 14  1  9  9  8 30.0000000  0 10G01G19G03G27G06G32G14G20G11G28
 111658226.341 8  87006426.68547  21247854.940    21247858.960          49.000
        47.750
 109228196.394 8  85112865.82648  20785438.760    20785438.100          49.750
        49.750
 116175126.027 7  90526065.64646  22107398.660    22107401.120          47.500
        41.750
 120051408.013 7  93546549.82346  22845031.580    22845035.580          44.750
        40.250
 125162721.628 6  97529382.58845  23817684.860    23817690.160          40.000
        35.000
 106607996.875 8  83071174.38948  20286827.300    20286828.760          50.250
        48.000
 120704868.306 7  94055745.40646  22969373.860    22969376.620          43.750
        38.500
 116994247.891 7  91164363.61946  22263264.180    22263265.980          46.750
        40.750
 106372026.662 8  82887286.09748  20241925.840    20241926.160          49.750
        48.500
 125114214.382 7  97491586.57145  23808446.600    23808448.300          42.500
        35.250
 14  1  9  9  9  0.0000000  0 10G01G19G03G27G06G32G14G20G11G28
 111613865.383 8  86971859.69147  21239413.340    21239417.440          49.250
        47.750
 109271329.053 8  85146475.63648  20793646.660    20793646.000          49.750
        49.750
 116274893.469 7  90603806.40246  22126383.840    22126386.300          47.500
        41.750
 120148442.785 7  93622161.17246  22863496.820    22863500.880          44.750
        41.500
 125263634.234 6  97608015.54646  23836887.920    23836893.360          40.750
        36.500
 106587913.477 8  83055524.96648  20283005.560    20283007.100          50.250
        48.500
 120729707.844 7  94075100.84646  22974100.740    22974103.480          43.250
        37.750
 116911847.866 7  91100155.80846  22247584.060    22247585.780          46.750
        40.000
 106351590.573 8  82871361.83748  20238037.100    20238037.300          49.750
        48.750
 125085839.836 7  97469476.56245  23803047.100    23803048.800          43.000
        34.750
 14  1  9  9  9 30.0000000  0 10G01G19G03G27G06G32G14G20G11G28
 111569675.433 8  86937425.95347  21231004.320    21231008.440          49.250
        47.750
 109314921.219 8  85180443.51348  20801942.040    20801941.300          49.750
        49.750
 116374938.685 7  90681763.59646  22145421.900    22145424.400          47.500
        41.500
 120245734.664 7  93697972.87846  22882010.960    22882015.020          44.500
        41.250
 125364697.340 6  97686765.79746  23856119.700    23856125.200          40.000
        36.000
 106568348.815 8  83040279.75448  20279282.580    20279284.140          50.250
        48.250
 120755084.158 7  94094874.54046  22978929.780    22978932.460          43.750
        39.250
 116829735.238 7  91036171.93046  22231958.620    22231960.180          47.000
        40.500
 106331503.620 8  82855709.64848  20234214.720    20234214.920          49.750
        49.000
 125057960.654 7  97447752.50546  23797741.920    23797743.420          42.500
        36.250
 14  1  9  9 10  0.0000000  0 10G01G19G03G27G06G32G14G20G11G28
 111525657.458 8  86903126.21647  21222627.980    21222632.100          49.000
        47.750
 109358973.212 8  85214769.68248  20810324.920    20810324.100          49.750
        49.500
 116475260.192 7  90759936.08247  22164512.560    22164515.120          47.500
        42.000
 120343282.353 7  93773983.90546  22900573.720    22900577.900          44.750
        41.250
 125465909.627 6  97765632.31245  23875379.940    23875385.380          40.250
        35.500
 106549303.021 8  83025438.85748  20275658.360    20275659.900          50.000
        48.500
 120780997.103 7  94115066.38246  22983860.940    22983863.560          43.500
        37.000
 116747911.564 7  90972413.21346  22216388.140    22216389.640          46.500
        40.750
 106311767.669 8  82840330.96448  20230459.100    20230459.300          49.750
        48.750
 125030577.762 7  97426415.19146  23792531.140    23792532.520          42.500
        37.500
 14  1  9  9 10 30.0000000  0 10G01G19G03G27G06G32G14G20G11G28
 111481812.622 8  86868961.40247  21214284.600    21214288.660          49.250
        47.250
 109403484.950 8  85249454.10248  20818795.300    20818794.380          49.750
        49.500
 116575856.087 7  90838322.37447  22183655.400    22183657.960          47.000
        42.000
 120441084.638 7  93850193.32646  22919185.000    22919189.260          44.750
        41.000
 125567270.123 6  97844614.29346  23894668.440    23894673.800          41.000
        38.250
 106530776.239 8  83011002.38548  20272132.900    20272134.400          50.250
        48.250
 120807446.748 7  94135676.44746  22988894.160    22988896.800          44.000
        37.750
 116666378.559 7  90908881.00746  22200872.940    22200874.440          46.750
        40.500
 106292384.048 8  82825226.81348  20226770.520    20226770.780          49.750
        49.250
 125003692.693 7  97405465.77745  23787415.100    23787416.380          42.750
        35.500
 14  1  9  9 11  0.0000000  0 10G01G19G03G27G06G32G14G20G11G28
 111438139.068 8  86834930.04947  21205973.920    21205977.800          49.750
        47.250
 109448453.552 8  85284494.51448  20827352.640    20827351.680          49.750
        49.500
 116676722.003 7  90916919.06846  22202849.560    22202852.240          46.750
        41.500
 120539137.272 7  93926597.82146  22937843.900    22937848.200          44.500
        40.500
 125668774.588 6  97923708.46145  23913984.340    23913989.600          41.250
        35.000
 106512765.608 8  82996968.11148  20268705.560    20268707.100          50.000
        48.250
 120834429.967 7  94156702.27746  22994029.040    22994031.600          44.250
        37.250
 116585134.925 7  90845574.27146  22185412.780    22185414.200          46.750
        40.500
 106273350.664 8  82810395.57648  20223148.620    20223148.900          49.750
        48.750
 124977303.408 7  97384902.68746  23782393.440    23782394.620          42.750
        36.500
 14  1  9  9 11 30.0000000  0 10G01G19G03G27G06G32G14G20G11G28
 111394639.043 8  86801033.90547  21197696.280    21197700.020          49.500
        47.750
 109493880.341 8  85319891.95848  20835997.140    20835996.180          49.750
        49.750
 116777857.354 7  90995725.71746  22222095.020    22222097.820          47.000
        41.250
 120637440.128 7  94003197.28946  22956550.460    22956554.780          44.500
        41.000
 125770422.852 6  98002914.68546  23933327.620    23933332.720          41.000
        37.500
 106495272.423 8  82983337.03748  20265376.680    20265378.240          50.000
        48.250
 120861947.924 7  94178144.78346  22999265.740    22999268.160          44.000
        38.250
 116504183.189 7  90782494.97746  22170008.160    22170009.560          46.750
        41.000
 106254671.060 8  82795840.00248  20219593.980    20219594.260          49.500
        49.000
 124951412.316 6  97364727.83745  23777466.440    23777467.840          41.750
        35.000
 14  1  9  9 12  0.0000000  0 10G01G19G03G27G06G32G14G20G11G28
 111351314.410 8  86767274.42747  21189451.920    21189455.680          49.000
        47.750
 109539766.013 8  85355646.97048  20844728.900    20844728.020          49.500
        49.500
 116879261.207 7  91074741.59347  22241391.600    22241394.480          46.750
        42.000
 120735992.651 7  94079991.30946  22975304.440    22975308.920          44.250
        40.250
 125872214.429 6  98082232.57246  23952698.140    23952703.160          40.750
        37.000
 106478297.431 8  82970109.76348  20262146.420    20262148.020          50.000
        48.250
 120890001.300 7  94200004.48646  23004604.320    23004606.680          43.500
        38.250
 116423525.510 7  90719644.82546  22154659.460    22154660.960          47.000
        40.750
 106236347.477 8  82781561.85848  20216107.120    20216107.420          49.750
        48.500
 124926021.170 7  97344942.49746  23772634.580    23772636.020          42.500
        36.250
 14  1  9  9 12 30.0000000  0 10G01G19G03G27G06G32G14G20G11G28
 111308163.698 8  86733650.49547  21181240.540    21181244.460          49.250
        47.500
 109586107.958 8  85391757.51548  20853547.460    20853546.660          49.500
        49.500
 116980929.148 7  91153963.23747  22260738.420    22260741.440          46.750
        42.000
 120834791.101 7  94156976.93246  22994105.220    22994109.780          45.000
        39.500
 125974145.601 6  98161659.22546  23972095.320    23972100.060          41.250
        37.000
 106461838.211 8  82957284.39048  20259014.340    20259015.920          50.250
        48.250
 120918587.645 7  94222279.48346  23010044.140    23010046.540          42.750
        39.000
 116343161.356 7  90657023.38846  22139366.640    22139368.260          46.750
        41.250
 106218378.416 8  82767559.96848  20212687.740    20212688.000          49.500
        49.000
 124901128.627 7  97325545.65346  23767897.560    23767899.160          42.500
        36.750
 14  1  9  9 13  0.0000000  0 10G01G19G03G27G06G32G14G20G11G28
 111265187.800 8  86700162.77647  21173062.380    21173066.440          49.250
        47.500
 109632905.599 8  85428223.15248  20862452.780    20862452.000          49.750
        49.500
 117082859.398 7  91233389.28246  22280135.200    22280138.280          47.000
        41.750
 120933833.722 7  94234152.83846  23012952.480    23012957.140          44.500
        40.000
 126076214.780 6  98241193.40945  23991518.720    23991523.340          41.750
        33.750
 106445894.420 8  82944860.64948  20255980.380    20255981.940          50.250
        48.250
 120947706.077 7  94244969.11246  23015585.300    23015587.600          44.000
        39.000
 116263091.755 7  90594631.48546  22124129.820    22124131.640          46.750
        41.000
 106200765.348 8  82753835.46948  20209336.140    20209336.320          49.750
        48.750
 124876735.246 7  97306537.80345  23763255.540    23763257.340          42.000
        35.750
 14  1  9  9 13 30.0000000  0 10G01G19G03G27G06G32G14G20G11G28
 111222386.366 8  86666810.97947  21164917.540    21164921.560          49.500
        47.750
 109680158.084 8  85465043.20948  20871444.680    20871443.860          49.750
        49.500
 117185048.660 7  91313017.14946  22299581.260    22299584.380          46.750
        41.750
 121033117.979 7  94311517.02346  23031845.720    23031850.400          44.250
        40.500
 126178419.366 6  98320833.10646  24010967.880    24010972.420          40.750
        36.000
 106430464.761 8  82932837.52548  20253044.240    20253045.840          50.000
        48.250
 120977355.308 7  94268072.32946  23021227.480    23021229.640          44.500
        36.500
 116183316.977 7  90532469.30646  22108949.160    22108951.060          46.500
        41.250
 106183508.497 8  82740388.54948  20206052.340    20206052.500          49.500
        49.000
 124852840.873 7  97287918.79146  23758708.600    23758710.500          42.750
        36.250
 14  1  9  9 14  0.0000000  0 10G01G19G03G27G06G32G14G20G11G28
 111179759.923 8  86633595.54847  21156806.040    21156810.020          49.250
        47.750
 109727864.453 8  85502216.93548  20880522.940    20880522.160          49.750
        49.500
 117287494.880 7  91392845.25446  22319076.280    22319079.360          46.750
        41.500
 121132641.801 7  94389067.90946  23050784.620    23050789.380          44.000
        39.750
 126280757.550 6  98400576.90946  24030442.400    24030446.880          41.000
        37.000
 106415548.521 8  82921214.47148  20250205.760    20250207.440          50.000
        48.250
 121007534.543 7  94291588.56946  23026970.660    23026972.520          44.500
        36.750
 116103837.750 7  90470537.43246  22093824.780    22093826.680          46.750
        40.750
 106166608.631 8  82727219.79648  20202836.380    20202836.600          49.500
        49.000
 124829445.762 7  97269688.75746  23754256.780    23754258.620          42.750
        36.500
 14  1  9  9 14 30.0000000  0 10G01G19G03G27G06G32G14G20G11G28
 111137310.794 8  86600518.29748  21148728.220    21148732.260          49.250
        48.000
 109776025.846 8  85539745.24148  20889687.800    20889687.060          49.750
        49.250
 117390197.091 7  91472872.82446  22338620.020    22338623.060          47.000
        40.750
 121232405.078 7  94466805.35246  23069769.160    23069774.000          44.000
        41.500
 126383229.031 6  98480424.55046  24049942.320    24049946.840          41.000
        36.000
 106401146.847 8  82909992.37148  20247465.200    20247466.920          50.000
        48.250
 121038244.482 7  94315518.33846  23032814.740    23032816.360          44.500
        37.250
 116024656.783 7  90408837.97646  22078757.120    22078759.020          46.750
        40.750
 106150068.462 8  82714331.32648  20199688.940    20199689.120          49.750
        49.000
 124806552.137 7  97251849.51346  23749900.400    23749902.240          42.250
        37.000
 14  1  9  9 15  0.0000000  0 10G01G19G03G27G06G32G14G20G11G28
 111095039.636 8  86567579.72248  21140684.220    21140688.400          49.250
        48.000
 109824641.903 8  85577627.81948  20898939.160    20898938.480          49.500
        49.500
 117493153.081 7  91553098.14646  22358212.020    22358215.040          46.750
        41.750
 121332406.128 7  94544728.08846  23088798.940    23088803.740          44.500
        40.500
 126485832.293 6  98560374.91845  24069467.100    24069471.880          40.000
        33.500
 106387259.391 8  82899170.96748  20244822.480    20244824.200          50.250
        48.250
 121069485.197 7  94339861.72646  23038759.760    23038761.160          43.750
        36.750
 115945775.341 7  90347371.90246  22063746.480    22063748.280          47.000
        41.500
 106133889.099 8  82701724.01048  20196610.160    20196610.320          49.500
        49.000
 124784160.633 6  97234401.55346  23745639.440    23745641.360          41.500
        37.250
 14  1  9  9 15 30.0000000  0 10G01G19G03G27G06G32G14G20G11G28
 111052946.781 8  86534780.08048  21132674.200    21132678.440          49.250
        48.000
 109873711.703 8  85615863.95948  20908276.880    20908276.220          49.500
        49.500
 117596360.488 7  91633519.38446  22377851.840    22377854.860          46.750
        41.250
 121432642.729 7  94622834.34046  23107873.460    23107878.280          44.250
        40.500
 126588565.241 6  98640426.29045  24089016.640    24089021.520          41.000
        35.750
 106373885.129 8  82888749.44348  20242277.460    20242279.140          50.250
        48.250
 121101255.321 7  94364617.63346  23044805.360    23044806.700          43.500
        36.250
 115867193.934 7  90286139.62346  22048793.080    22048794.600          47.250
        41.500
 106118071.116 8  82689398.28248  20193600.080    20193600.260          49.500
        49.000
 124762271.162 6  97217344.76446  23741474.000    23741475.920          41.750
        36.000
 14  1  9  9 16  0.0000000  0 10G01G19G03G27G06G32G14G20G11G28
 111011028.984 8  86502116.86647  21124697.520    21124701.800          49.250
        47.750
 109923230.465 8  85654449.94248  20917700.060    20917699.420          49.500
        49.250
 117699813.300 7  91714131.84146  22397538.280    22397541.340          46.750
        40.250
 121533109.122 7  94701119.65746  23126991.800    23126996.620          44.750
        39.250
 126691422.127 6  98720574.25846  24108589.900    24108594.840          40.500
        36.000
 106361019.515 8  82878724.27148  20239829.280    20239830.880          50.250
        48.250
 121133550.049 7  94389782.31446  23050950.640    23050952.160          43.250
        37.000
 115788909.697 7  90225138.91046  22033896.260    22033897.520          47.250
        41.250
 106102611.648 8  82677351.91748  20190658.240    20190658.500          49.500
        49.000
 124740880.214 7  97200676.42446  23737403.600    23737405.400          42.000
        36.750
 14  1  9  9 16 30.0000000  0 10G01G19G03G27G06G32G14G20G11G28
 110969290.776 8  86469593.59147  21116754.980    21116759.340          49.250
        47.750
 109973201.858 8  85693388.62848  20927209.380    20927208.740          49.750
        49.250
 117803513.017 7  91794936.68946  22417271.740    22417274.820          46.500
        41.250
 121633807.400 7  94779585.67946  23146154.160    23146159.020          43.750
        39.000
 126794405.104 6  98800820.47645  24128187.120    24128191.980          40.250
        32.500
 106348665.925 8  82869098.07248  20237478.500    20237480.100          50.000
        48.500
 121166372.454 7  94415358.19446  23057196.380    23057197.920          43.750
        37.000
 115710927.598 7  90164373.62646  22019056.800    22019058.020          47.250
        41.250
 106087515.660 8  82665588.78748  20187785.520    20187785.860          49.500
        49.000
 124719992.412 7  97184400.18845  23733428.960    23733430.680          42.250
        35.500
 14  1  9  9 17  0.0000000  0 10G01G19G03G27G06G32G14G20G11G28
 110927732.478 8  86437210.49647  21108846.740    21108851.060          49.500
        47.750
 110023624.383 8  85732678.84448  20936804.560    20936803.900          49.750
        49.250
 117907456.990 7  91875931.85746  22437051.640    22437054.840          46.500
        40.750
 121734735.214 7  94858230.54746  23165360.140    23165365.080          43.750
        38.750
 126897512.116 6  98881163.33044  24147807.960    24147812.740          40.750
        28.000
 106336823.292 8  82859870.02448  20235224.940    20235226.540          50.250
        48.250
 121199721.333 7  94441344.31246  23063542.360    23063543.960          43.750
        36.750
 115633247.905 7  90103843.96946  22004274.740    22004276.100          46.500
        41.500
 106072783.799 8  82654109.39448  20184982.160    20184982.500          49.500
        49.000
 124699607.531 7  97168515.80545  23729550.000    23729551.520          42.000
        35.250
 14  1  9  9 17 30.0000000  0 10G01G19G03G27G06G32G14G20G11G28
 110886353.601 8  86404967.21747  21100972.700    21100976.900          49.500
        47.750
 110074496.966 8  85772319.75248  20946485.360    20946484.660          49.500
        49.000
 118011641.687 7  91957114.59646  22456877.320    22456880.640          46.000
        40.750
 121835889.783 7  94937052.10946  23184609.320    23184614.280          44.250
        40.000
 127000740.298 6  98961600.60545  24167451.940    24167456.500          40.750
        35.250
 106325490.157 8  82851038.97748  20233068.340    20233069.960          50.250
        48.250
 121233594.984 7  94467739.33846  23069988.180    23069989.860          43.500
        37.750
 115555870.913 7  90043550.20147  21989550.160    21989551.800          46.500
        42.500
 106058416.061 8  82642913.73448  20182248.100    20182248.420          49.500
        49.000
 124679724.930 7  97153022.81546  23725766.620    23725768.000          42.000
        37.000
 14  1  9  9 18  0.0000000  0 10G01G19G03G27G06G32G14G20G11G28
 110845154.859 8  86372864.30347  21093132.880    21093137.020          49.250
        47.750
 110125818.569 8  85812310.54848  20956251.620    20956250.840          49.750
        49.000
 118116064.977 7  92038483.27146  22476748.400    22476751.800          46.500
        40.750
 121937269.168 7  95016048.84046  23203901.280    23203906.220          43.000
        40.250
 127104087.789 6  99042130.83045  24187118.580    24187123.240          40.500
        34.750
 106314665.645 8  82842604.25248  20231008.540    20231010.160          50.250
        48.250
 121267992.473 7  94494542.55646  23076533.700    23076535.420          43.500
        37.000
 115478797.455 7  89983492.94247  21974883.340    21974885.260          46.500
        42.250
 106044413.129 8  82632002.33548  20179583.420    20179583.800          49.500
        49.000
 124660344.938 7  97137921.46346  23722078.860    23722080.300          42.500
        36.500
 14  1  9  9 18 30.0000000  0 10G01G19G03G27G06G32G14G20G11G28
 110804136.348 8  86340901.82947  21085327.280    21085331.420          49.250
        47.750
 110177587.902 8  85852650.22148  20966103.040    20966102.260          49.500
        49.000
 118220724.148 7  92120035.74146  22496664.520    22496667.960          46.500
        40.500
 122038871.004 7  95095218.92246  23223235.480    23223240.500          43.250
        40.250
 127207552.248 6  99122752.18045  24206807.560    24206812.260          40.500
        35.250
 106304348.592 8  82834564.94848  20229045.320    20229046.920          50.250
        48.250
 121302912.619 7  94521753.05446  23083178.740    23083180.700          42.750
        38.500
 115402027.877 7  89923672.47147  21960274.500    21960276.620          46.750
        42.000
 106030775.789 8  82621375.81648  20176988.380    20176988.660          49.500
        49.000
 124641467.284 6  97123211.52945  23718486.660    23718488.160          41.750
        33.750
 14  1  9  9 19  0.0000000  0 10G01G19G03G27G06G32G14G20G11G28
 110763300.222 8  86309081.46747  21077556.380    21077560.480          49.500
        47.500
 110229805.658 8  85893339.31448  20976039.760    20976039.000          49.500
        49.000
 118325618.308 7  92201771.31746  22516625.440    22516628.740          46.500
        40.000
 122140694.720 7  95174561.88946  23242612.000    23242617.040          44.000
        39.000
 127311133.419 6  99203464.50045  24226518.660    24226523.340          40.000
        35.500
 106294539.690 8  82826921.61148  20227178.780    20227180.300          50.250
        48.250
 121338355.590 7  94549370.94646  23089923.240    23089925.420          43.000
        36.750
 115325564.580 7  89864090.66947  21945724.100    21945726.260          47.000
        42.250
 106017505.975 8  82611035.68648  20174463.240    20174463.460          49.500
        49.250
 124623093.565 7  97108894.25545  23714990.300    23714991.560          42.250
        35.000
 14  1  9  9 19 30.0000000  0 10G01G19G03G27G06G32G14G20G11G28
 110722646.545 8  86277403.27547  21069820.200    21069824.220          49.500
        47.500
 110282470.762 8  85934376.99548  20986061.560    20986060.900          49.500
        49.000
 118430744.589 7  92283687.77046  22536630.500    22536633.680          46.250
        40.250
 122242738.082 7  95254076.02246  23262030.400    23262035.400          44.000
        38.750
 127414828.853 6  99284265.85445  24246251.420    24246256.100          39.750
        34.500
 106285237.786 8  82819673.33148  20225408.680    20225410.200          50.250
        48.500
 121374319.936 7  94577395.11846  23096766.900    23096769.420          42.250
        38.250
 115249408.041 7  89804747.89946  21931232.160    21931234.240          47.250
        41.750
 106004604.451 8  82600982.52748  20172008.200    20172008.400          49.500
        49.000
 124605223.575 7  97094969.53545  23711589.780    23711591.040          43.000
        33.500
 14  1  9  9 20  0.0000000  0 10G01G19G03G27G06G32G14G20G11G28
 110682175.415 8  86245867.34447  21062118.760    21062122.760          49.250
        47.750
 110335581.645 8  85975762.03748  20996168.200    20996167.600          49.250
        49.000
 118536099.812 7  92365782.61746  22556679.080    22556682.220          46.250
        41.000
 122344998.295 7  95333759.09446  23281490.060    23281495.140          43.500
        39.750
 127518636.159 6  99365154.36145  24266005.480    24266010.240          40.250
        33.250
 106276441.324 8  82812818.91348  20223734.780    20223736.300          50.000
        48.250
 121410804.057 7  94605824.28846  23103709.440    23103712.240          42.500
        38.000
 115173558.294 7  89745644.20247  21916798.600    21916800.560          47.750
        42.000
 105992071.357 8  82591216.46548  20169623.260    20169623.440          49.250
        49.000
 124587857.013 6  97081437.07846  23708284.960    23708286.220          41.750
        36.000
 14  1  9  9 20 30.0000000  0 10G01G19G03G27G06G32G14G20G11G28
 110641886.574 8  86214473.45047  21054451.980    21054456.020          49.500
        47.750
 110389136.891 8  86017493.33948  21006359.440    21006358.860          49.500
        48.750
 118641681.113 7  92448053.64846  22576770.680    22576773.760          46.500
        40.000
 122447472.842 7  95413609.21546  23300990.580    23300995.720          43.500
        38.750
 127622552.812 6  99446128.07745  24285780.400    24285785.340          40.000
        34.750
 106268148.920 8  82806357.26148  20222156.780    20222158.360          50.000
        48.250
 121447806.649 7  94634657.43946  23110750.740    23110753.840          42.750
        37.250
 115098015.714 7  89686779.84847  21902423.500    21902425.320          47.500
        42.500
 105979907.101 8  82581737.81248  20167308.480    20167308.680          49.250
        49.000
 124570993.304 7  97068296.45345  23705075.780    23705077.240          42.000
        32.750
 14  1  9  9 21  0.0000000  0 10G01G19G03G27G06G32G14G20G11G28
 110601781.536 8  86183222.77547  21046820.260    21046824.300          49.750
        47.750
 110443136.429 8  86059570.83248  21016635.280    21016634.720          49.500
        48.750
 118747486.883 7  92530499.55046  22596904.960    22596908.040          46.250
        40.500
 122550160.484 7  95493625.36746  23320531.540    23320536.660          43.250
        39.750
 127726577.629 6  99527186.07745  24305575.920    24305580.760          40.000
        32.000
 106260360.464 8  82800288.30548  20220674.700    20220676.320          50.250
        48.250
 121485327.326 7  94663894.29346  23117890.820    23117893.880          43.750
        37.500
 115022781.715 7  89628155.95047  21888106.980    21888108.720          47.250
        42.250
 105968113.093 8  82572547.66248  20165064.140    20165064.420          49.500
        49.000
 124554633.488 7  97055548.45845  23701962.440    23701964.100          42.000
        35.750
 14  1  9  9 21 30.0000000  0 10G01G19G03G27G06G32G14G20G11G28
 110561861.147 8  86152115.96848  21039223.700    21039227.720          49.500
        48.000
 110497579.648 8  86101994.05948  21026995.580    21026995.040          49.500
        48.750
 118853515.064 7  92613118.77946  22617081.620    22617084.700          46.750
        40.000
 122653059.404 7  95573806.15946  23340112.680    23340117.840          44.000
        40.250
 127830708.897 6  99608327.01645  24325391.580    24325396.540          39.750
        34.750
 106253075.235 8  82794611.47248  20219288.420    20219290.020          50.000
        48.250
 121523364.781 7  94693533.83046  23125129.400    23125132.300          43.750
        37.250
 114947857.316 7  89569773.30447  21873849.340    21873850.980          47.750
        42.250
 105956690.638 8  82563647.03948  20162890.480    20162890.860          49.500
        49.000
 124538777.656 7  97043193.18345  23698945.020    23698947.000          42.750
        34.750
 14  1  9  9 22  0.0000000  0 10G01G19G03G27G06G32G14G20G11G28
 110522124.418 8  86121152.27348  21031662.060    21031666.040          49.250
        48.000
 110552464.184 8  86144761.16748  21037439.860    21037439.360          49.500
        49.000
 118959761.870 7  92695908.35746  22637299.860    22637302.900          46.500
        40.250
 122756166.222 7  95654148.92546  23359733.400    23359738.580          43.500
        38.250
 127934943.267 6  99689548.26345  24345226.940    24345231.900          39.750
        34.500
 106246290.931 8  82789324.97348  20217997.460    20217999.020          50.250
        48.250
 121561916.544 7  94723574.09946  23132465.840    23132468.580          43.750
        38.250
 114873241.985 7  89511631.49847  21859650.480    21859652.100          47.500
        42.750
 105945638.812 8  82555035.22148  20160787.420    20160787.780          49.250
        49.000
 124523424.558 7  97031229.69246  23696023.520    23696025.600          42.750
        36.750
 14  1  9  9 22 30.0000000  0 10G01G19G03G27G06G32G14G20G11G28
 110482574.367 8  86090334.03548  21024135.940    21024139.940          49.500
        48.250
 110607791.187 8  86187873.05848  21047968.260    21047967.880          49.250
        49.000
 119066227.060 7  92778868.10646  22657559.640    22657562.680          46.250
        39.500
 122859481.081 7  95734653.81246  23379393.740    23379398.860          43.500
        38.750
 128039281.126 6  99770850.16445  24365081.980    24365086.900          38.500
        35.500
 106240008.972 8  82784429.91848  20216802.100    20216803.660          50.250
        48.250
 121600984.043 7  94754016.24546  23139900.260    23139902.900          42.250
        38.750
 114798938.728 8  89453732.87747  21845511.020    21845512.640          48.000
        42.750
 105934960.950 8  82546714.79748  20158755.520    20158755.880          49.500
        49.250
 124508576.536 7  97019659.75245  23693198.120    23693200.280          42.750
        34.500
 14  1  9  9 23  0.0000000  0 10G01G19G03G27G06G32G14G20G11G28
 110443209.795 8  86059660.32448  21016645.140    21016649.160          49.500
        48.250
 110663558.190 8  86231327.80648  21058580.380    21058580.060          49.500
        48.750
 119172906.287 7  92861994.64646  22677860.120    22677863.120          46.000
        39.750
 122963000.203 7  95815317.86846  23399092.860    23399098.020          42.500
        39.000
 128143718.761 6  99852229.78645  24384956.080    24384960.960          39.250
        35.000
 106234226.665 8  82779924.20348  20215701.800    20215703.380          50.250
        48.500
 121640563.996 7  94784857.69046  23147432.020    23147434.840          42.750
        37.000
 114724946.305 7  89396076.46447  21831430.680    21831432.320          47.500
        43.250
 105924656.238 8  82538685.14548  20156794.660    20156795.020          49.500
        49.250
 124494231.703 7  97008481.87645  23690468.540    23690470.640          42.000
        33.250
 14  1  9  9 23 30.0000000  0 10G01G19G03G27G06G32G14G20G11G28
 110404032.996 8  86029132.92648  21009190.060    21009194.100          49.500
        48.250
 110719765.971 8  86275126.01648  21069276.420    21069276.120          49.500
        48.750
 119279799.237 7  92945287.71046  22698201.240    22698204.340          46.000
        40.250
 123066723.345 7  95896140.88246  23418830.700    23418836.020          43.000
        37.750
 128248256.227 6  99933687.23145  24404849.180    24404853.960          39.000
        35.750
 106228944.748 8  82775808.41348  20214696.720    20214698.300          50.000
        48.500
 121680657.554 7  94816099.35146  23155061.600    23155064.460          43.000
        36.000
 114651267.794 7  89338664.65147  21817410.080    21817411.740          47.750
        42.750
 105914727.156 8  82530948.18548  20154905.280    20154905.580          49.250
        49.250
 124480391.745 7  96997697.44045  23687834.920    23687837.100          42.250
        35.250
 14  1  9  9 24  0.0000000  0 10G01G19G03G27G06G32G14G20G11G28
 110365041.360 8  85998749.82348  21001770.220    21001774.260          49.750
        48.000
 110776410.211 8  86319264.32348  21080055.560    21080055.260          49.750
        48.750
 119386900.021 7  93028742.71346  22718581.900    22718585.200          46.250
        39.000
 123170645.187 7  95977118.71646  23438606.500    23438611.840          42.500
        38.250
 128352888.038 6 100015218.15245  24424760.140    24424765.060          39.750
        32.500
 106224158.987 8  82772079.24348  20213786.040    20213787.660          50.000
        48.500
 121721260.144 7  94847737.65345  23162788.180    23162790.940          43.750
        34.750
 114577900.192 7  89281495.10947  21803448.680    21803450.440          47.750
        43.000
 105905171.124 8  82523501.91048  20153086.840    20153087.140          49.250
        49.250
 124467053.540 7  96987303.98845  23685296.900    23685299.060          42.750
        34.750
 14  1  9  9 24 30.0000000  0 10G01G19G03G27G06G32G14G20G11G28
 110326239.755 8  85968514.79548  20994386.580    20994390.620          49.750
        48.250
 110833494.145 8  86363745.24548  21090918.360    21090918.040          49.750
        48.750
 119494210.418 7  93112361.05446  22739002.500    22739005.860          45.750
        40.000
 123274767.753 7  96058253.00946  23458420.500    23458425.720          42.250
        38.500
 128457616.586 6 100096824.45445  24444689.540    24444694.600          39.000
        32.500
 106219872.478 8  82768739.10648  20212970.360    20212972.000          50.250
        48.250
 121762374.162 7  94879774.50946  23170612.180    23170614.900          44.500
        36.000
 114504848.296 8  89224571.56747  21789547.440    21789549.180          48.000
        43.250
 105895993.210 8  82516350.26248  20151340.360    20151340.620          49.500
        49.000
 124454221.059 7  96977304.58746  23682854.980    23682857.080          42.500
        38.000
 14  1  9  9 25  0.0000000  0 10G01G19G03G27G06G32G14G20G11G28
 110287624.380 8  85938424.87948  20987038.380    20987042.440          49.750
        48.500
 110891012.421 8  86408564.62248  21101863.760    21101863.420          49.250
        48.500
 119601723.490 7  93196137.34346  22759461.700    22759465.040          45.500
        40.000
 123379084.813 7  96139538.81146  23478271.600    23478276.740          42.250
        38.500
 128562435.625 6 100178501.28446  24464636.240    24464641.520          39.500
        36.250
 106216079.992 8  82765783.93748  20212248.680    20212250.320          50.000
        48.500
 121803994.566 7  94912205.92346  23178532.620    23178535.100          44.500
        37.500
 114432108.810 8  89167891.46447  21775705.620    21775707.320          48.000
        43.500
 105887190.066 8  82509490.64548  20149665.160    20149665.420          49.250
        49.000
 124441890.118 7  96967695.98646  23680508.580    23680510.660          42.750
        36.250
 14  1  9  9 25 30.0000000  0 10G01G19G03G27G06G32G14G20G11G28
 110249196.518 8  85908481.09848  20979725.840    20979729.920          49.750
        48.500
 110948969.808 8  86453726.15248  21112892.740    21112892.320          49.250
        48.250
 119709442.584 7  93280074.16546  22779960.080    22779963.420          45.250
        39.750
 123483599.814 7  96220978.85746  23498160.360    23498165.500          42.000
        39.750
 128667348.793 6 100260251.45245  24484600.760    24484606.560          40.000
        35.500
 106212786.089 8  82763217.26348  20211621.860    20211623.500          50.250
        48.500
 121846125.449 7  94945035.12546  23186550.080    23186552.460          43.750
        37.750
 114359687.963 7  89111459.65147  21761924.420    21761926.100          47.750
        42.750
 105878767.892 8  82502927.88748  20148062.440    20148062.720          49.250
        48.500
 124430065.981 7  96958482.32145  23678258.560    23678260.680          42.000
        35.500
 14  1  9  9 26  0.0000000  0 10G01G19G03G27G06G32G14G20G11G28
 110210963.476 8  85878689.11748  20972450.360    20972454.480          50.000
        48.750
 111007361.842 8  86499226.37748  21124004.420    21124003.960          49.500
        48.500
 119817362.328 7  93364167.31846  22800496.620    22800500.020          46.000
        39.750
 123588307.457 7  96302569.00146  23518085.720    23518091.000          43.250
        40.250
 128772350.820 6 100342070.85945  24504582.200    24504588.280          39.750
        35.000
 106209986.506 8  82761035.78248  20211089.120    20211090.720          50.250
        48.500
 121888762.400 7  94978258.64346  23194663.580    23194666.300          42.500
        38.750
 114287583.279 8  89055274.19447  21748203.300    21748205.060          48.000
        43.500
 105870723.975 8  82496659.88048  20146531.760    20146531.960          49.250
        49.000
 124418745.462 7  96949661.07145  23676104.280    23676106.420          42.250
        35.500
 14  1  9  9 26 30.0000000  0 10G01G19G03G27G06G32G14G20G11G28
 110172921.200 8  85849045.78748  20965211.180    20965215.320          49.750
        48.750
 111066187.878 8  86545064.77948  21135198.680    21135198.220          49.250
        48.500
 119925480.106 7  93448414.80046  22821070.860    22821074.400          45.750
        39.750
 123693205.953 7  96384307.88846  23538047.500    23538052.740          42.500
        38.500
 128877440.205 6 100423958.33745  24524580.260    24524586.560          38.750
        34.000
 106207680.430 8  82759238.84248  20210650.200    20210651.920          50.000
        48.500
 121931904.308 6  95011875.62646  23202872.940    23202876.060          41.750
        38.750
 114215795.619 8  88999335.76847  21734542.520    21734544.360          48.000
        43.250
 105863059.684 8  82490687.67448  20145073.320    20145073.500          49.250
        49.000
 124407928.626 7  96941232.31245  23674045.940    23674048.040          42.500
        35.000
 14  1  9  9 27  0.0000000  0 10G01G19G03G27G06G32G14G20G11G28
 110135070.916 8  85819552.06448  20958008.520    20958012.700          49.750
        48.500
 111125447.118 8  86591240.74348  21146475.380    21146474.900          49.250
        48.250
 120033794.144 7  93532815.19946  22841682.380    22841686.000          45.500
        39.750
 123798293.664 7  96466194.21746  23558045.140    23558050.400          42.250
        38.000
 128982615.147 6 100505912.51244  24544594.520    24544601.220          38.250
        28.500
 106205867.183 8  82757825.93048  20210305.080    20210306.800          50.000
        48.250
 121975550.286 7  95045885.41846  23211178.280    23211181.620          42.750
        37.250
 114144325.918 8  88943645.11247  21720942.180    21720944.100          48.000
        43.000
 105855776.350 8  82485012.32448  20143687.380    20143687.580          49.250
        49.250
 124397615.611 6  96933196.13946  23672083.340    23672085.740          41.250
        37.750
 14  1  9  9 27 30.0000000  0 10G01G19G03G27G06G32G14G20G11G28
 110097411.506 8  85790207.09148  20950842.120    20950846.340          49.750
        48.500
 111185136.854 8  86637752.15548  21157833.960    21157833.520          49.500
        48.250
 120142300.471 7  93617365.43246  22862330.520    22862334.240          45.500
        39.750
 123903566.999 7  96548225.14346  23578078.100    23578083.440          42.750
        38.000
 129087872.556 6 100587930.88845  24564624.480    24564631.420          38.000
        33.750
 106204544.188 8  82756795.03048  20210053.260    20210055.000          50.000
        48.500
 122019697.245 7  95080285.61546  23219579.160    23219582.440          43.500
        36.250
 114073173.360 7  88888201.55847  21707402.200    21707404.200          47.500
        43.750
 105848872.859 8  82479632.95248  20142373.680    20142373.960          49.250
        49.000
 124387804.652 6  96925551.20546  23670216.300    23670218.880          41.000
        36.000
 14  1  9  9 28  0.0000000  0 10G01G19G03G27G06G32G14G20G11G28
 110059944.020 8  85761011.65448  20943712.280    20943716.460          49.750
        48.250
 111245256.688 8  86684598.71248  21169274.440    21169274.080          49.250
        48.250
 120250996.772 7  93702063.69246  22883014.800    22883018.680          44.750
        39.250
 124009024.123 7  96630399.33146  23598146.060    23598151.500          42.750
        36.500
 129193210.554 6 100670012.06244  24584669.820    24584676.840          37.750
        27.750
 106203710.564 8  82756145.45448  20209894.620    20209896.380          50.250
        48.500
 122064344.478 7  95115075.67746  23228075.400    23228078.320          43.500
        37.000
 114002339.074 7  88833006.01147  21693922.840    21693924.840          47.750
        43.500
 105842350.761 8  82474550.77148  20141132.560    20141132.920          49.250
        49.000
 124378496.110 6  96918297.71246  23668444.920    23668447.540          41.000
        37.000
 14  1  9  9 28 30.0000000  0 10G01G19G03G27G06G32G14G20G11G28
 110022670.437 8  85731967.31448  20936619.360    20936623.440          49.750
        48.250
 111305806.504 8  86731780.31748  21180796.780    21180796.440          49.500
        48.250
 120359882.119 7  93786909.27346  22903735.120    22903739.040          45.750
        39.000
 124114664.235 7  96712716.05246  23618248.820    23618254.500          42.250
        39.000
 129298628.605 6 100752155.61646  24604730.360    24604737.620          37.750
        36.750
 106203366.490 8  82755877.34348  20209829.180    20209830.880          50.250
        48.500
 122109491.970 7  95150255.52446  23236666.800    23236669.560          42.500
        36.250
 113931825.045 7  88778060.01847  21680504.460    21680506.400          47.750
        43.250
 105836211.811 8  82469767.13948  20139964.420    20139964.820          49.250
        49.500
 124369690.784 6  96911436.35545  23666769.400    23666772.040          41.000
        34.500
 14  1  9  9 29  0.0000000  0 10G01G19G03G27G06G32G14G20G11G28
 109985589.968 8  85703073.44248  20929563.120    20929567.180          49.750
        48.250
 111366784.042 8  86779295.21048  21192400.520    21192400.200          49.750
        48.500
 120468952.671 7  93871899.16246  22924490.680    22924494.560          45.000
        39.250
 124220483.928 6  96795172.76146  23638385.720    23638391.680          41.500
        38.000
 129404123.266 6 100834358.84745  24624805.720    24624813.100          40.000
        34.750
 106203509.609 8  82755988.85348  20209856.460    20209858.120          50.250
        48.500
 122155136.937 7  95185822.97646  23245352.680    23245355.580          42.250
        38.500
 113861630.662 8  88723363.11347  21667146.980    21667148.800          48.000
        43.500
 105830455.135 8  82465281.38648  20138869.020    20138869.380          49.250
        49.250
 124361387.323 6  96904966.06945  23665189.380    23665191.880          41.500
        35.000
 14  1  9  9 29 30.0000000  0 10G01G19G03G27G06G32G14G20G11G28
 109948704.223 8  85674331.30748  20922543.920    20922548.000          49.750
        48.500
 111428188.952 8  86827143.12048  21204085.580    21204085.220          49.500
        48.250
 120578206.743 7  93957032.04546  22945281.120    22945285.000          45.250
        40.750
 124326481.993 6  96877768.39446  23658556.480    23658562.780          41.500
        38.250
 129509693.431 6 100916620.93745  24644895.540    24644902.860          39.750
        34.250
 106204139.506 8  82756479.66448  20209976.360    20209978.040          50.250
        48.500
 122201278.697 7  95221777.56246  23254133.100    23254136.100          42.250
        38.750
 113791757.122 7  88668916.19947  21653850.560    21653852.260          47.750
        43.250
 105825082.644 8  82461095.00348  20137846.680    20137847.040          49.250
        49.000
 124353586.273 6  96898887.27946  23663705.080    23663707.240          41.250
        36.250
 14  1  9  9 30  0.0000000  0 10G01G19G03G27G06G32G14G20G11G28
 109912013.836 8  85645741.39748  20915561.940    20915566.100          49.750
        48.750
 111490019.776 8  86875322.90948  21215851.640    21215851.340          49.500
        48.000
 120687641.839 7  94042305.99546  22966106.120    22966109.880          45.750
        39.250
 124432656.196 7  96960501.30946  23678760.900    23678767.320          42.250
        36.750
 129615337.335 6 100998940.48945  24664999.280    24665006.440          38.750
        35.750
 106205254.990 8  82757348.85048  20210188.680    20210190.320          50.000
        48.500
 122247915.781 7  95258118.13246  23263007.740    23263010.900          43.000
        37.750
 113722205.159 8  88614719.87647  21640615.300    21640616.940          48.000
        43.500
 105820095.305 8  82457208.72748  20136897.700    20136898.000          49.250
        49.000
 124346287.336 6  96893199.75945  23662316.240    23662318.180          41.500
        33.000
 14  1  9  9 30 30.0000000  0 10G01G19G03G27G06G32G14G20G11G28
 109875519.654 8  85617304.36848  20908617.380    20908621.540          50.000
        48.750
 111552276.178 8  86923834.32448  21227698.660    21227698.420          49.000
        48.000
 120797255.802 7  94127719.32146  22986965.100    22986968.840          45.250
        40.000
 124539004.750 6  97043370.08746  23698998.660    23699004.920          41.250
        38.750
 129721053.117 6 101081316.06546  24685116.680    24685123.840          38.500
        36.000
 106206855.203 8  82758595.75348  20210493.240    20210494.840          50.250
        48.500
 122295047.020 7  95294843.74646  23271976.600    23271979.640          43.750
        36.500
 113652975.635 8  88560774.79847  21627441.340    21627442.980          48.000
        43.750
 105815494.122 8  82453623.35648  20136022.160    20136022.420          49.250
        49.000
 124339490.176 6  96887903.22445  23661022.880    23661024.500          41.500
        34.750
 14  1  9  9 31  0.0000000  0 10G01G19G03G27G06G32G14G20G11G28
 109839222.588 8  85589020.93248  20901710.320    20901714.460          49.750
        48.750
 111614956.434 8  86972676.01648  21239626.340    21239626.120          49.500
        48.000
 120907046.336 7  94213270.22746  23007857.700    23007861.460          45.500
        39.500
 124645525.512 6  97126373.03146  23719269.000    23719275.380          40.750
        38.750
 129826838.779 6 101163746.07245  24705247.260    24705254.600          37.750
        35.250
 106208938.799 8  82760219.30348  20210889.800    20210891.380          50.250
        48.250
 122342670.939 7  95331953.28346  23281039.260    23281042.180          43.250
        37.250
 113584069.087 8  88507081.40347  21614328.820    21614330.500          48.000
        43.500
 105811279.573 8  82450339.26048  20135220.140    20135220.440          49.000
        49.000
 124333194.531 6  96882997.50546  23659824.820    23659826.520          40.750
        37.000
 14  1  9  9 31 30.0000000  0 10G01G19G03G27G06G32G14G20G11G28
 109803122.861 8  85560891.26748  20894840.760    20894844.920          49.750
        48.750
 111678059.509 8  87021847.17047  21251634.480    21251634.240          49.500
        47.750
 121017010.657 7  94298956.56146  23028783.400    23028787.220          44.750
        37.750
 124752216.156 6  97209508.34646  23739571.740    23739578.180          41.500
        37.000
 129932692.414 6 101246229.04945  24725390.800    24725398.180          37.500
        35.500
 106211504.580 8  82762218.57848  20211378.100    20211379.620          50.000
        48.500
 122390785.834 7  95369445.35646  23290195.320    23290197.980          43.000
        36.500
 113515486.124 8  88453640.14547  21601277.820    21601279.560          48.250
        43.250
 105807452.242 8  82447356.89248  20134491.780    20134492.140          49.000
        49.000
 124327399.924 6  96878482.19346  23658722.040    23658723.780          41.000
        37.750
 14  1  9  9 32  0.0000000  0 10G01G19G03G27G06G32G14G20G11G28
 109767219.608 8  85532914.69148  20888008.580    20888012.720          49.750
        48.750
 111741582.486 8  87071345.52248  21263722.560    21263722.320          49.250
        48.250
 121127144.865 7  94384775.25546  23049741.340    23049745.240          45.000
        38.750
 124859072.972 6  97292773.14946  23759906.080    23759912.680          41.000
        39.000
 130038610.145 6 101328761.99446  24745546.640    24745553.820          38.000
        36.500
 106214549.526 8  82764591.22548  20211957.520    20211959.060          50.000
        48.500
 122439388.543 7  95407317.58445  23299444.260    23299446.720          42.500
        35.000
 113447225.481 7  88400450.05047  21588288.180    21588289.960          47.750
        44.250
 105804011.053 8  82444675.42848  20133836.900    20133837.320          49.250
        49.250
 124322104.327 6  96874355.69046  23657714.480    23657716.220          41.500
        36.250
 14  1  9  9 32 30.0000000  0 10G01G19G03G27G06G32G14G20G11G28
 109731516.684 8  85505094.20248  20881214.480    20881218.640          49.750
        48.750
 111805526.979 8  87121172.33448  21275890.860    21275890.640          49.500
        48.000
 121237449.508 7  94470726.77546  23070731.740    23070735.720          45.250
        37.750
 124966097.022 6  97376168.24746  23780272.320    23780279.000          41.500
        38.500
 130144593.266 6 101411345.88245  24765714.840    24765722.180          38.250
        33.250
 106218075.647 8  82767338.81948  20212628.520    20212630.100          50.000
        48.250
 122488480.774 7  95445571.21846  23308786.300    23308788.600          43.000
        36.500
 113379290.981 8  88347514.08047  21575360.620    21575362.400          48.500
        43.750
 105800960.150 8  82442298.07348  20133256.320    20133256.780          49.000
        49.000
 124317310.377 6  96870620.10345  23656802.380    23656803.980          40.250
        35.500
 14  1  9  9 33  0.0000000  0 10G01G19G03G27G06G32G14G20G11G28
 109696015.122 8  85477430.62748  20874458.740    20874462.920          49.750
        48.750
 111869892.595 8  87171327.29048  21288139.280    21288139.100          49.250
        48.000
 121347922.532 7  94556809.48746  23091754.160    23091758.240          44.500
        38.750
 125073286.513 6  97459692.27246  23800670.000    23800676.860          40.750
        39.500
 130250640.245 6 101493979.48645  24785895.080    24785902.700          38.750
        32.500
 106222082.039 8  82770460.63948  20213390.920    20213392.560          50.250
        48.500
 122538061.553 7  95484205.53645  23318221.400    23318223.340          43.000
        35.750
 113311683.591 8  88294833.01847  21562495.360    21562497.160          48.000
        43.750
 105798300.429 8  82440225.53848  20132750.180    20132750.700          49.000
        49.250
 124313018.030 6  96867275.40346  23655985.460    23655987.240          40.750
        37.500
 14  1  9  9 33 30.0000000  0 10G01G19G03G27G06G32G14G20G11G28
 109660711.363 8  85449921.17448  20867740.700    20867744.840          49.750
        49.000
 111934673.724 8  87221806.02047  21300466.760    21300466.600          49.500
        47.750
 121458557.053 7  94643018.06046  23112807.240    23112811.480          44.250
        39.250
 125180634.982 6  97543340.17845  23821098.000    23821104.800          41.250
        35.750
 130356744.900 6 101576658.06945  24806086.480    24806094.140          39.500
        32.750
 106226563.092 8  82773952.33448  20214243.660    20214245.320          50.000
        48.500
 122588124.762 7  95523215.77946  23327748.180    23327750.020          43.250
        36.750
 113244399.465 8  88242403.84747  21549691.600    21549693.360          48.250
        43.500
 105796028.465 8  82438455.15448  20132317.860    20132318.400          49.000
        49.250
 124309222.646 6  96864317.91846  23655263.300    23655265.080          41.750
        36.000
 14  1  9  9 34  0.0000000  0  9G01G19G03G27G32G14G20G11G28
 109625603.798 8  85422564.59148  20861059.980    20861064.100          49.750
        48.500
 111999866.378 8  87272605.41948  21312872.580    21312872.380          49.500
        48.000
 121569348.367 7  94729348.79246  23133890.140    23133894.580          44.000
        38.500
 125288137.758 7  97627108.30646  23841555.320    23841562.100          42.000
        38.000
 106231514.991 8  82777810.92048  20215185.920    20215187.660          50.000
        48.500
 122638666.235 7  95562598.70446  23337365.920    23337367.860          42.750
        38.000
 113177436.440 8  88190224.88747  21536948.880    21536950.760          48.000
        44.500
 105794142.269 8  82436985.37948  20131958.980    20131959.520          49.250
        49.250
 124305921.220 6  96861745.37045  23654635.040    23654636.860          40.500
        35.750
 14  1  9  9 34 30.0000000  0  9G01G19G03G27G32G14G20G11G28
 109590708.697 8  85395373.56848  20854419.720    20854423.800          49.750
        48.750
 112065485.050 8  87323736.78447  21325359.500    21325359.240          49.500
        47.750
 121680309.855 7  94815812.10846  23155005.380    23155010.100          44.500
        38.000
 125395808.747 6  97711007.49646  23862044.760    23862051.540          41.500
        37.250
 106236952.447 8  82782047.86448  20216220.600    20216222.440          50.000
        48.500
 122689700.412 7  95602365.54446  23347077.340    23347079.440          42.500
        36.750
 113110811.510 8  88138309.37447  21524270.580    21524272.620          48.250
        44.250
 105792658.615 8  82435829.27348  20131676.740    20131677.240          49.500
        49.250
 124303129.156 6  96859569.68945  23654103.800    23654105.740          41.500
        35.500
 14  1  9  9 35  0.0000000  0  9G01G19G03G27G32G14G20G11G28
 109556012.123 8  85368337.23848  20847817.200    20847821.280          49.750
        48.750
 112131514.147 8  87375187.95748  21337924.520    21337924.220          49.250
        48.000
 121791424.043 7  94902394.42546  23176149.840    23176154.660          44.500
        39.250
 125503630.897 6  97795024.50446  23882563.020    23882569.700          41.500
        38.250
 106242859.385 8  82786650.64848  20217344.680    20217346.520          50.250
        48.500
 122741210.972 6  95642503.58546  23356879.320    23356881.760          41.750
        37.500
 113044510.239 8  88086646.06347  21511653.880    21511655.980          48.250
        44.250
 105791563.211 8  82434975.70148  20131468.380    20131468.840          49.250
        49.500
 124300831.224 6  96857779.02545  23653666.620    23653668.580          40.250
        35.500
 14  1  9  9 35 30.0000000  0  9G01G19G03G27G32G14G20G11G28
 109521519.570 8  85341459.87548  20841253.500    20841257.580          49.750
        48.750
 112197956.616 8  87426961.23847  21350568.180    21350567.880          49.250
        47.750
 121902693.292 7  94989097.55746  23197323.880    23197328.740          45.250
        37.750
 125611606.694 6  97879161.21946  23903110.420    23903116.980          41.750
        37.500
 106249238.904 8  82791621.67948  20218558.720    20218560.520          50.250
        48.250
 122793200.869 6  95683015.16146  23366772.500    23366775.060          41.750
        37.250
 112978537.349 8  88035238.63747  21499099.680    21499101.780          48.250
        44.500
 105790861.456 8  82434428.87148  20131334.880    20131335.300          49.000
        49.250
 124299031.345 6  96856376.49845  23653324.060    23653326.160          40.500
        35.000
 14  1  9  9 36  0.0000000  0  9G01G19G03G27G32G14G20G11G28
 109487227.587 8  85314738.80048  20834727.940    20834732.080          49.500
        48.750
 112264807.210 8  87479052.53447  21363289.440    21363289.240          49.250
        47.750
 122014111.182 7  95075916.52546  23218526.240    23218531.000          44.500
        37.750
 125719730.032 6  97963412.90846  23923685.760    23923692.420          40.750
        38.500
 106256085.879 8  82796956.97648  20219861.720    20219863.460          50.500
        48.250
 122845664.395 7  95723895.81445  23376755.860    23376758.380          42.500
        35.750
 112912889.746 8  87984084.68347  21486607.380    21486609.420          48.500
        44.000
 105790549.856 8  82434186.06548  20131275.600    20131276.040          49.000
        49.500
 124297724.744 6  96855358.34845  23653075.580    23653077.580          41.250
        35.750
 14  1  9  9 36 30.0000000  0  9G01G19G03G27G32G14G20G11G28
 109453143.424 8  85288179.67348  20828241.880    20828246.240          49.750
        49.250
 112332070.886 8  87531465.70847  21376089.320    21376089.200          49.250
        47.750
 122125681.447 7  95162854.22846  23239757.520    23239762.220          44.750
        38.000
 125828005.048 6  98047782.77246  23944289.920    23944296.840          41.500
        37.750
 106263405.152 8  82802660.30048  20221254.560    20221256.280          50.250
        48.250
 122898606.352 7  95765149.28546  23386830.420    23386832.780          42.750
        37.250
 112847574.211 8  87933189.50947  21474178.240    21474180.300          48.250
        44.750
 105790635.382 8  82434252.70548  20131291.880    20131292.360          49.000
        49.250
 124296917.531 6  96854729.31846  23652922.040    23652923.880          41.750
        36.250
 14  1  9  9 37  0.0000000  0  9G01G19G03G27G32G14G20G11G28
 109419264.237 8  85261780.25948  20821794.960    20821799.380          50.000
        48.750
 112399742.976 8  87584197.13148  21388966.980    21388966.880          49.250
        48.000
 122237398.493 7  95249906.30346  23261016.700    23261021.360          43.750
        38.500
 125936426.283 6  98132266.56446  23964921.980    23964929.040          41.500
        38.500
 106271192.198 8  82808728.13048  20222736.440    20222738.160          50.250
        48.500
 122952021.785 6  95806771.68846  23396994.940    23396997.360          41.750
        37.500
 112782588.080 8  87882550.98047  21461811.760    21461813.840          48.500
        44.250
 105791115.613 8  82434626.90948  20131383.200    20131383.760          49.000
        49.000
 124296605.734 6  96854486.31945  23652862.740    23652864.500          41.250
        35.250
 14  1  9  9 37 30.0000000  0  9G01G19G03G27G32G14G20G11G28
 109385592.434 8  85235542.44248  20815387.600    20815391.840          50.000
        48.750
 112467823.745 8  87637247.01347  21401922.360    21401922.280          49.250
        47.750
 122349261.482 7  95337072.08246  23282303.580    23282308.320          44.000
        38.250
 126044993.103 6  98216863.82346  23985581.660    23985588.980          40.250
        38.750
 106279447.010 8  82815160.45748  20224307.320    20224309.020          50.250
        48.500
 123005909.998 6  95848762.51445  23407249.380    23407252.040          41.750
        35.750
 112717932.933 8  87832170.36847  21449508.280    21449510.320          48.500
        44.500
 105791992.857 8  82435310.47248  20131550.120    20131550.660          49.250
        49.000
 124296790.309 7  96854630.08846  23652897.860    23652899.620          42.000
        36.250
 14  1  9  9 38  0.0000000  0 10G01G19G03G27G23G32G14G20G11G28
 109352129.067 8  85209467.05448  20809019.860    20809023.980          49.750
        49.000
 112536312.112 8  87690614.49447  21414955.320    21414955.300          49.250
        47.500
 122461268.049 7  95424349.73446  23303617.840    23303622.580          44.250
        37.500
 126153703.833 6  98301573.18346  24006268.720    24006276.280          41.000
        36.500
 130372545.919 6 101589005.60545  24809071.220    24809075.920          40.250
        33.250
 106288168.685 8  82821956.58648  20225967.040    20225968.700          50.250
        48.500
 123060270.545 6  95891121.36946  23417593.580    23417596.700          40.750
        36.250
 112653610.050 8  87782048.67047  21437268.020    21437270.020          48.500
        44.500
 105793268.065 8  82436304.13248  20131792.760    20131793.300          49.000
        49.250
 124297470.742 7  96855160.27946  23653027.320    23653029.140          42.000
        36.750
 14  1  9  9 38 30.0000000  0 10G01G19G03G27G23G32G14G20G11G28
 109318869.477 8  85183550.45148  20802690.800    20802694.960          49.750
        49.000
 112605201.152 8  87744294.18647  21428064.560    21428064.500          49.500
        47.750
 122573410.138 7  95511733.00646  23324957.880    23324962.680          44.000
        36.500
 126262550.476 6  98386388.45046  24026981.900    24026989.360          41.750
        36.750
 130266787.957 6 101506596.78645  24788946.200    24788950.860          41.000
        33.250
 106297350.112 8  82829110.95548  20227714.180    20227715.860          50.000
        48.500
 123115095.463 6  95933842.04546  23428026.240    23428029.640          41.250
        36.250
 112589613.850 8  87732181.51547  21425089.940    21425091.860          48.750
        44.500
 105794935.769 8  82437603.63148  20132110.080    20132110.600          49.000
        49.000
 124298640.775 7  96856071.93445  23653250.020    23653251.840          42.000
        34.500
 14  1  9  9 39  0.0000000  0 10G01G19G03G27G23G32G14G20G11G28
 109285818.709 8  85157796.56748  20796401.460    20796405.680          49.750
        49.000
 112674493.819 8  87798288.39047  21441250.620    21441250.500          49.250
        47.500
 122685689.688 7  95599223.36246  23346324.100    23346328.920          44.000
        38.000
 126371535.369 6  98471311.45046  24047721.400    24047728.780          41.500
        37.500
 130160997.038 6 101424162.24245  24768814.840    24768819.600          41.000
        32.000
 106306994.174 8  82836625.82148  20229549.320    20229551.060          50.000
        48.250
 123170387.427 6  95976926.66845  23438547.960    23438551.240          41.750
        35.750
 112525949.327 8  87682572.81247  21412975.000    21412976.820          48.500
        44.250
 105797001.282 8  82439213.11148  20132503.100    20132503.560          49.250
        49.000
 124300304.286 6  96857368.15146  23653566.620    23653568.520          41.750
        37.750
 14  1  9  9 39 30.0000000  0 10G01G19G03G27G23G32G14G20G11G28
 109252976.984 8  85132205.57048  20790151.860    20790156.080          49.750
        48.750
 112744188.348 8  87852595.73647  21454513.060    21454512.960          49.250
        46.750
 122798103.943 7  95686818.68745  23367715.980    23367720.880          44.500
        35.500
 126480656.007 6  98556340.22046  24068486.680    24068493.900          41.500
        37.000
 130055175.136 6 101341703.53945  24748677.480    24748682.640          40.500
        33.500
 106317099.234 8  82844499.91648  20231472.140    20231473.920          50.000
        48.250
 123226144.376 7  96020373.62546  23449158.320    23449161.560          42.000
        37.250
 112462616.814 8  87633222.81647  21400923.260    21400924.980          49.000
        44.500
 105799464.945 8  82441132.84148  20132971.960    20132972.360          49.250
        49.250
 124302460.169 7  96859048.01646  23653976.960    23653979.040          42.000
        38.750
 14  1  9  9 40  0.0000000  0 10G01G19G03G27G23G32G14G20G11G28
 109220346.646 8  85106779.29548  20783942.520    20783946.760          49.750
        49.000
 112814284.350 8  87907215.91647  21467851.860    21467851.820          49.250
        47.250
 122910651.805 7  95774518.13846  23389133.360    23389138.100          43.750
        38.000
 126589911.558 6  98641474.13146  24089277.660    24089284.760          41.000
        36.250
 129949326.183 6 101259223.70645  24728535.120    24728540.460          41.250
        32.000
 106327665.221 8  82852733.16948  20233482.640    20233484.520          50.000
        48.250
 123282366.368 7  96064182.96245  23459857.200    23459860.300          42.500
        34.750
 112399617.872 8  87584132.75047  21388935.020    21388936.660          48.750
        44.500
 105802328.798 8  82443364.39048  20133517.020    20133517.420          49.250
        49.000
 124305108.889 6  96861111.89946  23654481.040    23654483.260          41.750
        37.750
 14  1  9  9 40 30.0000000  0 10G01G19G03G27G23G32G14G20G11G28
 109187927.205 8  85081517.36048  20777773.380    20777777.640          50.000
        49.250
 112884779.794 8  87962147.35447  21481266.720    21481266.720          49.250
        47.250
 123023329.876 7  95862319.02146  23410575.460    23410580.120          44.000
        36.500
 126699298.818 6  98726710.64645  24110093.600    24110100.740          41.000
        34.000
 129843451.144 6 101176723.55345  24708387.860    24708393.100          41.000
        35.750
 106338689.621 8  82861323.63148  20235580.400    20235582.280          50.000
        48.250
 123339050.055 7  96108352.05846  23470644.040    23470646.780          43.000
        36.500
 112336952.068 8  87535302.26447  21377010.140    21377011.740          48.750
        44.500
 105805592.227 8  82445907.30548  20134138.100    20134138.480          49.250
        49.250
 124308248.770 7  96863558.47845  23655078.420    23655080.700          42.000
        35.750
 14  1  9  9 41  0.0000000  0 10G01G19G03G27G23G32G14G20G11G28
 109155719.116 8  85056420.11748  20771644.460    20771648.740          49.750
        49.000
 112955672.910 8  88017388.66747  21494757.300    21494757.380          49.000
        47.500
 123136135.285 7  95950219.14946  23432041.840    23432046.480          44.000
        36.250
 126808815.100 6  98812047.67945  24130934.020    24130941.400          39.750
        35.500
 129737551.995 6 101094204.60545  24688236.020    24688241.220          41.250
        31.750
 106350170.489 8  82870269.77048  20237765.080    20237766.940          50.000
        48.250
 123396193.274 7  96152879.20345  23481518.300    23481520.720          42.000
        34.500
 112274619.226 8  87486731.23447  21365148.540    21365150.180          48.500
        45.000
 105809255.418 8  82448761.72548  20134835.200    20134835.620          49.000
        49.250
 124311878.649 6  96866386.88646  23655769.200    23655771.580          40.750
        40.250
 14  1  9  9 41 30.0000000  0 10G01G19G03G27G23G32G14G20G11G28
 109123725.285 8  85031489.83348  20765556.280    20765560.540          50.000
        49.000
 113026963.751 8  88072939.88847  21508323.540    21508323.740          49.250
        47.250
 123249067.466 7  96038218.04046  23453532.260    23453536.800          43.750
        36.750
 126918460.356 6  98897485.21746  24151798.940    24151806.500          40.250
        36.000
 129631633.450 6 101011670.55045  24668080.360    24668085.940          41.000
        31.250
 106362108.350 8  82879572.00348  20240036.760    20240038.640          50.000
        48.250
 123453796.414 7  96197764.70146  23492479.960    23492482.340          42.250
        36.250
 112212621.941 8  87438421.67847  21353350.820    21353352.580          49.000
        44.750
 105813320.866 8  82451929.57848  20135608.840    20135609.280          49.000
        49.000
 124315999.629 6  96869597.99846  23656553.280    23656555.840          41.750
        37.750
 14  1  9  9 42  0.0000000  0 10G01G19G03G27G23G32G14G20G11G28
 109091944.029 8  85006725.19548  20759508.540    20759512.760          50.000
        49.000
 113098648.720 8  88128798.22347  21521964.760    21521965.060          49.000
        47.500
 123362121.650 7  96126312.01546  23475045.900    23475050.460          43.750
        37.750
 127028229.999 6  98983019.68446  24172687.560    24172695.280          39.750
        37.750
 129525695.582 6 100929121.41745  24647921.180    24647926.960          41.500
        32.250
 106374499.374 8  82889227.33948  20242394.720    20242396.600          50.000
        48.250
 123511855.049 6  96243005.14145  23503528.140    23503530.680          41.750
        35.250
 112150958.144 8  87390371.97847  21341616.500    21341618.320          48.500
        45.000
 105817787.186 8  82455409.79748  20136458.760    20136459.220          49.000
        49.250
 124320608.613 6  96873189.34546  23657430.380    23657432.920          41.500
        36.500
 14  1  9  9 42 30.0000000  0 10G01G19G03G27G23G32G14G20G11G28
 109060376.387 8  84982127.01548  20753501.400    20753505.640          50.000
        49.250
 113170726.574 8  88184962.70547  21535680.760    21535681.120          49.000
        47.250
 123475295.090 7  96214498.89446  23496582.200    23496586.780          43.750
        36.000
 127138121.950 6  99068649.41845  24193599.380    24193607.540          40.500
        35.250
 129419740.606 6 100846558.91445  24627758.940    24627764.560          41.500
        32.750
 106387342.229 8  82899234.74848  20244838.740    20244840.520          50.250
        48.250
 123570367.499 7  96288599.20046  23514662.680    23514665.500          42.000
        36.750
 112089628.156 8  87342582.39047  21329945.660    21329947.580          48.500
        45.250
 105822654.744 8  82459202.67948  20137385.000    20137385.540          49.000
        49.250
 124325704.718 6  96877160.25846  23658400.320    23658402.660          41.500
        38.000
 14  1  9  9 43  0.0000000  0 10G01G19G03G27G23G32G14G20G11G28
 109029022.221 8  84957695.18248  20747534.880    20747539.160          49.750
        49.000
 113243194.934 8  88241431.48047  21549471.100    21549471.480          49.250
        47.000
 123588585.446 7  96302776.88946  23518140.780    23518145.280          43.250
        37.500
 127248133.366 6  99154372.25346  24214534.040    24214542.240          40.000
        37.750
 129313770.149 7 100763984.41145  24607593.780    24607599.240          42.250
        31.500
 106400634.728 8  82909592.53148  20247368.340    20247370.000          50.250
        48.250
 123629331.662 6  96334545.21946  23525883.340    23525886.400          41.750
        37.000
 112028631.704 8  87295052.69747  21318338.320    21318340.300          48.500
        45.000
 105827923.469 8  82463308.15248  20138387.580    20138388.140          49.000
        49.250
 124331286.609 6  96881509.70345  23659462.700    23659464.920          41.750
        35.250
 14  1  9  9 43 30.0000000  0 10G01G19G03G27G23G32G14G20G11G28
 108997886.143 8  84933433.30048  20741609.800    20741614.180          49.750
        49.000
 113316055.878 8  88298206.16547  21563336.140    21563336.560          49.000
        47.000
 123701993.778 7  96391146.80946  23539721.760    23539726.280          43.250
        36.000
 127358265.683 6  99240189.29546  24235491.880    24235499.880          40.000
        36.750
 129207790.684 7 100681402.90645  24587426.960    24587432.280          42.500
        34.250
 106414378.966 8  82920302.30248  20249983.860    20249985.480          50.250
        48.500
 123688748.934 6  96380844.31446  23537190.140    23537193.420          41.500
        38.250
 111967973.287 8  87247786.40847  21306795.380    21306797.380          49.000
        45.250
 105833597.956 8  82467729.80448  20139467.360    20139468.000          49.000
        49.000
 124337356.884 6  96886239.70246  23660617.860    23660620.280          41.500
        39.000
 14  1  9  9 44  0.0000000  0 10G01G19G03G27G23G32G14G20G11G28
 108966965.486 8  84909339.27348  20735725.760    20735730.180          50.000
        49.000
 113389304.551 8  88355282.96747  21577274.960    21577275.380          49.000
        47.000
 123815513.577 7  96479603.59946  23561323.920    23561328.520          42.500
        38.000
 127468513.103 6  99326096.00746  24256471.600    24256479.620          40.250
        38.750
 129101800.584 7 100598813.12545  24567258.040    24567263.320          42.250
        33.250
 106428569.724 8  82931360.01448  20252684.320    20252685.940          50.250
        48.250
 123748613.731 7  96427492.15845  23548582.220    23548585.440          42.750
        35.250
 111907649.515 8  87200780.88247  21295316.180    21295318.100          48.750
        45.000
 105839674.653 8  82472464.86648  20140623.720    20140624.400          49.000
        49.250
 124343910.864 7  96891346.58945  23661865.100    23661867.600          42.250
        35.750
 14  1  9  9 44 30.0000000  0 10G01G19G03G27G23G32G14G20G11G28
 108936262.673 8  84885415.00948  20729883.280    20729887.660          50.250
        49.000
 113462941.150 8  88412662.06447  21591287.660    21591287.980          49.000
        46.750
 123929144.510 7  96568146.97846  23582947.140    23582952.060          43.000
        36.250
 127578875.340 6  99412092.18545  24277473.140    24277481.300          40.250
        34.000
 128995804.353 7 100516218.54745  24547087.840    24547093.200          42.000
        33.500
 106443207.381 8  82942765.94748  20255469.800    20255471.480          50.250
        48.250
 123808926.243 7  96474488.85045  23560059.520    23560062.440          42.000
        35.500
 111847662.229 8  87154037.55247  21283901.080    21283902.880          49.250
        44.750
 105846156.235 8  82477515.41848  20141857.100    20141857.780          49.000
        49.000
 124350949.643 7  96896831.26146  23663204.620    23663207.000          42.750
        38.000
 14  1  9  9 45  0.0000000  0 10G01G19G03G27G23G32G14G20G11G28
 108905780.246 8  84861662.47148  20724082.800    20724087.040          50.000
        49.250
 113536965.453 8  88470343.25947  21605374.100    21605374.360          49.000
        46.750
 124042885.651 7  96656776.22246  23604591.340    23604596.600          43.000
        36.250
 127689351.644 6  99498177.26046  24298496.380    24298504.600          39.750
        36.750
 128889805.771 6 100433622.24745  24526916.860    24526922.520          41.250
        33.250
 106458291.926 8  82954520.10648  20258340.300    20258342.000          50.250
        48.250
 123869685.959 6  96521833.98945  23571621.760    23571624.460          41.750
        35.000
 111788013.428 8  87107557.97747  21272550.360    21272552.100          49.000
        45.500
 105853044.504 8  82482882.87048  20143167.960    20143168.540          49.000
        49.250
 124358473.984 7  96902694.28845  23664636.600    23664638.900          43.250
        35.000
 14  1  9  9 45 30.0000000  0 10G01G19G03G27G23G32G14G20G11G28
 108875516.954 8  84838080.70548  20718323.840    20718328.100          49.750
        49.250
 113611374.110 8  88528323.95447  21619533.620    21619533.900          48.750
        47.250
 124156732.413 7  96745487.75545  23626255.580    23626261.160          42.000
        34.750
 127799938.111 6  99584348.15246  24319540.560    24319548.840          40.500
        36.250
 128783805.421 6 100351024.54745  24506745.420    24506751.300          40.750
        34.000
 106473820.073 8  82966619.93348  20261295.220    20261296.920          50.000
        48.250
 123930889.197 6  96569524.77246  23583268.220    23583270.820          40.500
        36.500
 111728701.556 8  87061340.93247  21261263.720    21261265.480          48.750
        45.250
 105860338.367 8  82488566.37148  20144556.000    20144556.540          49.250
        49.000
 124366480.955 7  96908933.37845  23666160.380    23666162.600          43.750
        35.500
 14  1  9  9 46  0.0000000  0 10G01G19G03G27G23G32G14G20G11G28
 108845474.786 8  84814671.24248  20712606.980    20712611.240          50.000
        49.250
 113686166.914 8  88586603.97447  21633766.260    21633766.580          49.000
        47.000
 124270683.614 7  96834280.68146  23647939.800    23647945.660          42.250
        37.750
 127910633.415 6  99670603.82846  24340605.520    24340613.880          40.000
        36.250
 128677806.694 6 100268428.12845  24486574.300    24486580.480          41.500
        32.750
 106489791.106 8  82979064.85948  20264334.380    20264336.180          50.000
        48.250
 123992534.988 6  96617560.39246  23594998.660    23595001.500          40.750
        36.000
 111669728.318 8  87015387.76647  21250041.500    21250043.300          49.000
        45.000
 105868039.550 8  82494567.25448  20146021.620    20146022.040          49.250
        49.000
 124374970.575 7  96915548.54846  23667775.920    23667778.100          42.500
        37.500
 14  1  9  9 46 30.0000000  0 10G01G19G03G27G23G32G14G20G11G28
 108815651.030 8  84791431.97848  20706931.700    20706935.960          50.000
        49.250
 113761338.536 8  88645179.17847  21648070.960    21648071.340          48.500
        46.750
 124384733.806 7  96923150.73446  23669642.960    23669649.060          42.250
        38.250
 128021432.130 6  99756940.08646  24361690.120    24361698.580          40.250
        37.500
 128571808.609 6 100185832.23845  24466403.440    24466409.780          41.750
        33.500
 106506200.180 8  82991851.11848  20267456.900    20267458.800          50.000
        48.500
 124054618.138 6  96665936.83846  23606812.520    23606815.660          41.500
        36.500
 111611090.393 8  86969695.88547  21238883.080    21238884.840          49.250
        45.000
 105876144.946 8  82500883.11648  20147564.060    20147564.440          49.000
        49.000
 124383938.480 7  96922536.44146  23669482.460    23669484.740          44.000
        36.500
 14  1  9  9 47  0.0000000  0 10G01G19G03G27G23G32G14G20G11G28
 108786046.990 8  84768363.92448  20701298.200    20701302.500          50.000
        49.250
 113836887.509 8  88704048.42747  21662447.480    21662447.900          48.750
        46.500
 124498880.244 7  97012095.77546  23691364.560    23691370.680          42.500
        37.250
 128132332.060 6  99843355.21746  24382794.000    24382802.520          41.000
        37.250
 128465813.842 7 100103238.98145  24446233.340    24446239.500          42.000
        35.750
 106523045.679 8  83004977.45148  20270662.460    20270664.440          50.000
        48.250
 124117136.798 6  96714652.62446  23618709.440    23618712.880          41.250
        37.000
 111552788.261 8  86924265.66247  21227788.540    21227790.260          49.000
        45.500
 105884654.961 8  82507514.26648  20149183.520    20149183.880          49.000
        49.000
 124393383.862 7  96929896.35746  23671280.120    23671282.240          44.000
        36.000
 14  1  9  9 47 30.0000000  0 10G01G19G03G27G23G32G14G20G11G28
 108756665.898 8  84745469.59548  20695707.100    20695711.420          50.000
        49.000
 113912815.183 8  88763212.76147  21676896.100    21676896.560          49.000
        46.750
 124613123.113 7  97101115.97346  23713104.620    23713110.640          42.750
        36.250
 128243333.865 6  99929849.69545  24403917.260    24403925.900          38.750
        35.000
 128359827.817 7 100020652.50745  24426064.940    24426071.020          42.500
        33.750
 106540328.934 8  83018444.89748  20273951.340    20273953.380          50.000
        48.500
 124180091.700 6  96763708.34446  23630689.560    23630692.880          41.750
        37.750
 111494825.091 8  86879099.56147  21216758.540    21216760.140          49.000
        45.500
 105893572.880 8  82514463.26148  20150880.580    20150880.940          49.250
        49.000
 124403308.181 7  96937629.51645  23673168.740    23673170.900          43.500
        35.500
 14  1  9  9 48  0.0000000  0 10G01G19G03G27G23G32G14G20G11G28
 108727508.904 8  84722749.88248  20690158.660    20690163.040          50.000
        49.250
 113989120.132 8  88822671.06847  21691416.500    21691417.040          48.500
        46.750
 124727460.506 7  97190209.81445  23734862.660    23734868.440          43.250
        34.250
 128354435.425 6 100016421.88146  24425059.400    24425068.380          38.500
        36.750
 128253852.756 7  99938074.64245  24405898.720    24405904.640          42.750
        33.500
 106558048.509 8  83032252.34048  20277323.280    20277325.300          50.250
        48.250
 124243480.991 6  96813102.57646  23642752.180    23642755.560          41.250
        36.750
 111437201.343 8  86834197.95947  21205793.100    21205794.640          49.250
        45.250
 105902899.672 8  82521730.86248  20152655.460    20152655.820          49.000
        49.250
 124413710.713 7  96945735.26446  23675148.480    23675150.620          44.250
        38.000
 14  1  9  9 48 30.0000000  0 10G01G19G03G27G23G32G14G20G11G28
 108698577.259 8  84700205.77148  20684653.080    20684657.500          50.000
        49.250
 114065800.987 8  88882422.29647  21706008.440    21706009.040          49.000
        46.000
 124841890.519 7  97279375.81945  23756638.340    23756643.860          43.250
        34.750
 128465635.278 6 100103070.64245  24446220.220    24446229.560          39.500
        35.750
 128147891.682 6  99855507.68845  24385735.080    24385740.760          41.500
        34.000
 106576203.343 8  83046398.94348  20280778.100    20280780.020          50.250
        48.250
 124307303.142 6  96862834.08845  23654897.060    23654900.540          41.500
        35.000
 111379917.789 8  86789561.43147  21194892.340    21194893.960          49.000
        45.750
 105912636.464 8  82529317.94448  20154508.280    20154508.700          49.000
        49.000
 124424590.783 7  96954213.14346  23677219.000    23677221.220          44.000
        36.500
 14  1  9  9 49  0.0000000  0 10G01G19G03G27G23G32G14G20G11G28
 108669869.089 8  84677835.79248  20679190.060    20679194.460          50.000
        49.500
 114142853.336 8  88942463.00147  21720671.100    21720671.700          48.750
        46.250
 124956407.629 7  97368609.71245  23778430.500    23778435.920          42.750
        35.750
 128576928.056 6 100189791.83745  24467398.800    24467408.300          39.750
        34.750
 128041943.932 6  99772951.14245  24365573.880    24365579.240          41.750
        34.750
 106594788.632 8  83060880.97048  20284314.840    20284316.680          50.250
        48.250
 124371553.373 6  96912899.21345  23667123.740    23667126.880          41.750
        34.750
 111322971.663 8  86745187.84847  21184055.780    21184057.520          49.000
        45.500
 105922780.432 8  82537222.29948  20156438.580    20156439.060          49.000
        49.000
 124435944.547 7  96963060.14446  23679379.640    23679381.980          44.500
        36.500
 14  1  9  9 49 30.0000000  0 10G01G19G03G27G23G32G14G20G11G28
 108641388.153 8  84655642.87548  20673770.340    20673774.740          50.000
        49.500
 114220278.674 8  89002794.34147  21735404.780    21735405.320          48.750
        46.750
 125071012.304 7  97457911.81645  23800239.280    23800244.660          43.000
        35.750
 128688314.821 6 100276586.26446  24488595.420    24488604.760          39.000
        36.750
 127936015.013 6  99690409.26145  24345416.060    24345421.120          41.500
        34.750
 106613806.114 8  83075699.76348  20287933.820    20287935.620          50.250
        48.500
 124436232.728 6  96963298.70546  23679432.020    23679435.020          41.500
        37.500
 111266366.515 8  86701079.94947  21173284.140    21173285.900          49.000
        45.500
 105933335.423 8  82545446.94248  20158447.080    20158447.660          49.000
        49.000
 124447773.766 7  96972277.64346  23681630.740    23681633.160          44.500
        36.500
 14  1  9  9 50  0.0000000  0 10G01G19G03G27G23G32G14G20G11G28
 108613133.924 8  84633626.61948  20668393.720    20668398.200          50.000
        49.500
 114298073.612 8  89063413.67547  21750208.780    21750209.300          48.750
        46.250
 125185700.532 7  97547279.01446  23822063.880    23822069.400          42.000
        36.000
 128799791.678 6 100363450.88845  24509809.140    24509818.460          39.750
        35.250
 127830106.111 6  99607883.02245  24325261.920    24325267.140          40.250
        35.000
 106633252.286 8  83090852.61048  20291634.400    20291636.080          50.250
        48.250
 124501337.499 6  97014029.68345  23691821.020    23691823.940          41.500
        34.750
 111210101.094 8  86657236.78547  21162577.200    21162578.960          49.250
        45.750
 105944300.291 8  82553990.96748  20160533.580    20160534.240          49.000
        49.000
 124460075.983 7  96981863.69446  23683971.940    23683974.320          44.750
        36.500
 14  1  9  9 50 30.0000000  0 10G01G19G03G27G23G32G14G20G11G28
 108585108.360 8  84611788.53848  20663060.660    20663065.140          50.000
        49.500
 114376237.790 8  89124320.73147  21765083.020    21765083.580          48.750
        46.500
 125300471.586 7  97636710.77346  23843904.180    23843909.900          42.250
        36.000
 128911357.710 6 100450384.93945  24531039.820    24531049.180          39.250
        35.750
 127724220.782 6  99525375.18745  24305112.180    24305117.480          40.750
        34.000
 106653126.875 8  83106339.28648  20295416.480    20295418.000          50.250
        48.000
 124566866.985 6  97065091.61146  23704290.720    23704293.600          40.500
        36.000
 111154176.739 8  86613659.38547  21151935.140    21151936.880          49.000
        45.250
 105955676.358 8  82562855.39948  20162698.400    20162699.100          49.000
        49.000
 124472850.987 7  96991818.16145  23686403.080    23686405.500          45.000
        35.500
 14  1  9  9 51  0.0000000  0 10G01G19G03G27G23G32G14G20G11G28
 108557311.022 8  84590128.28948  20657771.020    20657775.440          50.000
        49.250
 114454768.257 8  89185513.20447  21780026.940    21780027.540          48.750
        46.500
 125415321.527 7  97726203.98845  23865759.500    23865765.420          42.500
        35.500
 129023009.380 6 100537385.76046  24552286.800    24552296.320          39.750
        36.500
 127618359.914 6  99442886.36445  24284967.220    24284972.400          41.250
        35.000
 106673426.901 8  83122157.47248  20299279.500    20299280.900          50.250
        48.000
 124632817.806 6  97116481.84345  23716840.600    23716843.420          40.750
        33.250
 111098592.240 8  86570346.81347  21141357.720    21141359.440          49.000
        45.500
 105967462.888 8  82572039.67948  20164941.320    20164942.040          49.000
        49.250
 124486096.241 7  97002139.05046  23688923.700    23688925.980          44.000
        37.750
 14  1  9  9 51 30.0000000  0 10G01G19G03G27G23G32G14G20G11G28
 108529742.549 8  84568646.37048  20652524.920    20652529.260          50.000
        49.500
 114533662.917 8  89246989.47047  21795040.160    21795040.780          48.750
        46.250
 125530247.534 7  97815756.47945  23887629.300    23887635.480          42.250
        35.500
 129134744.217 6 100624451.37946  24573549.640    24573559.240          39.500
        37.750
 127512525.793 6  99360418.42145  24264827.540    24264832.520          41.500
        34.500
 106694150.433 8  83138305.66648  20303223.080    20303224.460          50.250
        48.250
 124699187.414 6  97168198.38246  23729470.260    23729473.140          40.750
        36.250
 111043347.733 8  86527299.17147  21130844.940    21130846.720          49.000
        45.750
 105979660.264 8  82581544.09848  20167262.420    20167263.160          49.000
        49.000
 124499810.459 7  97012825.38846  23691533.480    23691535.680          45.250
        36.250
 14  1  9  9 52  0.0000000  0 10G01G19G03G27G23G32G14G20G11G28
 108502403.059 8  84547342.88548  20647322.360    20647326.700          50.000
        49.500
 114612919.393 8  89308747.66547  21810122.200    21810122.860          48.750
        46.000
 125645246.568 6  97905365.84345  23909513.040    23909519.460          41.500
        35.500
 129246559.430 6 100711579.57845  24594827.720    24594837.440          39.750
        34.500
 127406720.399 7  99277972.80945  24244693.360    24244698.220          42.000
        34.750
 106715295.143 8  83154782.05548  20307246.740    20307248.240          50.000
        48.000
 124765973.216 6  97220239.20945  23742179.220    23742182.260          41.250
        34.500
 110988442.899 8  86484516.18747  21120396.860    21120398.640          49.000
        45.750
 105992268.134 8  82591368.38248  20169661.700    20169662.420          49.000
        49.000
 124513991.556 7  97023875.52646  23694232.160    23694234.280          44.000
        36.500
 14  1  9  9 52 30.0000000  0 10G01G19G03G27G23G32G14G20G11G28
 108475294.869 8  84526219.63548  20642163.780    20642168.200          50.000
        49.250
 114692537.272 8  89370787.47847  21825273.020    21825273.720          48.500
        46.500
 125760317.503 6  97995031.24346  23931410.560    23931417.060          41.750
        36.500
 129358454.007 6 100798769.66045  24616120.940    24616130.840          39.000
        32.500
 127300947.400 7  99195552.43746  24224565.300    24224570.000          42.000
        37.500
 106736860.623 8  83171586.31247  20311350.460    20311352.060          50.250
        47.750
 124833174.567 7  97272603.82945  23754967.460    23754970.720          42.250
        35.750
 110933879.233 8  86441999.04047  21110013.720    21110015.520          49.000
        45.750
 106005288.407 8  82601514.01848  20172139.400    20172140.120          49.000
        49.250
 124528639.516 7  97035289.46145  23697019.660    23697021.700          44.750
        35.750
 14  1  9  9 53  0.0000000  0 10G01G19G03G27G23G32G14G20G11G28
 108448418.902 8  84505277.31948  20637049.420    20637053.840          50.000
        49.250
 114772514.889 8  89433107.60347  21840492.280    21840493.040          48.250
        46.500
 125875458.042 7  98084750.88645  23953321.380    23953327.880          42.000
        35.000
 129470425.833 6 100886019.90945  24637428.880    24637438.880          39.500
        34.250
 127195209.095 7  99113159.10845  24204443.840    24204448.560          42.500
        35.750
 106758845.219 8  83188717.15148  20315533.920    20315535.640          50.000
        48.000
 124900789.128 6  97325290.45245  23767834.380    23767837.880          41.750
        35.000
 110879656.744 8  86399747.75147  21099695.540    21099697.320          49.250
        46.000
 106018721.407 8  82611981.25248  20174695.640    20174696.280          49.000
        48.750
 124543753.494 7  97047066.49345  23699895.820    23699897.780          44.000
        34.000
 14  1  9  9 53 30.0000000  0 10G01G19G03G27G23G32G14G20G11G28
 108421778.725 8  84484518.74448  20631979.900    20631984.360          50.000
        49.500
 114852853.493 8  89495709.01247  21855780.200    21855781.080          48.500
        46.000
 125990668.397 7  98174524.91246  23975245.520    23975251.880          42.000
        37.000
 129582475.509 6 100973330.82346  24658751.640    24658761.780          38.750
        36.000
 127089510.725 6  99030796.84945  24184329.980    24184334.540          41.500
        35.750
 106781249.940 8  83206175.36948  20319797.380    20319799.140          50.250
        48.000
 124968817.745 6  97378299.69345  23780779.960    23780783.360          41.000
        32.750
 110825778.416 8  86357764.62147  21089442.860    21089444.600          49.250
        45.750
 106032570.244 8  82622772.52148  20177331.060    20177331.600          49.250
        49.000
 124559335.055 7  97059207.91045  23702860.820    23702862.880          44.250
        35.750
 14  1  9  9 54  0.0000000  0 10G01G19G03G27G23G32G14G20G11G28
 108395364.618 8  84463936.32748  20626953.440    20626957.960          50.000
        49.500
 114933545.839 8  89558586.08047  21871135.480    21871136.380          48.500
        45.750
 126105940.931 6  98264347.41045  23997181.460    23997187.720          41.000
        35.000
 129694595.535 6 101060696.55545  24680087.840    24680097.980          38.000
        34.500
 126983849.571 6  98948463.57045  24164223.200    24164227.520          41.750
        35.500
 106804067.926 8  83223955.61248  20324139.440    20324141.220          50.000
        48.000
 125037253.118 6  97431625.88245  23793802.860    23793805.760          41.250
        35.500
 110772239.374 8  86316045.88147  21079254.740    21079256.460          49.250
        46.500
 106046829.799 8  82633883.83548  20180044.620    20180045.120          48.750
        49.000
 124575377.189 7  97071708.21246  23705913.480    23705915.740          44.000
        37.000
 14  1  9  9 54 30.0000000  0 10G01G19G03G27G23G32G14G20G11G28
 108369191.691 8  84443541.83848  20621972.860    20621977.420          50.000
        49.250
 115014593.923 8  89621740.33047  21886558.540    21886559.380          48.500
        45.500
 126221277.086 6  98354219.44145  24019129.460    24019135.680          41.750
        35.750
 129806787.418 6 101148118.25145  24701437.660    24701447.940          38.000
        34.750
 126878231.664 6  98866163.93945  24144124.660    24144128.840          41.750
        34.750
 106827301.169 8  83242059.43348  20328560.520    20328562.360          50.000
        48.000
 125106096.542 6  97485270.03345  23806903.480    23806905.840          41.250
        35.750
 110719043.341 8  86274594.41647  21069131.900    21069133.600          49.250
        46.000
 106061504.708 8  82645318.79748  20182837.160    20182837.680          49.000
        48.750
 124591882.288 7  97084569.26745  23709054.280    23709056.760          44.250
        35.000
 14  1  9  9 55  0.0000000  0 10G01G19G03G27G23G32G14G20G11G28
 108343254.546 8  84423331.07048  20617037.200    20617041.780          50.000
        49.500
 115095994.648 8  89685169.36047  21902048.760    21902049.520          48.750
        45.750
 126336672.998 7  98444138.02946  24041088.860    24041095.160          42.000
        36.250
 129919047.507 6 101235593.08145  24722800.540    24722810.880          38.750
        35.250
 126772658.130 6  98783898.89545  24124034.540    24124038.780          41.750
        35.750
 106850946.390 8  83260484.27748  20333060.060    20333061.940          50.000
        48.250
 125175344.517 6  97539229.41245  23820081.040    23820083.160          40.500
        35.250
 110666189.182 8  86233409.34547  21059074.100    21059075.760          49.250
        46.000
 106076593.649 8  82657076.39348  20185708.500    20185709.040          49.000
        49.000
 124608847.671 7  97097788.98345  23712282.680    23712285.240          44.500
        35.750
 14  1  9  9 55 30.0000000  0  9G01G19G03G23G32G14G20G11G28
 108317555.943 8  84403306.18448  20612146.960    20612151.500          50.250
        49.500
 115177748.475 8  89748873.54347  21917606.200    21917606.840          48.500
        46.000
 126452128.245 7  98534102.86645  24063059.600    24063065.900          42.250
        34.500
 126667133.726 7  98701672.08245  24103953.940    24103958.180          42.500
        34.750
 106875004.279 8  83279230.68948  20337638.200    20337640.060          50.250
        48.250
 125244997.288 6  97593504.16945  23833335.380    23833337.800          40.000
        35.500
 110613679.567 8  86192492.74847  21049081.900    21049083.540          49.250
        46.000
 106092098.923 8  82669158.40648  20188659.040    20188659.680          49.000
        49.000
 124626274.333 7  97111368.13445  23715598.960    23715601.460          44.500
        35.000
 14  1  9  9 56  0.0000000  0  9G01G19G03G23G32G14G20G11G28
 108292095.212 8  84383466.64148  20607302.020    20607306.440          50.250
        49.500
 115259851.599 8  89812849.90147  21933230.060    21933230.680          48.250
        45.750
 126567638.718 7  98624110.72145  24085040.840    24085046.980          42.250
        34.750
 126561658.931 7  98619483.92445  24083882.920    24083887.080          43.250
        35.000
 106899471.298 8  83298295.90848  20342294.180    20342296.060          50.250
        48.250
 125315050.886 6  97648091.25545  23846665.960    23846668.840          39.500
        35.750
 110561512.546 8  86151843.11747  21039154.840    21039156.560          49.000
        46.250
 106108019.592 8  82681564.09348  20191688.620    20191689.360          48.750
        48.750
 124644159.126 7  97125304.29845  23719002.320    23719004.880          43.500
        35.000
 14  1  9  9 56 30.0000000  0  9G01G19G03G23G32G14G20G11G28
 108266870.653 8  84363811.13348  20602502.040    20602506.340          50.250
        49.500
 115342299.727 8  89877095.09047  21948919.480    21948920.120          48.250
        45.750
 126683199.499 7  98714157.77646  24107031.640    24107037.680          42.500
        36.250
 126456233.865 7  98537334.50646  24063821.480    24063825.360          43.500
        36.000
 106924342.974 8  83317676.44648  20347027.140    20347029.000          50.250
        48.250
 125385500.582 6  97702987.01445  23860072.040    23860075.320          39.750
        35.000
 110509685.613 8  86111458.49447  21029292.480    21029294.260          49.250
        46.250
 106124352.910 8  82694291.33548  20194796.740    20194797.520          49.000
        49.000
 124662497.865 7  97139594.16345  23722492.140    23722494.680          43.750
        35.250
 14  1  9  9 57  0.0000000  0  9G01G19G03G23G32G14G20G11G28
 108241884.581 8  84344341.45148  20597747.400    20597751.640          50.250
        49.500
 115425092.742 8  89941609.02847  21964674.480    21964675.200          48.000
        46.000
 126798810.016 7  98804243.59345  24129031.860    24129037.920          42.250
        35.000
 126350862.587 7  98455226.99045  24043770.220    24043773.780          43.500
        34.000
 106949619.253 8  83337372.25948  20351837.080    20351838.860          50.000
        48.500
 125456345.836 6  97758191.01845  23873553.540    23873557.020          41.000
        35.500
 110458200.895 8  86071340.55847  21019495.300    21019497.040          49.500
        46.500
 106141101.220 8  82707341.94248  20197983.860    20197984.640          49.000
        48.750
 124681290.915 7  97154238.04346  23726068.300    23726071.020          43.250
        36.750
 14  1  9  9 57 30.0000000  0  9G01G19G03G23G32G14G20G11G28
 108217139.872 8  84325059.83448  20593038.700    20593042.840          50.250
        49.500
 115508230.709 8  90006391.75947  21980495.180    21980495.880          48.250
        45.250
 126914469.498 6  98894367.55145  24151041.340    24151047.340          41.750
        34.250
 126245549.175 7  98373164.55645  24023730.000    24023733.100          43.500
        35.750
 106975300.301 8  83357383.47548  20356724.060    20356725.700          50.250
        48.000
 125527586.053 6  97813702.82045  23887110.300    23887113.680          41.250
        33.000
 110407060.183 8  86031490.68547  21009763.540    21009765.340          49.250
        46.250
 106158266.770 8  82720717.67948  20201250.380    20201251.200          49.000
        49.000
 124700538.584 7  97169236.20545  23729731.020    23729734.060          42.750
        32.250
 14  1  9  9 58  0.0000000  0  9G01G19G03G23G32G14G20G11G28
 108192636.341 8  84305966.15248  20588375.840    20588379.920          50.250
        49.500
 115591710.505 8  90071440.84447  21996380.960    21996381.620          48.250
        45.750
 127030174.551 6  98984527.01346  24173059.480    24173065.440          41.500
        36.500
 126140295.368 7  98291148.54345  24003701.040    24003703.640          43.250
        34.000
 107001383.071 8  83377707.71948  20361687.460    20361689.040          50.250
        48.000
 125599218.090 6  97869519.90645  23900741.700    23900744.580          41.000
        34.000
 110356262.351 8  85991908.00447  21000097.040    21000098.880          49.500
        46.000
 106175848.492 8  82734417.70648  20204596.060    20204596.960          48.750
        49.000
 124720238.195 7  97184586.46245  23733479.660    23733482.920          42.250
        34.250
 14  1  9  9 58 30.0000000  0  9G01G19G03G23G32G14G20G11G28
 108168374.102 8  84287060.49148  20583758.860    20583762.980          50.250
        49.500
 115675529.295 8  90136754.08547  22012331.260    22012331.860          48.250
        45.000
 127145921.697 6  99074719.29545  24195085.560    24195091.560          41.000
        35.500
 126035102.583 7  98209180.12945  23983683.500    23983685.960          43.500
        34.750
 107027864.829 8  83398342.87048  20366726.740    20366728.320          50.250
        48.000
 125671238.777 6  97925639.85245  23914446.940    23914449.460          39.750
        33.750
 110305806.582 8  85952591.88247  20990495.640    20990497.460          49.500
        46.500
 106193845.727 8  82748441.49948  20208020.820    20208021.760          49.000
        49.000
 124740387.202 7  97200286.94046  23737313.800    23737317.240          42.000
        36.500
 14  1  9  9 59  0.0000000  0  9G01G19G03G23G32G14G20G11G28
 108144358.369 8  84268346.91148  20579188.800    20579192.940          50.250
        49.500
 115759689.950 8  90202333.71147  22028346.560    22028347.160          48.000
        45.500
 127261713.392 6  99164946.28545  24217120.060    24217126.140          40.500
        35.250
 125929977.855 7  98127264.73045  23963678.900    23963681.340          43.250
        33.750
 107054748.410 8  83419291.12648  20371842.420    20371844.100          50.000
        48.000
 125743650.462 6  97982064.46846  23928226.140    23928229.020          38.500
        36.000
 110255697.953 8  85913546.26947  20980960.260    20980962.060          49.500
        46.500
 106212263.604 8  82762793.06548  20211525.700    20211526.580          49.000
        49.000
 124760988.970 7  97216340.20045  23741234.280    23741237.740          42.000
        34.750
 14  1  9  9 59 30.0000000  0  9G01G19G03G23G32G14G20G11G28
 108120585.713 8  84249822.74148  20574665.000    20574669.200          50.500
        49.750
 115844186.133 8  90268174.78247  22044425.640    22044426.300          48.000
        45.250
 127377542.540 6  99255202.44345  24239161.760    24239167.860          41.000
        33.250
 125824919.128 7  98045400.76745  23943686.920    23943689.320          43.750
        35.500
 107082027.473 8  83440547.55247  20377033.380    20377035.060          50.250
        47.750
 125816446.571 6  98038788.63745  23942078.280    23942082.060          38.250
        34.750
 110205931.506 8  85874767.28347  20971489.960    20971491.700          49.250
        46.500
 106231097.638 8  82777468.91148  20215109.760    20215110.580          49.250
        49.000
 124782037.394 7  97232741.49845  23745239.740    23745243.320          42.250
        35.500
 14  1  9 10  0  0.0000000  0  9G01G19G03G23G32G14G20G11G28
 108097057.030 8  84231488.66948  20570187.720    20570191.900          50.500
        49.750
 115929015.842 8  90334275.74047  22060568.260    22060568.960          48.250
        45.000
 127493406.808 6  99345485.95245  24261210.180    24261216.300          41.000
        35.250
 125719928.948 7  97963590.23945  23923707.980    23923710.460          44.000
        35.500
 107109700.374 8  83462110.86048  20382299.340    20382301.020          50.250
        48.000
 125889624.643 6  98095810.45845  23956003.320    23956007.800          38.250
        33.500
 110156507.701 8  85836255.29847  20962084.880    20962086.540          49.500
        46.500
 106250348.189 8  82792469.30348  20218773.100    20218773.840          49.000
        49.000
 124803530.978 6  97249489.65145  23749330.000    23749333.560          41.750
        33.750
 14  1  9 10  0 30.0000000  0  9G01G19G03G23G32G14G20G11G28
 108073776.424 8  84213347.91148  20565757.540    20565761.780          50.250
        49.750
 116014180.560 8  90400637.74947  22076774.680    22076775.440          48.250
        45.250
 127609306.767 6  99435797.28945  24283265.440    24283271.700          40.500
        34.750
 125615012.691 7  97881837.30246  23903743.040    23903745.640          44.000
        36.000
 107137768.359 8  83483982.02447  20387640.480    20387642.200          50.000
        47.750
 125963185.436 6  98153130.52846  23970001.460    23970006.160          39.750
        36.500
 110107429.776 8  85798012.84247  20952745.560    20952747.240          49.250
        46.750
 106270018.770 8  82807797.00248  20222516.360    20222517.020          49.250
        48.750
 124825471.227 6  97266585.88345  23753505.080    23753508.700          41.000
        35.000
 14  1  9 10  1  0.0000000  0 10G01G19G03G17G23G32G14G20G11G28
 108050736.804 8  84195394.92548  20561373.280    20561377.540          50.500
        49.500
 116099670.124 8  90467252.88947  22093042.980    22093043.740          48.250
        45.000
 127725232.303 6  99526128.52745  24305325.580    24305331.900          40.750
        34.500
 130395763.099 6 101607090.66844  24813488.420    24813488.460          37.250
        25.500
 125510164.827 7  97800137.67345  23883791.140    23883793.900          43.750
        35.000
 107166221.544 8  83506153.34248  20393054.940    20393056.700          50.250
        48.000
 126037119.019 6  98210741.09145  23984070.840    23984075.240          39.750
        32.750
 110058689.766 8  85760033.69347  20943470.560    20943472.260          49.500
        46.500
 106290101.355 8  82823445.74148  20226337.980    20226338.600          49.000
        48.750
 124847848.508 6  97284022.64145  23757763.280    23757766.960          41.750
        34.500
