     2.11           OBSERVATION DATA    G (GPS)             RINEX VERSION / TYPE
teqc  2015Nov6      RinexTools-CRAAG    20161009 23:03:49UTCPGM / RUN BY / DATE
Linux2.4.20-8|i386|gcc|Win32-MinGW32|=                      COMMENT
BIT 2 OF LLI FLAGS DATA COLLECTED UNDER A/S CONDITION       COMMENT
ABZH                                                        MARKER NAME
ABZH                                                        MARKER NUMBER
-Unknown-           C.R.A.A.G.                              OBSERVER / AGENCY
462405              LEICA GRX1200PRO    8.20/2.127          REC # / TYPE / VERS
                    LEIAT504        NONE                    ANT # / TYPE
  5106715.6603   270605.8996  3799527.8127                  APPROX POSITION XYZ
        0.0770        0.0000        0.0000                  ANTENNA: DELTA H/E/N
     1     1                                                WAVELENGTH FACT L1/2
     6    L1    L2    C1    P2    S1    S2                  # / TYPES OF OBSERV
    30.0000                                                 INTERVAL
SPIDER                                                      COMMENT
Made by Spider v4.0.0                                       COMMENT
Project creator:                                            COMMENT
                                                            COMMENT
 SNR is mapped to RINEX snr flag value [0-9]                COMMENT
  L1 & L2: min(max(int(snr_dBHz/6), 0), 9)                  COMMENT
teqc edited: all GLONASS satellites excluded                COMMENT
  2014     1    10     0     0    0.0000000     GPS         TIME OF FIRST OBS
                                                            END OF HEADER
 14  1 10  0  0  0.0000000  0  7G02G31G25G14G24G12G29
 121874876.563 7  94967421.32446  23192018.320    23192015.640          45.000
        40.000
 128147359.912 6  99855086.17645  24385632.520    24385631.740          41.250
        32.000
 108893676.565 8  84852258.45848  20721765.060    20721766.600          50.250
        48.500
 113879354.000 7  88737146.69147  21670519.980    21670519.300          47.750
        42.750
 116830665.164 7  91036920.56847  22232125.660    22232128.220          45.500
        44.000
 111175600.830 8  86630386.06547  21155988.480    21155987.680          49.750
        47.250
 110007747.912 8  85720356.03648  20933761.760    20933761.360          49.750
        48.000
 14  1 10  0  0 30.0000000  0  7G02G31G25G14G24G12G29
 121856395.100 7  94953020.21146  23188501.380    23188498.780          44.500
        40.500
 128052766.112 6  99781376.75045  24367631.800    24367630.880          41.500
        35.250
 108877250.580 8  84839458.98548  20718639.260    20718640.860          50.000
        48.250
 113878287.264 7  88736315.46847  21670317.120    21670316.320          47.500
        43.750
 116908935.998 7  91097910.82047  22247020.100    22247022.740          45.750
        43.750
 111220174.004 8  86665118.40247  21164470.460    21164469.640          49.750
        47.250
 109941482.414 8  85668720.59448  20921151.840    20921151.460          49.500
        48.250
 14  1 10  0  1  0.0000000  0  7G02G31G25G14G24G12G29
 121838369.253 7  94938974.11146  23185071.080    23185068.660          44.500
        40.000
 127958188.325 7  99707679.81645  24349634.160    24349633.040          42.500
        31.750
 108861053.906 8  84826838.20448  20715557.040    20715558.760          50.000
        48.500
 113877810.233 7  88735943.75047  21670226.380    21670225.540          47.500
        43.500
 116987516.291 7  91159142.20547  22261973.480    22261976.180          45.750
        43.500
 111264909.509 8  86699977.23747  21172983.280    21172982.400          49.500
        47.000
 109875669.123 8  85617437.52248  20908627.920    20908627.640          49.500
        48.250
 14  1 10  0  1 30.0000000  0  7G02G31G25G14G24G12G29
 121820798.761 7  94925282.83546  23181727.360    23181725.060          43.750
        40.500
 127863626.807 7  99633995.54346  24331639.600    24331638.360          42.750
        36.500
 108845084.828 8  84814394.77148  20712518.120    20712519.980          50.000
        48.750
 113877921.527 7  88736030.46647  21670247.580    21670246.720          47.500
        43.250
 117066404.048 7  91220613.18747  22276985.440    22276988.100          45.500
        44.000
 111309806.054 8  86734961.55447  21181526.780    21181525.820          49.500
        47.250
 109810308.358 8  85566507.05548  20896190.060    20896189.900          49.500
        48.000
 14  1 10  0  2  0.0000000  0  7G02G31G25G14G24G12G29
 121803684.041 7  94911946.71846  23178470.540    23178468.140          44.500
        40.500
 127769082.216 7  99560324.45846  24313648.300    24313647.080          42.750
        36.500
 108829342.148 8  84802127.74948  20709522.340    20709524.300          50.000
        48.750
 113878620.405 7  88736575.03847  21670380.560    21670379.760          47.500
        43.250
 117145596.928 7  91282321.91847  22292055.320    22292057.980          45.750
        43.500
 111354861.362 8  86770069.57647  21190100.540    21190099.520          49.500
        47.000
 109745400.396 8  85515929.42748  20883838.360    20883838.280          49.500
        48.250
 14  1 10  0  2 30.0000000  0  7G02G31G25G14G24G12G29
 121787027.365 7  94898967.51046  23175300.880    23175298.300          44.750
        39.750
 127674557.203 7  99486668.64446  24295660.680    24295659.560          42.750
        37.500
 108813826.669 8  84790037.76848  20706569.840    20706571.760          50.000
        48.750
 113879907.045 7  88737577.61047  21670625.480    21670624.640          47.750
        43.000
 117225095.112 7  91344268.55147  22307183.340    22307185.920          45.750
        43.000
 111400075.832 8  86805301.62847  21198704.620    21198703.520          49.500
        47.000
 109680947.304 8  85465706.25148  20871573.320    20871573.240          49.500
        48.000
 14  1 10  0  3  0.0000000  0  7G02G31G25G14G24G12G29
 121770829.769 7  94886346.02446  23172218.620    23172215.900          44.500
        40.000
 127580052.965 7  99413028.99746  24277677.020    24277675.960          42.750
        36.500
 108798537.873 8  84778124.41948  20703660.520    20703662.380          50.000
        48.750
 113881781.146 7  88739037.93647  21670982.120    21670981.280          47.500
        43.250
 117304897.455 7  91406452.18347  22322369.240    22322371.740          45.750
        43.500
 111445448.635 8  86840657.05447  21207338.780    21207337.600          49.500
        46.750
 109616950.397 8  85415838.54148  20859395.160    20859395.040          49.750
        48.250
 14  1 10  0  3 30.0000000  0  7G02G31G25G14G24G12G29
 121755092.099 7  94874082.90846  23169223.780    23169221.080          44.250
        39.250
 127485570.906 7  99339406.64246  24259697.560    24259696.480          42.250
        36.500
 108783475.426 8  84766387.45048  20700794.280    20700796.160          50.250
        48.500
 113884242.318 7  88740955.72947  21671450.500    21671449.700          47.500
        43.250
 117385002.420 7  91468871.63647  22337612.700    22337615.100          45.750
        43.000
 111490979.209 8  86876135.41047  21216003.000    21216001.620          49.750
        46.750
 109553410.922 8  85366327.27048  20847304.060    20847303.820          49.500
        48.250
 14  1 10  0  4  0.0000000  0  7G02G31G25G14G24G12G29
 121739814.723 7  94862178.46846  23166316.540    23166313.960          45.000
        40.000
 127391111.594 7  99265802.00945  24241722.480    24241721.360          42.250
        35.750
 108768637.754 8  84754825.62448  20697970.780    20697972.640          50.000
        48.500
 113887288.738 7  88743329.55447  21672030.200    21672029.480          47.500
        43.500
 117465408.341 7  91531525.61147  22352913.400    22352915.780          45.500
        44.250
 111536665.213 8  86911734.88447  21224696.800    21224695.420          49.750
        46.750
 109490328.762 8  85317172.34848  20835299.960    20835299.700          49.750
        48.250
 14  1 10  0  4 30.0000000  0  7G02G31G25G14G24G12G29
 121724998.894 7  94850633.69046  23163497.180    23163494.700          45.000
        40.000
 127296676.880 6  99192216.53946  24223752.060    24223751.020          41.250
        36.000
 108754025.038 8  84743439.08648  20695190.060    20695191.840          50.000
        48.500
 113890920.837 7  88746159.75147  21672721.340    21672720.680          47.500
        43.000
 117546114.146 7  91594413.23947  22368271.160    22368273.620          45.250
        43.500
 111582506.582 8  86947455.42947  21233420.120    21233418.840          49.500
        47.500
 109427705.377 8  85268374.91648  20823383.080    20823382.920          49.750
        48.500
 14  1 10  0  5  0.0000000  0  7G02G31G25G14G24G12G29
 121710646.489 7  94839450.00446  23160765.900    23160763.640          44.750
        38.750
 127202270.034 6  99118652.79346  24205786.940    24205786.020          41.250
        38.000
 108739638.337 8  84732228.66848  20692452.340    20692454.060          50.000
        48.250
 113895139.165 7  88749446.76047  21673523.960    21673523.300          47.500
        43.000
 117627120.118 7  91657534.76347  22383686.080    22383688.560          45.500
        42.250
 111628503.876 8  86983297.47247  21242173.160    21242171.920          49.750
        47.000
 109365543.696 8  85219937.24948  20811554.060    20811554.040          49.750
        48.500
 14  1 10  0  5 30.0000000  0  7G02G31G25G14G24G12G29
 121696758.647 7  94828628.30946  23158123.120    23158120.800          45.000
        39.500
 127107891.305 6  99045110.93146  24187827.200    24187826.360          41.500
        38.000
 108725476.718 8  84721193.63848  20689757.440    20689759.200          50.000
        48.750
 113899942.945 7  88753189.95347  21674438.040    21674437.380          47.500
        43.500
 117708424.690 7  91720888.96647  22399157.840    22399160.340          45.250
        42.750
 111674656.537 8  87019260.57947  21250955.780    21250954.580          49.500
        47.250
 109303843.873 8  85171859.46848  20799812.900    20799813.000          49.750
        48.750
 14  1 10  0  6  0.0000000  0  7G02G31G25G14G24G12G29
 121683334.498 7  94818167.95646  23155568.620    23155566.200          45.000
        40.250
 127013540.858 7  98971591.12046  24169873.020    24169872.160          42.500
        36.500
 108711538.168 8  84710332.43048  20687105.000    20687106.820          50.000
        48.500
 113905329.771 7  88757387.48247  21675463.100    21675462.340          47.500
        43.250
 117790025.091 7  91784473.68047  22414685.840    22414688.400          45.750
        42.750
 111720961.332 8  87055342.23147  21259767.260    21259766.220          49.500
        47.250
 109242605.457 8  85124141.23148  20788159.600    20788159.740          49.750
        48.750
 14  1 10  0  6 30.0000000  0  7G02G31G25G14G24G12G29
 121670377.352 7  94808071.50046  23153103.080    23153100.460          45.000
        40.500
 126919222.972 7  98898096.67246  24151925.100    24151924.080          42.000
        39.000
 108697824.995 8  84699646.84348  20684495.480    20684497.340          50.000
        48.750
 113911301.680 7  88762040.90347  21676599.540    21676598.720          47.500
        43.000
 117871922.467 7  91848289.80947  22430270.320    22430273.000          45.000
        43.250
 111767420.673 8  87091544.30447  21268608.140    21268607.120          49.500
        46.500
 109181832.522 8  85076785.70548  20776594.960    20776595.000          50.000
        48.500
 14  1 10  0  7  0.0000000  0  7G02G31G25G14G24G12G29
 121657887.885 7  94798339.45046  23150726.400    23150723.880          44.500
        41.500
 126824938.400 6  98824628.18646  24133983.460    24133982.380          41.000
        38.250
 108684336.181 8  84689136.08348  20681928.680    20681930.560          50.000
        48.750
 113917857.555 7  88767149.36147  21677847.060    21677846.340          47.750
        43.250
 117954115.121 7  91912336.02147  22445910.980    22445913.780          44.750
        43.250
 111814032.669 8  87127865.33647  21277478.020    21277477.020          49.250
        47.000
 109121524.926 8  85029792.77948  20765118.940    20765118.760          50.000
        48.500
 14  1 10  0  7 30.0000000  0  7G02G31G25G14G24G12G29
 121645868.930 7  94788974.05446  23148439.160    23148436.740          44.500
        40.250
 126730690.644 6  98751188.39346  24116048.740    24116047.600          41.000
        38.000
 108671073.323 8  84678801.38648  20679404.840    20679406.700          50.000
        48.750
 113924998.707 7  88772713.88947  21679205.980    21679205.300          47.250
        43.750
 118036603.546 7  91976612.70647  22461607.980    22461610.880          45.000
        43.250
 111860798.383 8  87164306.14647  21286377.180    21286376.200          49.500
        46.500
 109061685.737 8  84983164.85648  20753732.060    20753731.700          50.000
        48.750
 14  1 10  0  8  0.0000000  0  7G02G31G25G14G24G12G29
 121634318.210 7  94779973.49346  23146240.940    23146238.780          44.500
        40.500
 126636478.145 7  98677776.06946  24098120.740    24098119.620          42.000
        36.500
 108658032.931 8  84668640.04648  20676923.280    20676925.140          50.000
        48.500
 113932721.197 7  88778731.39747  21680675.580    21680674.860          47.500
        42.500
 118119383.514 7  92041116.57947  22477360.500    22477363.420          45.000
        43.750
 111907714.862 8  87200864.43347  21295305.060    21295304.080          49.250
        46.750
 109002313.017 8  84936900.40948  20742433.860    20742433.400          49.750
        48.750
 14  1 10  0  8 30.0000000  0  7G02G31G25G14G24G12G29
 121623236.354 7  94771338.29146  23144131.940    23144130.060          43.750
        40.250
 126542302.342 7  98604392.34446  24080199.800    24080198.600          42.250
        39.000
 108645214.489 8  84658651.64948  20674483.920    20674485.820          50.000
        48.750
 113941024.313 7  88785201.35447  21682255.600    21682254.920          47.250
        42.750
 118202453.782 7  92105846.64447  22493168.360    22493171.180          45.000
        43.000
 111954780.975 8  87237539.31647  21304261.460    21304260.440          49.250
        47.000
 108943407.740 8  84891000.20348  20731224.500    20731224.120          49.750
        49.000
 14  1 10  0  9  0.0000000  0  7G02G31G25G14G24G12G29
 121612627.315 7  94763071.54046  23142113.000    23142111.160          44.000
        40.000
 126448168.032 7  98531040.95746  24062286.720    24062285.480          43.500
        37.750
 108632620.801 8  84648838.38648  20672087.420    20672089.320          50.000
        48.500
 113949910.418 7  88792125.57747  21683946.500    21683945.920          47.250
        43.000
 118285816.472 7  92170804.57447  22509031.820    22509034.600          44.750
        43.000
 112001998.764 8  87274332.39247  21313246.720    21313245.620          49.250
        46.500
 108884973.629 8  84845467.14548  20720104.740    20720104.500          49.750
        49.000
 14  1 10  0  9 30.0000000  0  7G02G31G25G14G24G12G29
 121602492.170 7  94755174.01846  23140184.340    23140182.360          44.500
        40.000
 126354076.620 7  98457722.98746  24044381.760    24044380.460          43.500
        37.750
 108620251.659 8  84639200.09848  20669733.680    20669735.600          50.000
        48.500
 113959378.799 7  88799503.53047  21685748.200    21685747.720          47.000
        42.750
 118369469.932 7  92235989.08147  22524950.580    22524953.360          44.750
        43.500
 112049367.611 8  87311243.17447  21322260.840    21322259.640          49.750
        46.750
 108827011.773 8  84800302.06448  20709074.880    20709074.700          49.750
        48.750
 14  1 10  0 10  0.0000000  0  7G02G31G25G14G24G12G29
 121592829.650 7  94747644.80246  23138345.720    23138343.500          44.750
        41.000
 126260027.691 7  98384438.10846  24026484.880    24026483.540          43.250
        37.750
 108608104.834 8  84629735.03348  20667422.200    20667424.180          49.750
        48.750
 113969427.081 7  88807333.35047  21687660.320    21687659.900          47.250
        43.500
 118453411.272 7  92301397.90447  22540924.120    22540926.880          44.750
        43.000
 112096885.234 8  87348269.88147  21331303.320    21331302.000          49.750
        46.750
 108769521.386 8  84755504.37048  20698134.780    20698134.580          49.750
        49.000
 14  1 10  0 10 30.0000000  0  7G02G31G25G14G24G12G29
 121583640.587 7  94740484.51446  23136597.220    23136594.880          44.750
        40.750
 126166022.955 7  98311187.68946  24008596.440    24008595.120          42.500
        38.000
 108596179.905 8  84620442.88548  20665152.920    20665154.960          50.000
        48.750
 113980054.226 7  88815614.24047  21689682.620    21689682.260          47.000
        43.500
 118537639.307 7  92367030.11847  22556952.240    22556954.900          45.250
        42.250
 112144551.091 8  87385412.09747  21340373.960    21340372.560          49.500
        46.750
 108712503.510 8  84711074.87848  20687284.600    20687284.460          49.750
        49.000
 14  1 10  0 11  0.0000000  0  7G02G31G25G14G24G12G29
 121574927.470 7  94733695.09446  23134939.240    23134936.860          44.500
        40.500
 126072065.680 7  98237974.25846  23990716.980    23990715.640          43.000
        37.500
 108584478.071 8  84611324.57548  20662926.180    20662928.160          50.000
        48.750
 113991260.837 7  88824346.66647  21691815.160    21691814.820          47.000
        43.000
 118622154.108 7  92432885.79746  22573035.020    22573037.420          45.250
        41.750
 112192365.590 8  87422670.14647  21349472.760    21349471.340          49.250
        46.500
 108655960.327 8  84667015.26348  20676524.820    20676524.660          50.000
        49.000
 14  1 10  0 11 30.0000000  0  7G02G31G25G14G24G12G29
 121566691.936 7  94727277.79546  23133372.020    23133369.760          44.750
        40.000
 125978158.115 7  98164799.53846  23972846.860    23972845.580          43.250
        39.000
 108572999.909 8  84602380.54948  20660741.960    20660743.940          49.750
        49.000
 114003046.880 7  88833530.59447  21694057.980    21694057.640          47.000
        43.250
 118706954.847 7  92498964.30347  22589172.120    22589174.400          45.000
        42.000
 112240329.108 8  87460044.30447  21358599.840    21358598.460          49.500
        47.000
 108599893.562 8  84623326.89248  20665855.720    20665855.540          50.000
        49.000
 14  1 10  0 12  0.0000000  0  7G02G31G25G14G24G12G29
 121558934.660 7  94721233.15746  23131895.940    23131893.600          45.500
        39.250
 125884302.290 7  98091665.14646  23954986.500    23954985.360          42.750
        38.500
 108561745.376 8  84593610.78648  20658600.220    20658602.300          50.000
        48.750
 114015412.076 7  88843165.81347  21696411.000    21696410.660          47.000
        43.000
 118792041.249 7  92565265.39047  22605363.480    22605365.900          45.250
        42.000
 112288441.193 8  87497534.23247  21367755.260    21367753.960          49.250
        46.500
 108544304.357 8  84580010.63748  20655277.460    20655277.260          50.000
        49.000
 14  1 10  0 12 30.0000000  0  7G02G31G25G14G24G12G29
 121551653.743 7  94715559.73546  23130510.520    23130508.000          44.750
        39.750
 125790496.833 7  98018570.01946  23937135.720    23937134.740          42.750
        37.750
 108550711.205 8  84585012.73948  20656500.500    20656502.600          50.000
        48.750
 114028352.648 7  88853249.37447  21698873.560    21698873.140          47.500
        43.000
 118877408.704 7  92631785.47446  22621608.340    22621610.840          45.000
        41.750
 112336698.334 8  87535137.19147  21376938.260    21376937.020          49.000
        46.500
 108489190.649 8  84537064.90448  20644789.660    20644789.440          50.000
        49.250
 14  1 10  0 13  0.0000000  0  7G02G31G25G14G24G12G29
 121544851.297 7  94710259.14846  23129216.220    23129213.540          45.250
        41.000
 125696745.235 7  97945516.83446  23919295.320    23919294.380          43.000
        38.250
 108539899.016 8  84576587.64748  20654443.120    20654445.080          50.000
        49.000
 114041869.224 7  88863781.75547  21701445.760    21701445.180          47.000
        42.750
 118963057.571 7  92698524.82847  22637906.780    22637909.240          45.000
        42.500
 112385101.664 8  87572854.08247  21386148.960    21386147.860          49.250
        46.500
 108434555.270 8  84494491.89848  20634392.900    20634392.640          50.000
        49.250
 14  1 10  0 13 30.0000000  0  7G02G31G25G14G24G12G29
 121538528.057 7  94705331.96946  23128013.080    23128010.320          45.000
        41.000
 125603048.596 7  97872506.49746  23901465.400    23901464.520          42.500
        38.250
 108529308.065 8  84568334.96448  20652427.820    20652429.660          50.000
        48.750
 114055960.636 7  88874762.06747  21704127.340    21704126.680          47.250
        43.000
 119048986.382 7  92765482.32346  22654258.500    22654260.920          44.750
        41.500
 112433650.409 8  87610684.27547  21395387.380    21395386.460          49.250
        46.750
 108380398.703 8  84452291.98448  20624087.220    20624086.920          49.750
        49.250
 14  1 10  0 14  0.0000000  0  7G02G31G25G14G24G12G29
 121532684.250 7  94700778.36346  23126901.080    23126898.280          44.750
        40.500
 125509408.530 7  97799540.22646  23883646.300    23883645.340          42.250
        37.000
 108518937.799 8  84560254.24148  20650454.440    20650456.240          50.000
        48.500
 114070625.688 7  88886189.35547  21706918.060    21706917.340          47.250
        43.000
 119135194.051 7  92832657.12646  22670663.300    22670665.740          45.000
        41.750
 112482343.442 8  87648626.89747  21404653.240    21404652.520          49.000
        46.750
 108326721.332 8  84410465.46948  20613872.700    20613872.380          49.750
        49.500
 14  1 10  0 14 30.0000000  0  7G02G31G25G14G24G12G29
 121527323.644 7  94696601.27346  23125880.840    23125878.100          45.000
        39.000
 125415829.428 7  97726621.47646  23865838.760    23865837.780          42.500
        36.750
 108508790.801 8  84552347.48848  20648523.500    20648525.380          50.000
        48.750
 114085866.139 7  88898065.02447  21709818.240    21709817.500          47.000
        43.250
 119221681.383 7  92900049.84246  22687121.320    22687123.660          44.750
        41.500
 112531183.019 8  87686683.69447  21413947.140    21413946.320          49.500
        46.250
 108273527.028 8  84369015.36848  20603750.100    20603749.840          50.000
        49.250
 14  1 10  0 15  0.0000000  0  7G02G31G25G14G24G12G29
 121522444.792 7  94692799.58146  23124952.200    23124949.580          44.750
        40.500
 125322311.004 6  97653749.96846  23848042.820    23848041.700          41.750
        38.750
 108498864.759 8  84544612.90948  20646634.640    20646636.540          50.000
        48.750
 114101679.119 7  88910386.82647  21712827.360    21712826.600          47.250
        43.000
 119308445.179 7  92967657.97446  22703631.900    22703634.160          44.000
        41.750
 112580166.389 8  87724852.54847  21423268.460    21423267.440          49.500
        46.250
 108220814.227 8  84327940.46948  20593719.180    20593718.960          50.000
        49.500
 14  1 10  0 15 30.0000000  0  7G02G31G25G14G24G12G29
 121518049.667 7  94689374.82946  23124115.840    23124113.120          45.250
        40.750
 125228856.625 7  97580928.42046  23830258.800    23830257.820          42.000
        36.750
 108489160.976 8  84537051.52648  20644788.080    20644789.960          50.000
        49.000
 114118065.121 7  88923155.13147  21715945.500    21715944.740          47.000
        43.000
 119395485.835 7  93035481.85347  22720195.200    22720197.480          44.500
        42.000
 112629294.539 8  87763134.21547  21432617.420    21432616.140          49.500
        46.250
 108168585.394 8  84287242.68548  20583780.380    20583780.220          50.250
        49.500
 14  1 10  0 16  0.0000000  0  7G02G31G25G14G24G12G29
 121514136.143 7  94686325.31746  23123371.140    23123368.400          44.750
        40.500
 125135465.165 6  97508155.82446  23812486.840    23812485.960          40.750
        38.000
 108479676.457 8  84529660.99248  20642983.240    20642985.140          50.000
        48.750
 114135020.322 7  88936366.97247  21719171.920    21719171.260          47.250
        42.500
 119482799.350 7  93103518.33646  22736810.420    22736812.680          44.250
        41.250
 112678564.574 8  87801526.43447  21441993.380    21441991.940          49.250
        46.250
 108116838.539 8  84246920.47748  20573933.340    20573933.160          50.250
        49.250
 14  1 10  0 16 30.0000000  0  7G02G31G25G14G24G12G29
 121510709.400 7  94683655.13846  23122719.060    23122716.400          45.000
        39.750
 125042142.564 7  97435436.95146  23794727.900    23794727.220          42.250
        38.250
 108470415.377 8  84522444.56348  20641220.920    20641222.840          50.000
        49.000
 114152548.080 7  88950024.96447  21722507.320    21722506.720          47.000
        43.000
 119570388.794 7  93171769.84946  22753478.020    22753480.440          44.250
        41.750
 112727980.122 8  87840032.05147  21451396.860    21451395.380          49.250
        45.750
 108065578.890 8  84206977.90148  20564179.040    20564178.780          50.250
        49.500
 14  1 10  0 17  0.0000000  0  7G02G31G25G14G24G12G29
 121507762.875 7  94681359.15746  23122158.420    23122155.640          45.000
        40.250
 124948883.743 7  97362767.75546  23776981.320    23776980.600          43.750
        36.750
 108461370.397 8  84515396.52748  20639499.700    20639501.560          50.000
        48.750
 114170640.314 7  88964122.80847  21725950.160    21725949.620          47.000
        42.750
 119658245.314 7  93240229.47446  22770196.480    22770199.100          44.250
        41.500
 112777533.049 8  87878644.71047  21460826.500    21460824.940          49.500
        46.250
 108014799.986 8  84167409.93248  20554516.140    20554515.820          50.000
        49.500
 14  1 10  0 17 30.0000000  0  7G02G31G25G14G24G12G29
 121505301.004 7  94679440.82246  23121690.000    23121687.080          45.250
        40.500
 124855694.352 7  97290152.65346  23759248.100    23759247.200          44.000
        37.750
 108452545.119 8  84508519.69748  20637820.280    20637822.100          50.000
        48.750
 114189299.720 7  88978662.59147  21729500.920    21729500.340          47.000
        42.750
 119746371.631 7  93308899.31447  22786966.340    22786968.940          44.000
        42.250
 112827227.392 8  87917367.56047  21470283.080    21470281.540          49.500
        46.250
 107964506.344 8  84128220.09748  20544945.580    20544945.180          50.000
        49.500
 14  1 10  0 18  0.0000000  0  7G02G31G25G14G24G12G29
 121503325.665 7  94677901.61146  23121314.180    23121311.140          45.250
        40.250
 124762577.302 7  97217593.91946  23741528.700    23741527.500          43.500
        37.000
 108443940.513 8  84501814.81448  20636182.920    20636184.680          50.250
        48.750
 114208526.242 7  88993644.28847  21733159.620    21733158.960          47.250
        43.000
 119834768.065 7  93377779.65247  22803787.620    22803790.080          44.000
        42.250
 112877063.633 8  87956200.98347  21479766.600    21479765.120          49.000
        46.000
 107914699.958 8  84089409.93748  20535467.680    20535467.260          50.000
        49.500
 14  1 10  0 18 30.0000000  0  7G02G31G25G14G24G12G29
 121501836.249 7  94676741.03546  23121030.840    23121027.720          45.250
        40.500
 124669533.144 7  97145091.99846  23723823.140    23723821.640          43.500
        37.500
 108435555.474 8  84495281.00748  20634587.280    20634589.060          50.000
        48.750
 114228317.862 7  89009066.33147  21736925.840    21736925.220          46.750
        43.500
 119923431.496 7  93446868.02646  22820659.780    22820662.140          44.250
        41.000
 112927039.856 8  87995143.48247  21489276.640    21489275.260          48.750
        46.750
 107865380.444 8  84050979.15948  20526082.440    20526082.060          50.000
        49.500
 14  1 10  0 19  0.0000000  0  7G02G31G25G14G24G12G29
 121500832.337 7  94675958.76846  23120839.800    23120836.700          45.000
        40.500
 124576563.355 7  97072648.01746  23706131.740    23706129.900          44.250
        39.000
 108427388.923 8  84488917.46248  20633033.140    20633035.040          49.750
        48.750
 114248672.858 7  89024927.35747  21740799.300    21740798.740          46.750
        43.250
 120012360.202 7  93516163.10546  22837582.500    22837584.680          44.500
        40.750
 112977154.762 8  88034194.06447  21498813.100    21498811.820          49.000
        46.250
 107816547.793 8  84012927.74948  20516789.840    20516789.520          50.000
        49.750
 14  1 10  0 19 30.0000000  0  7G02G31G25G14G24G12G29
 121500317.643 7  94675557.70846  23120741.820    23120738.820          44.750
        39.750
 124483672.164 7  97000265.27346  23688455.280    23688453.220          44.250
        38.250
 108419443.624 8  84482726.32948  20631521.100    20631523.120          50.000
        48.750
 114269592.918 7  89041228.69447  21744780.240    21744779.740          47.250
        43.250
 120101555.971 7  93585666.30846  22854556.020    22854558.020          44.250
        40.750
 113027411.459 8  88073355.12147  21508376.480    21508375.420          48.750
        46.750
 107768205.763 8  83975258.63948  20507590.600    20507590.360          50.000
        49.500
 14  1 10  0 20  0.0000000  0  7G02G31G25G14G24G12G29
 121500294.248 7  94675539.49446  23120737.320    23120734.300          44.500
        40.750
 124390863.342 7  96927946.70945  23670794.340    23670792.320          44.000
        35.750
 108411721.040 8  84476708.72248  20630051.600    20630053.600          50.000
        48.750
 114291078.188 7  89057970.45147  21748868.720    21748868.240          47.250
        43.000
 120191018.672 7  93655377.47946  22871580.240    22871582.240          44.250
        40.750
 113077810.739 8  88112627.27447  21517967.040    21517966.300          49.000
        46.500
 107720356.568 8  83937973.55848  20498485.140    20498484.980          50.000
        49.500
 14  1 10  0 20 30.0000000  0  7G02G31G25G14G24G12G29
 121500756.846 7  94675899.97746  23120825.280    23120822.180          45.000
        39.500
 124298132.479 7  96855688.90146  23653148.160    23653146.260          43.750
        39.000
 108404215.159 8  84470859.98348  20628623.320    20628625.240          50.000
        48.750
 114313122.158 7  89075147.55847  21753063.520    21753063.020          47.250
        42.250
 120280741.269 7  93725291.17046  22888654.000    22888655.980          44.000
        40.750
 113128346.082 8  88152005.47647  21527583.520    21527583.060          48.750
        46.500
 107672994.925 8  83901068.39648  20489472.500    20489472.380          50.250
        49.750
 14  1 10  0 21  0.0000000  0  7G02G31G25G14G24G12G29
 121501711.108 7  94676643.57246  23121006.760    23121003.720          44.750
        40.250
 124205487.158 7  96783497.75446  23635518.180    23635516.480          43.250
        38.750
 108396931.073 8  84465184.06748  20627237.200    20627239.080          50.000
        48.750
 114335728.377 7  89092762.77347  21757365.360    21757364.840          47.250
        42.750
 120370727.637 7  93795410.40646  22905777.940    22905779.740          43.750
        40.750
 113179022.331 8  88191493.45847  21537226.880    21537226.520          49.250
        46.250
 107626126.517 8  83864547.57548  20480553.800    20480553.600          50.250
        49.750
 14  1 10  0 21 30.0000000  0  7G02G31G25G14G24G12G29
 121503156.180 7  94677769.60846  23121281.640    23121278.860          45.000
        40.500
 124112928.100 7  96711373.85446  23617904.560    23617903.220          43.500
        39.750
 108389867.386 8  84459679.90148  20625893.000    20625894.940          50.000
        49.000
 114358894.142 7  89110814.02347  21761773.640    21761773.080          47.000
        42.750
 120460974.944 7  93865732.97546  22922951.360    22922953.300          42.500
        41.000
 113229837.993 8  88231090.06747  21546896.880    21546896.360          49.250
        46.000
 107579751.147 8  83828410.93148  20471728.980    20471728.620          50.250
        50.000
 14  1 10  0 22  0.0000000  0  7G02G31G25G14G24G12G29
 121505090.251 7  94679276.67446  23121649.640    23121647.020          45.250
        41.000
 124020454.274 7  96639316.34846  23600307.260    23600306.220          44.000
        40.500
 108383021.470 8  84454345.42648  20624590.220    20624592.260          50.000
        48.750
 114382616.150 7  89129298.69047  21766287.800    21766287.180          47.000
        42.750
 120551479.992 7  93936256.36446  22940173.760    22940175.860          43.250
        40.250
 113280790.307 8  88270793.16347  21556593.040    21556592.120          49.500
        46.250
 107533866.603 8  83792656.75748  20462997.480    20462997.060          50.250
        49.750
 14  1 10  0 22 30.0000000  0  7G02G31G25G14G24G12G29
 121507513.526 7  94681164.94946  23122110.840    23122108.220          45.000
        39.750
 123928067.829 7  96567326.93046  23582726.640    23582725.800          43.500
        41.750
 108376393.451 8  84449180.74248  20623328.900    20623330.980          50.000
        48.750
 114406893.190 7  89148215.86047  21770907.640    21770907.000          47.500
        42.500
 120642241.018 7  94006979.24246  22957444.880    22957446.980          43.750
        40.250
 113331878.493 8  88310602.12347  21566314.960    21566313.760          49.000
        45.750
 107488473.903 8  83757285.82848  20454359.500    20454359.140          50.000
        50.000
 14  1 10  0 23  0.0000000  0  7G02G31G25G14G24G12G29
 121510429.017 7  94683436.78746  23122665.720    23122662.920          44.750
        40.750
 123835773.124 7  96495409.01946  23565163.440    23565162.800          43.250
        40.250
 108369985.401 8  84444187.45248  20622109.480    20622111.500          50.000
        48.750
 114431726.330 7  89167566.35046  21775633.240    21775632.640          47.250
        41.750
 120733258.903 7  94077902.27246  22974764.980    22974766.960          43.750
        40.000
 113383105.022 8  88350518.88147  21576063.120    21576061.760          49.250
        45.750
 107443575.626 8  83722300.15448  20445815.560    20445815.300          50.250
        50.000
 14  1 10  0 23 30.0000000  0  7G02G31G25G14G24G12G29
 121513834.945 7  94686090.77346  23123313.860    23123310.920          44.500
        40.750
 123743569.779 7  96423562.28246  23547617.760    23547617.160          43.500
        40.500
 108363795.074 8  84439363.81248  20620931.540    20620933.480          50.000
        48.750
 114457111.901 7  89187347.28847  21780463.940    21780463.360          47.000
        42.750
 120824530.545 7  94149023.01646  22992133.400    22992135.420          43.000
        41.500
 113434466.898 8  88390541.10947  21585837.000    21585835.520          49.000
        45.250
 107399170.358 8  83687698.65548  20437365.460    20437365.300          50.250
        50.000
 14  1 10  0 24  0.0000000  0  7G02G31G25G14G24G12G29
 121517732.634 7  94689127.93746  23124055.440    23124052.500          44.750
        40.000
 123651460.747 7  96351789.02646  23530090.040    23530089.440          43.000
        40.500
 108357823.168 8  84434710.38548  20619795.200    20619797.080          50.250
        49.000
 114483049.484 7  89207558.37447  21785399.720    21785399.080          47.250
        42.750
 120916055.112 7  94220340.84646  23009549.980    23009551.980          43.750
        40.000
 113485964.517 8  88430669.12647  21595636.620    21595635.160          48.750
        45.750
 107355259.534 8  83653482.43048  20429009.500    20429009.360          50.250
        50.000
 14  1 10  0 24 30.0000000  0  7G02G31G25G14G24G12G29
 121522121.695 7  94692547.99946  23124890.600    23124887.840          45.250
        40.750
 123559447.578 7  96280090.49646  23512580.540    23512579.980          42.750
        40.750
 108352069.324 8  84430226.86248  20618700.360    20618702.160          50.000
        48.750
 114509537.456 7  89228198.34647  21790440.240    21790439.640          47.250
        42.750
 121007831.032 7  94291854.55746  23027014.460    23027016.240          43.500
        39.250
 113537597.385 8  88470902.52947  21605461.900    21605460.460          48.750
        45.250
 107311843.130 8  83619651.47048  20420747.660    20420747.460          50.250
        50.000
 14  1 10  0 25  0.0000000  0  7G02G31G25G14G24G12G29
 121527004.114 7  94696352.48146  23125819.640    23125817.140          45.000
        40.000
 123467533.489 7  96208469.15146  23495089.960    23495089.360          43.750
        40.500
 108346534.713 8  84425914.17848  20617647.220    20617648.900          50.250
        48.750
 114536575.825 7  89249267.19647  21795585.520    21795584.900          47.000
        42.500
 121099858.249 7  94363564.04946  23044526.640    23044528.500          43.000
        41.500
 113589366.439 8  88511242.03847  21615313.100    21615311.600          48.750
        45.000
 107268923.109 8  83586207.31048  20412580.280    20412580.020          50.250
        49.750
 14  1 10  0 25 30.0000000  0  7G02G31G25G14G24G12G29
 121532379.392 7  94700541.03146  23126842.440    23126840.060          44.500
        41.250
 123375719.685 7  96136925.92246  23477618.580    23477617.820          44.250
        40.000
 108341218.527 8  84421771.69648  20616635.600    20616637.280          50.000
        49.000
 114564162.533 7  89270763.32447  21800835.080    21800834.540          47.000
        42.250
 121192134.375 7  94435467.50646  23062086.020    23062088.280          42.500
        41.250
 113641270.613 8  88551686.83147  21625190.020    21625188.580          48.750
        45.500
 107226499.431 8  83553149.90148  20404507.340    20404507.000          50.250
        50.000
 14  1 10  0 26  0.0000000  0  7G02G31G25G14G24G12G29
 121538248.689 7  94705114.51546  23127959.200    23127956.960          44.000
        39.750
 123284008.801 7  96065462.92246  23460166.680    23460165.780          43.750
        40.500
 108336121.450 8  84417799.94548  20615665.620    20615667.380          50.000
        49.000
 114592296.598 7  89292685.94347  21806188.760    21806188.240          47.000
        42.750
 121284659.080 7  94507564.68546  23079692.720    23079695.140          42.500
        39.500
 113693309.924 8  88592236.94747  21635092.680    21635091.360          48.750
        45.500
 107184573.213 8  83520480.12648  20396529.060    20396528.660          50.250
        50.000
 14  1 10  0 26 30.0000000  0  7G02G31G25G14G24G12G29
 121544610.934 7  94710072.10446  23129169.820    23129167.580          45.000
        38.500
 123192401.790 7  95994080.85346  23442734.520    23442733.520          45.000
        40.250
 108331242.297 8  84413998.01248  20614737.120    20614738.980          50.000
        49.000
 114620975.384 7  89315033.04547  21811646.100    21811645.660          47.000
        42.500
 121377429.262 6  94579853.13246  23097346.140    23097348.740          41.500
        41.000
 113745483.563 8  88632891.72147  21645020.940    21645019.720          48.500
        45.500
 107143143.667 8  83488197.36948  20388645.220    20388644.840          50.250
        50.000
 14  1 10  0 27  0.0000000  0  7G02G31G25G14G24G12G29
 121551465.616 7  94715413.43146  23130474.260    23130471.980          44.750
        40.250
 123100899.670 7  95922780.51446  23425322.320    23425321.180          44.750
        40.250
 108326579.959 8  84410365.01948  20613849.920    20613851.800          50.250
        48.750
 114650196.602 7  89337802.80347  21817206.640    21817206.220          46.750
        42.000
 121470443.250 7  94652331.54846  23115046.000    23115048.860          42.250
        39.750
 113797789.533 8  88673649.60247  21654974.420    21654973.380          48.750
        45.500
 107102210.225 8  83456301.18148  20380855.760    20380855.440          50.250
        50.000
 14  1 10  0 27 30.0000000  0  7G02G31G25G14G24G12G29
 121558814.115 7  94721139.54346  23131872.640    23131870.340          44.750
        40.000
 123009505.812 7  95851564.52646  23407930.680    23407929.240          44.500
        37.750
 108322135.709 8  84406901.96848  20613004.260    20613006.080          50.250
        48.750
 114679960.130 7  89360995.15447  21822870.480    21822870.040          47.250
        42.500
 121563700.612 7  94724999.61046  23132792.300    23132795.320          42.750
        39.250
 113850229.303 8  88714511.76947  21664953.360    21664952.600          48.750
        46.000
 107061774.776 8  83424793.04348  20373161.060    20373160.820          50.250
        50.250
 14  1 10  0 28  0.0000000  0  7G02G31G25G14G24G12G29
 121566657.316 7  94727251.13846  23133365.020    23133362.860          43.500
        41.250
 122918222.330 7  95780434.53246  23390560.060    23390558.360          45.500
        38.750
 108317909.699 8  84403608.97148  20612200.080    20612201.860          50.000
        48.750
 114710264.398 7  89384608.86047  21828637.260    21828636.800          47.250
        42.750
 121657199.893 7  94797856.17446  23150584.780    23150587.760          42.750
        40.250
 113902802.070 8  88755477.55847  21674957.660    21674957.140          48.750
        45.750
 107021837.828 8  83393673.34648  20365561.240    20365561.040          50.250
        50.500
 14  1 10  0 28 30.0000000  0  7G02G31G25G14G24G12G29
 121574993.996 7  94733747.25446  23134951.260    23134949.240          44.000
        41.500
 122827050.436 7  95709391.50646  23373210.680    23373208.780          45.000
        38.500
 108313900.872 8  84400485.21348  20611437.180    20611439.000          50.000
        48.750
 114741107.192 7  89408642.20147  21834506.560    21834506.000          47.250
        42.000
 121750938.874 7  94870899.53046  23168422.880    23168425.780          43.250
        40.750
 113955507.259 8  88796546.53447  21684987.220    21684986.820          48.750
        45.750
 106982398.945 8  83362941.75248  20358056.260    20358056.080          50.500
        50.250
 14  1 10  0 29  0.0000000  0  7G02G31G25G14G24G12G29
 121583826.615 7  94740629.84146  23136631.980    23136629.980          44.500
        40.750
 122735993.738 7  95638438.23946  23355883.180    23355881.260          45.500
        39.750
 108310111.195 8  84397532.21048  20610716.000    20610717.860          50.000
        49.000
 114772488.790 7  89433095.37847  21840478.360    21840477.740          47.250
        42.250
 121844918.010 7  94944130.01846  23186306.660    23186309.280          42.750
        40.000
 114008346.426 8  88837719.90047  21695042.340    21695041.840          49.000
        45.750
 106943460.249 8  83332599.92148  20350646.560    20350646.340          50.500
        50.500
 14  1 10  0 29 30.0000000  0  7G02G31G25G14G24G12G29
 121593154.259 7  94747898.16146  23138406.960    23138404.900          44.500
        40.750
 122645053.988 7  95567576.09946  23338577.960    23338576.040          45.250
        40.000
 108306540.067 8  84394749.51948  20610036.420    20610038.320          50.250
        48.750
 114804407.276 7  89457966.92447  21846552.260    21846551.540          47.000
        42.500
 121939135.365 7  95017546.13446  23204235.720    23204238.160          42.500
        39.000
 114061318.623 8  88878996.92947  21705122.780    21705122.160          48.750
        46.000
 106905021.719 8  83302647.81848  20343332.060    20343331.760          50.500
        50.500
 14  1 10  0 30  0.0000000  0  7G02G31G25G14G24G12G29
 121602976.727 7  94755552.04347  23140276.200    23140274.220          44.500
        42.250
 122554232.361 7  95496806.03046  23321295.080    23321293.320          44.250
        39.750
 108303186.653 8  84392136.46548  20609398.280    20609400.200          50.250
        48.750
 114836859.939 7  89483254.69547  21852727.760    21852727.080          47.000
        42.250
 122033588.889 7  95091146.24846  23222209.660    23222212.040          42.500
        38.750
 114114422.128 8  88920376.27547  21715228.120    21715227.460          48.500
        45.500
 106867082.891 8  83273085.10148  20336112.660    20336112.340          50.500
        50.750
 14  1 10  0 30 30.0000000  0  7G02G31G25G14G24G12G29
 121613294.284 7  94763591.69846  23142239.560    23142237.820          44.250
        40.500
 122463531.208 7  95426129.81146  23304035.140    23304033.480          44.750
        39.500
 108300050.966 8  84389693.07248  20608801.600    20608803.520          50.000
        49.000
 114869845.248 7  89508957.51446  21859004.620    21859003.900          46.500
        41.500
 122128277.140 7  95164929.29046  23240228.260    23240230.540          42.500
        38.750
 114167657.111 8  88961858.08147  21725358.480    21725357.640          48.750
        45.250
 106829644.218 8  83243912.10948  20328988.320    20328988.040          50.250
        50.500
 14  1 10  0 31  0.0000000  0  7G02G31G25G14G24G12G29
 121624106.452 7  94772016.77046  23144297.020    23144295.340          44.500
        41.000
 122372951.846 7  95355548.50446  23286798.340    23286796.840          44.250
        41.250
 108297132.482 8  84387418.93748  20608246.220    20608248.120          50.000
        48.750
 114903361.389 7  89535073.98147  21865382.520    21865381.840          46.750
        42.500
 122223198.107 7  95238893.67446  23258291.140    23258293.380          42.500
        39.750
 114221023.536 8  89003442.30047  21735513.760    21735512.760          48.500
        45.250
 106792705.544 8  83215128.72948  20321959.080    20321958.860          50.250
        50.500
 14  1 10  0 31 30.0000000  0  7G02G31G25G14G24G12G29
 121635412.177 7  94780826.43446  23146448.440    23146446.780          44.750
        40.750
 122282495.376 7  95285062.97846  23269584.920    23269583.620          44.250
        41.500
 108294430.140 8  84385313.21448  20607731.940    20607733.840          50.000
        49.000
 114937405.321 7  89561601.69947  21871860.860    21871860.200          46.750
        42.000
 122318349.229 7  95313037.38546  23276397.820    23276400.040          42.750
        39.000
 114274519.440 8  89045127.39547  21745693.700    21745692.560          48.500
        45.000
 106756265.880 8  83186734.19448  20315024.780    20315024.580          50.500
        50.500
 14  1 10  0 32  0.0000000  0  7G02G31G25G14G24G12G29
 121647216.111 7  94790024.31746  23148694.600    23148692.840          44.000
        41.000
 122192168.316 7  95214678.28046  23252396.060    23252395.000          44.000
        41.250
 108291948.468 8  84383379.44648  20607259.640    20607261.560          50.250
        48.750
 114971980.157 7  89588543.12347  21878440.160    21878439.620          46.500
        42.250
 122413733.315 7  95387362.62846  23294548.780    23294551.040          42.750
        37.250
 114328148.808 8  89086916.51747  21755899.000    21755897.740          48.500
        44.500
 106720330.274 8  83158732.41648  20308186.440    20308186.200          50.250
        50.500
 14  1 10  0 32 30.0000000  0  7G02G31G25G14G24G12G29
 121659512.639 7  94799606.03346  23151034.500    23151032.660          44.000
        40.750
 122101967.080 7  95144391.58946  23235231.200    23235230.180          44.250
        40.750
 108289681.601 8  84381613.05248  20606828.280    20606830.160          50.250
        48.750
 115007078.182 7  89615892.21747  21885119.100    21885118.540          46.750
        42.250
 122509343.212 7  95461863.83546  23312742.800    23312744.960          43.000
        39.500
 114381906.095 8  89128805.30047  21766128.540    21766127.200          48.250
        44.500
 106684892.921 8  83131118.89948  20301442.940    20301442.640          50.500
        50.500
 14  1 10  0 33  0.0000000  0  7G02G31G25G14G24G12G29
 121672305.182 7  94809574.26346  23153468.880    23153466.860          44.500
        39.750
 122011896.875 7  95074207.05746  23218091.220    23218090.380          44.500
        41.250
 108287632.931 8  84380016.68148  20606438.460    20606440.200          50.250
        48.500
 115042701.040 7  89643650.28247  21891897.900    21891897.400          46.750
        42.000
 122605181.026 7  95536542.64446  23330980.280    23330982.300          43.250
        37.750
 114435793.925 8  89170795.81047  21776382.800    21776381.660          48.000
        45.000
 106649957.329 8  83103896.36448  20294794.940    20294794.600          50.500
        50.500
 14  1 10  0 33 30.0000000  0  7G02G31G25G14G24G12G29
 121685591.410 7  94819927.17646  23155997.200    23155995.060          44.500
        40.250
 121921958.031 7  95004124.84946  23200976.380    23200975.520          45.000
        40.750
 108285800.408 8  84378588.73348  20606089.760    20606091.400          50.250
        48.750
 115078844.709 7  89671814.17246  21898775.840    21898775.340          47.000
        41.750
 122701242.830 7  95611395.98846  23349260.400    23349262.260          42.750
        38.500
 114489810.074 8  89212886.31447  21786661.580    21786660.600          48.250
        44.500
 106615521.949 8  83077063.59848  20288242.080    20288241.760          50.500
        50.500
 14  1 10  0 34  0.0000000  0  7G02G31G25G14G24G12G29
 121699373.684 7  94830666.62046  23158619.920    23158617.700          44.250
        40.500
 121832154.625 7  94934148.18746  23183887.360    23183886.340          44.750
        40.000
 108284186.242 8  84377330.94448  20605782.620    20605784.300          50.250
        48.750
 115115509.974 7  89700384.49846  21905753.060    21905752.620          46.750
        41.250
 122797529.794 7  95686424.77446  23367583.280    23367585.140          43.000
        38.750
 114543956.273 8  89255078.13547  21796965.120    21796964.240          48.250
        44.750
 106581589.047 8  83050622.37848  20281784.880    20281784.540          50.500
        50.500
 14  1 10  0 34 30.0000000  0  7G02G31G25G14G24G12G29
 121713651.489 7  94841792.18746  23161336.920    23161334.600          44.500
        39.500
 121742488.196 7  94864278.25746  23166824.480    23166823.280          45.000
        40.000
 108282789.837 8  84376242.83848  20605516.880    20605518.640          50.000
        49.000
 115152694.353 7  89729359.32846  21912829.080    21912828.580          46.750
        41.750
 122894039.629 6  95761627.23746  23385948.420    23385950.460          41.750
        40.500
 114598232.631 8  89297371.39047  21807293.580    21807292.680          48.250
        44.750
 106548158.424 8  83024572.54448  20275423.260    20275422.900          50.500
        50.500
 14  1 10  0 35  0.0000000  0  7G02G31G25G14G24G12G29
 121728424.200 7  94853303.39946  23164148.160    23164145.540          44.750
        39.500
 121652960.535 7  94794516.45346  23149788.040    23149786.720          45.000
        39.000
 108281610.728 8  84375324.04848  20605292.500    20605294.280          50.250
        48.750
 115190395.590 7  89758736.90646  21920003.440    21920002.940          47.250
        41.250
 122990770.147 6  95837001.66346  23404355.440    23404357.680          41.500
        39.500
 114652637.976 8  89339765.15847  21817646.680    21817645.700          48.250
        44.750
 106515229.442 8  82998913.59948  20269157.140    20269156.700          50.500
        50.750
 14  1 10  0 35 30.0000000  0  7G02G31G25G14G24G12G29
 121743692.488 7  94865200.77846  23167053.800    23167050.780          44.750
        40.250
 121563574.791 7  94724865.22446  23132778.500    23132777.160          45.000
        40.000
 108280649.829 8  84374575.29548  20605109.640    20605111.440          50.250
        49.000
 115228612.715 7  89788516.46546  21927275.940    21927275.460          46.750
        41.250
 123087720.795 6  95912547.62346  23422804.340    23422806.860          41.250
        40.250
 114707172.385 8  89382259.48847  21828024.360    21828023.320          48.500
        45.250
 106482803.561 8  82973646.67748  20262986.700    20262986.260          50.500
        50.750
 14  1 10  0 36  0.0000000  0  7G02G31G25G14G24G12G29
 121759454.741 7  94877483.06146  23170053.440    23170050.100          44.750
        38.750
 121474330.839 7  94655324.50446  23115796.000    23115794.680          45.250
        41.500
 108279905.304 8  84373995.13948  20604968.000    20604969.760          50.250
        49.000
 115267341.924 7  89818695.05546  21934645.860    21934645.340          47.000
        41.500
 123184888.088 6  95988262.37846  23441294.520    23441297.320          41.500
        40.500
 114761834.234 8  89424853.12247  21838426.420    21838425.280          48.750
        45.250
 106450878.585 8  82948770.07848  20256911.560    20256911.140          50.500
        50.500
 14  1 10  0 36 30.0000000  0  7G02G31G25G14G24G12G29
 121775711.172 7  94890150.42446  23173147.180    23173143.440          45.500
        39.250
 121385231.526 7  94585896.47746  23098840.980    23098839.700          45.250
        40.000
 108279377.808 8  84373584.10448  20604867.660    20604869.420          50.250
        49.000
 115306582.086 7  89849271.79746  21942113.000    21942112.360          46.500
        41.500
 123282271.617 6  96064145.62346  23459825.960    23459828.760          41.500
        39.250
 114816623.570 8  89467546.11047  21848852.740    21848851.400          48.750
        45.250
 106419455.412 8  82924284.48848  20250931.920    20250931.560          50.500
        50.750
 14  1 10  0 37  0.0000000  0  7G02G31G25G14G24G12G29
 121792462.141 7  94903203.13046  23176335.000    23176330.980          45.500
        40.000
 121296279.840 7  94516583.48746  23081914.060    23081912.880          45.500
        41.250
 108279067.525 8  84373342.32548  20604808.620    20604810.360          50.250
        48.750
 115346331.558 7  89880245.39746  21949677.060    21949676.440          46.750
        41.250
 123379869.552 6  96140195.96846  23478398.300    23478401.020          41.750
        39.250
 114871541.163 8  89510339.02147  21859303.440    21859301.940          48.750
        44.750
 106388534.066 8  82900189.93548  20245047.800    20245047.500          50.500
        50.750
 14  1 10  0 37 30.0000000  0  7G02G31G25G14G24G12G29
 121809706.375 7  94916640.22146  23179616.640    23179612.420          45.250
        39.750
 121207475.760 7  94447385.53146  23065015.220    23065014.060          46.250
        40.750
 108278973.281 8  84373268.88648  20604790.660    20604792.400          50.000
        48.750
 115386587.263 7  89911613.45846  21957337.480    21957336.880          46.500
        41.500
 123477679.179 6  96216411.25346  23497011.040    23497013.640          41.750
        38.750
 114926585.077 8  89553230.37847  21869778.060    21869776.660          48.250
        45.500
 106358113.758 8  82876485.80648  20239259.020    20239258.680          50.500
        50.500
 14  1 10  0 38  0.0000000  0  7G02G31G25G14G24G12G29
 121827446.951 7  94930464.04346  23182992.560    23182988.420          44.250
        40.750
 121118825.545 7  94378307.44246  23048145.620    23048144.480          45.500
        40.500
 108279098.913 8  84373366.77148  20604814.520    20604816.200          50.000
        48.750
 115427350.692 7  89943377.16146  21965094.480    21965093.960          46.500
        41.750
 123575702.467 6  96292793.01746  23515664.340    23515666.900          41.750
        38.500
 114981758.333 8  89596222.51347  21880277.120    21880275.980          48.000
        45.250
 106328198.231 8  82853175.01248  20233566.300    20233565.920          50.500
        50.750
 14  1 10  0 38 30.0000000  0  7G02G31G25G14G24G12G29
 121845681.830 7  94944673.02946  23186462.500    23186458.440          45.000
        40.500
 121030329.431 7  94309349.44146  23031305.320    23031304.240          45.500
        41.000
 108279442.290 8  84373634.33448  20604879.820    20604881.500          50.000
        48.750
 115468618.049 7  89975533.53746  21972947.460    21972946.940          46.750
        41.500
 123673936.219 6  96369338.78446  23534357.560    23534360.060          40.750
        39.000
 115037059.197 8  89639314.08547  21890800.400    21890799.460          48.250
        45.000
 106298785.351 8  82830255.89248  20227969.180    20227968.820          50.500
        50.750
 14  1 10  0 39  0.0000000  0  7G02G31G25G14G24G12G29
 121864410.172 7  94959266.54946  23190026.360    23190022.220          45.250
        38.500
 120941988.948 7  94240512.69746  23014494.600    23014493.520          45.500
        40.500
 108280002.937 8  84374071.20548  20604986.460    20604988.220          50.000
        49.000
 115510386.813 7  90008080.61946  21980895.820    21980895.360          46.750
        41.750
 123772378.118 6  96446046.75946  23553090.300    23553092.940          41.000
        38.750
 115092486.994 8  89682504.56247  21901347.820    21901347.000          48.250
        45.250
 106269874.595 8  82807728.03448  20222467.600    20222467.240          50.250
        51.000
 14  1 10  0 39 30.0000000  0  7G02G31G25G14G24G12G29
 121883631.307 7  94974244.06546  23193684.000    23193679.920          45.750
        39.250
 120853805.593 7  94171798.39246  22997713.860    22997712.740          45.500
        41.000
 108280780.314 8  84374676.94848  20605134.440    20605136.160          50.250
        49.000
 115552653.978 7  90041016.06246  21988939.000    21988938.520          46.250
        41.500
 123871026.061 6  96522915.26846  23571862.340    23571865.120          41.000
        39.750
 115148040.985 8  89725793.37447  21911919.340    21911918.540          48.000
        44.750
 106241465.505 8  82785591.09048  20217061.460    20217061.120          50.500
        51.000
 14  1 10  0 40  0.0000000  0  7G02G31G25G14G24G12G29
 121903345.922 7  94989606.12546  23197435.560    23197431.420          45.250
        39.500
 120765782.467 7  94103208.97646  22980963.580    22980962.540          45.750
        40.500
 108281775.397 8  84375452.34148  20605323.880    20605325.560          50.250
        48.750
 115595419.010 7  90074339.45346  21997076.840    21997076.420          46.500
        41.250
 123969879.064 6  96599943.57046  23590673.460    23590676.280          40.500
        38.750
 115203721.467 8  89769180.75947  21922514.940    21922514.080          48.250
        44.250
 106213558.629 8  82763845.48048  20211750.900    20211750.660          50.500
        50.750
 14  1 10  0 40 30.0000000  0  7G02G31G25G14G24G12G29
 121923554.724 7  95005353.26246  23201281.040    23201277.020          44.750
        39.500
 120677922.875 7  94034746.95846  22964244.420    22964243.300          45.000
        41.500
 108282989.300 8  84376398.23148  20605554.900    20605556.660          50.000
        49.000
 115638680.682 7  90108049.84346  22005309.160    22005308.800          46.500
        40.500
 124068937.129 6  96677131.66246  23609523.580    23609526.420          40.500
        38.500
 115259529.544 7  89812667.55047  21933134.740    21933133.900          47.750
        44.500
 106186155.337 8  82742492.26848  20206536.220    20206536.000          50.500
        51.000
 14  1 10  0 41  0.0000000  0  7G02G31G25G14G24G12G29
 121944256.043 7  95021484.17846  23205220.220    23205216.400          44.250
        39.500
 120590227.670 7  93966413.05347  22947556.480    22947555.400          45.000
        42.250
 108284420.399 8  84377513.37148  20605827.240    20605829.020          50.000
        49.000
 115682435.368 7  90142144.39846  22013635.400    22013634.900          46.500
        40.500
 124168196.257 6  96754476.44346  23628411.880    23628414.840          40.250
        39.000
 115315463.514 7  89856252.44747  21943778.460    21943777.660          47.750
        44.500
 106159253.836 8  82721530.05748  20201417.060    20201416.840          50.500
        51.000
 14  1 10  0 41 30.0000000  0  7G02G31G25G14G24G12G29
 121965448.150 7  95037997.51546  23209252.740    23209249.220          44.500
        40.000
 120502697.556 7  93898207.78846  22930899.960    22930898.980          45.250
        41.250
 108286067.608 8  84378796.91048  20606140.700    20606142.460          50.000
        49.000
 115726679.690 7  90176620.47746  22022054.920    22022054.320          47.000
        40.750
 124267654.220 6  96831976.14046  23647338.120    23647341.000          40.500
        38.500
 115371521.032 7  89899933.61747  21954445.660    21954445.080          47.250
        44.500
 106132852.535 8  82700957.61948  20196393.080    20196392.820          50.500
        51.000
 14  1 10  0 42  0.0000000  0  7G02G31G25G14G24G12G29
 121987133.664 7  95054895.31546  23213379.080    23213376.020          43.750
        41.000
 120415338.022 7  93830135.42046  22914275.920    22914274.880          45.000
        41.000
 108287934.094 8  84380251.31748  20606495.840    20606497.640          50.250
        49.000
 115771414.824 7  90211479.02146  22030567.900    22030567.280          46.750
        41.250
 124367312.612 6  96909632.01646  23666302.440    23666305.160          40.500
        38.500
 115427706.560 7  89943714.53047  21965137.260    21965136.880          47.500
        45.000
 106106954.743 8  82680777.52348  20191464.900    20191464.600          50.500
        51.250
 14  1 10  0 42 30.0000000  0  7G02G31G25G14G24G12G29
 122009310.838 7  95072176.22246  23217599.020    23217596.320          44.000
        40.250
 120328149.059 7  93762195.97446  22897684.380    22897683.340          45.000
        41.000
 108290018.241 8  84381875.32448  20606892.420    20606894.260          50.000
        48.750
 115816636.651 7  90246716.77946  22039173.380    22039172.780          46.250
        40.750
 124467167.892 6  96987441.30546  23685304.220    23685306.920          40.500
        36.750
 115484017.844 8  89987593.43247  21975852.960    21975852.560          48.250
        44.000
 106081558.591 8  82660988.32048  20186632.200    20186631.860          50.750
        51.000
 14  1 10  0 43  0.0000000  0  7G02G31G25G14G24G12G29
 122031978.641 7  95089839.46246  23221912.360    23221910.020          43.750
        40.750
 120241132.679 7  93694391.00746  22881125.720    22881124.640          45.250
        41.000
 108292319.597 8  84383668.59048  20607330.320    20607332.220          50.000
        49.000
 115862342.711 7  90282331.87446  22047870.940    22047870.340          46.500
        41.000
 124567217.829 6  97065402.28446  23704343.120    23704345.760          40.750
        38.250
 115540453.751 7  90031569.45747  21986592.460    21986591.880          47.500
        44.250
 106056663.208 8  82641589.32648  20181894.800    20181894.420          50.750
        51.000
 14  1 10  0 43 30.0000000  0  7G02G31G25G14G24G12G29
 122055135.341 7  95107883.64846  23226318.800    23226316.820          44.500
        39.750
 120154289.931 7  93626721.36046  22864600.180    22864599.100          45.750
        41.500
 108294837.006 8  84385630.21248  20607809.360    20607811.360          50.250
        49.000
 115908529.646 7  90318321.68846  22056659.960    22056659.400          46.250
        40.500
 124667459.678 6  97143512.79546  23723418.480    23723421.100          40.500
        38.000
 115597012.510 7  90075641.20347  21997355.260    21997354.520          47.250
        44.500
 106032267.441 8  82622579.63848  20177252.460    20177252.040          50.500
        51.250
 14  1 10  0 44  0.0000000  0  7G02G31G25G14G24G12G29
 122078784.330 7  95126311.44846  23230819.060    23230817.140          44.750
        40.000
 120067626.440 7  93559191.37946  22848108.740    22848107.620          45.000
        41.750
 108297573.984 8  84387762.91748  20608330.220    20608332.220          50.250
        49.000
 115955198.620 7  90354687.11246  22065540.720    22065540.220          46.500
        40.250
 124767895.361 6  97221774.34846  23742530.700    23742533.340          40.250
        38.500
 115653698.181 7  90119811.83347  22008142.200    22008141.400          47.500
        44.000
 106008374.366 8  82603961.66148  20172705.740    20172705.360          50.750
        51.250
 14  1 10  0 44 30.0000000  0  7G02G31G25G14G24G12G29
 122102922.474 7  95145120.40746  23235412.400    23235410.520          44.000
        39.750
 119981142.051 7  93491800.95846  22831651.340    22831650.160          45.750
        40.750
 108300528.351 8  84390065.01648  20608892.480    20608894.380          50.250
        49.000
 116002345.180 7  90391424.66046  22074512.380    22074511.900          46.500
        41.250
 124868520.785 6  97300183.76346  23761679.080    23761681.780          40.500
        39.500
 115710508.306 8  90164079.44347  22018952.900    22018952.140          48.000
        43.750
 105984981.662 8  82585733.58248  20168254.240    20168253.920          50.750
        51.250
 14  1 10  0 45  0.0000000  0  7G02G31G25G14G24G12G29
 122127549.318 7  95164310.14346  23240098.660    23240096.920          43.750
        40.750
 119894838.901 7  93424551.76246  22815228.440    22815227.160          46.000
        41.750
 108303699.902 8  84392536.35648  20609496.020    20609497.920          50.000
        49.000
 116049966.976 7  90428532.53346  22083574.620    22083574.100          46.750
        41.000
 124969334.118 6  97378739.57746  23780863.220    23780866.000          39.500
        39.500
 115767442.412 8  90208443.65647  22029787.300    22029786.440          48.000
        44.500
 105962088.896 8  82567895.06848  20163897.880    20163897.580          50.750
        51.000
 14  1 10  0 45 30.0000000  0  7G02G31G25G14G24G12G29
 122152665.710 7  95183881.34846  23244878.120    23244876.480          43.500
        41.000
 119808720.530 7  93357446.53946  22798840.680    22798839.320          46.750
        41.250
 108307090.036 8  84395178.02148  20610141.120    20610143.040          50.000
        49.000
 116098062.958 7  90466009.91346  22092727.140    22092726.600          46.750
        40.500
 125070335.101 6  97457441.63146  23800083.180    23800085.880          40.000
        36.500
 115824500.675 8  90252904.63047  22040645.420    22040644.240          48.500
        43.750
 105939696.899 8  82550446.75848  20159636.860    20159636.500          50.750
        51.250
 14  1 10  0 46  0.0000000  0  7G02G31G25G14G24G12G29
 122178269.075 7  95203832.01646  23249750.380    23249748.780          44.500
        41.250
 119722787.200 7  93290485.49647  22782488.180    22782486.720          47.000
        42.250
 108310696.911 8  84397988.56548  20610827.520    20610829.340          50.250
        48.750
 116146629.008 7  90503853.57246  22101969.040    22101968.420          46.250
        40.500
 125171520.207 6  97536287.18746  23819338.180    23819340.760          39.750
        37.500
 115881681.912 8  90297461.42247  22051526.900    22051525.500          48.000
        44.000
 105917803.525 8  82533386.99248  20155470.700    20155470.300          50.750
        51.250
 14  1 10  0 46 30.0000000  0  7G02G31G25G14G24G12G29
 122204359.956 7  95224162.59146  23254715.660    23254713.900          44.500
        41.000
 119637041.901 7  93223670.97946  22766171.500    22766169.980          47.000
        41.750
 108314521.625 8  84400968.86248  20611555.340    20611557.160          50.000
        49.000
 116195663.969 7  90542062.61746  22111300.060    22111299.500          46.000
        40.750
 125272888.168 6  97615275.19346  23838627.940    23838630.340          40.750
        37.000
 115938987.272 7  90342114.92747  22062431.860    22062430.440          47.750
        44.500
 105896409.427 8  82516716.26448  20151399.520    20151399.140          50.750
        51.250
 14  1 10  0 47  0.0000000  0  7G02G31G25G14G24G12G29
 122230939.870 7  95244874.21446  23259773.920    23259772.020          44.500
        40.250
 119551489.364 7  93157006.66447  22749891.440    22749889.900          46.500
        42.500
 108318566.274 8  84404120.54248  20612325.000    20612326.840          50.250
        49.000
 116245167.502 7  90580636.77946  22120720.180    22120719.740          45.750
        40.750
 125374439.482 6  97694406.07146  23857952.600    23857954.960          40.000
        38.000
 115996417.883 8  90386866.03047  22073360.580    22073359.260          48.250
        44.500
 105875516.412 8  82500435.99748  20147423.680    20147423.400          50.750
        51.250
 14  1 10  0 47 30.0000000  0  7G02G31G25G14G24G12G29
 122258008.025 7  95265966.28346  23264924.940    23264922.900          44.500
        40.750
 119466131.378 7  93090493.98147  22733648.260    22733646.840          46.250
        42.250
 108322830.866 8  84407443.59348  20613136.580    20613138.340          50.000
        48.750
 116295137.006 7  90619574.03946  22130229.000    22130228.620          46.500
        40.500
 125476172.609 6  97773678.60346  23877311.840    23877314.080          41.000
        36.750
 116053973.991 7  90431714.92247  22084313.100    22084311.920          47.750
        44.000
 105855124.399 8  82484546.11548  20143543.200    20143542.980          50.750
        51.500
 14  1 10  0 48  0.0000000  0  8G02G31G21G25G14G24G12G29
 122285563.213 7  95287437.86446  23270168.680    23270166.360          45.250
        39.500
 119380969.511 7  93024134.08347  22717442.480    22717441.120          46.500
        42.500
 129735363.254 6 101092505.50345  24687816.680    24687817.340          38.000
        31.500
 108327314.762 8  84410937.53248  20613989.780    20613991.520          50.000
        48.750
 116345569.521 7  90658872.08646  22139826.000    22139825.560          45.750
        40.500
 125578084.857 6  97853090.73846  23896705.100    23896707.380          40.250
        38.000
 116111654.760 7  90476660.96247  22095289.200    22095288.180          47.250
        43.750
 105835231.967 8  82469045.52348  20139757.800    20139757.560          50.750
        51.250
 14  1 10  0 48 30.0000000  0  8G02G31G21G25G14G24G12G29
 122313600.995 7  95309285.49946  23275504.260    23275501.460          45.500
        39.000
 119296002.240 7  92957925.83646  22701273.680    22701272.440          47.000
        41.750
 129642374.083 6 101020046.70343  24670121.020    24670122.500          37.500
        22.250
 108332014.280 8  84414599.49048  20614884.020    20614885.800          50.250
        49.000
 116396459.056 7  90698526.24146  22149509.960    22149509.500          45.750
        40.250
 125680171.092 6  97932638.47446  23916131.420    23916133.720          40.000
        37.500
 116169455.796 7  90521700.72747  22106288.220    22106287.280          47.500
        44.250
 105815834.901 8  82453930.92548  20136066.660    20136066.400          50.750
        51.250
 14  1 10  0 49  0.0000000  0  8G02G31G21G25G14G24G12G29
 122342122.537 7  95331510.09546  23280931.880    23280928.680          45.000
        39.000
 119211233.382 7  92891872.17846  22685142.680    22685141.500          47.000
        41.500
 129549346.415 6 100947557.89445  24652418.420    24652419.920          38.250
        31.750
 108336931.088 8  84418430.76748  20615819.700    20615821.480          50.000
        49.000
 116447804.723 7  90738535.83146  22159280.740    22159280.340          46.000
        40.750
 125782430.932 6  98012321.44445  23935590.860    23935593.200          40.750
        35.250
 116227378.589 8  90566835.34847  22117310.580    22117309.640          48.000
        44.000
 105796934.385 8  82439203.25748  20132470.020    20132469.700          50.750
        51.250
 14  1 10  0 49 30.0000000  0  8G02G31G21G25G14G24G12G29
 122371130.840 7  95354113.99246  23286452.040    23286448.520          44.500
        39.500
 119126669.043 7  92825977.89946  22669050.520    22669049.500          46.250
        41.500
 129456286.106 6 100875043.64044  24634709.660    24634710.880          38.500
        28.500
 108342069.039 8  84422434.36348  20616797.400    20616799.200          50.000
        48.500
 116499607.625 7  90778901.71846  22169138.500    22169138.180          45.500
        40.750
 125884866.726 6  98092141.48846  23955083.860    23955086.280          41.000
        38.000
 116285427.033 7  90612067.87347  22128356.800    22128356.020          47.250
        43.750
 105778533.902 8  82424865.22148  20128968.520    20128968.120          50.750
        51.250
 14  1 10  0 50  0.0000000  0  8G02G31G21G25G14G24G12G29
 122400622.840 7  95377094.77246  23292064.180    23292060.460          44.750
        39.750
 119042309.208 7  92760242.96047  22652997.280    22652996.360          46.250
        42.000
 129363193.705 6 100802504.29745  24616994.660    24616995.680          37.750
        32.750
 108347425.943 8  84426608.56648  20617816.720    20617818.620          50.000
        48.750
 116551863.141 7  90819620.27746  22179082.380    22179082.140          45.750
        40.750
 125987474.050 6  98172095.23445  23974609.560    23974611.880          41.000
        35.750
 116343598.591 7  90657396.33347  22139426.380    22139425.800          47.250
        43.750
 105760630.832 8  82410914.78248  20125561.700    20125561.240          50.750
        51.500
 14  1 10  0 50 30.0000000  0  8G02G31G21G25G14G24G12G29
 122430597.494 7  95400451.64746  23297768.220    23297764.420          44.250
        40.250
 118958155.679 7  92694668.79247  22636983.300    22636982.420          46.000
        42.000
 129270070.990 6 100729941.41045  24599273.820    24599274.660          38.250
        35.500
 108353001.612 8  84430953.23448  20618877.700    20618879.660          50.000
        49.000
 116604568.910 7  90860689.70646  22189111.980    22189111.760          45.750
        40.250
 126090250.851 6  98252181.06446  23994167.560    23994169.660          40.500
        38.250
 116401892.810 7  90702820.38547  22150519.340    22150518.760          47.000
        43.500
 105743224.402 8  82397351.33248  20122249.400    20122248.900          50.750
        51.500
 14  1 10  0 51  0.0000000  0  8G02G31G21G25G14G24G12G29
 122461055.259 7  95424184.96846  23303564.180    23303560.320          44.500
        40.000
 118874211.422 7  92629257.69547  22621009.200    22621008.240          45.750
        42.500
 129176921.032 6 100657357.25344  24581547.800    24581548.480          37.250
        29.750
 108358796.915 8  84435469.05148  20619980.520    20619982.540          50.000
        49.000
 116657722.908 7  90902108.39346  22199226.780    22199226.580          46.000
        39.750
 126193196.423 6  98332398.40146  24013757.560    24013759.600          40.000
        37.500
 116460310.774 7  90748340.85747  22161635.860    22161635.200          47.500
        43.250
 105726314.570 8  82384174.84048  20119031.580    20119031.080          50.750
        51.500
 14  1 10  0 51 30.0000000  0  8G02G31G21G25G14G24G12G29
 122491994.793 7  95448293.70046  23309451.660    23309447.940          44.500
        38.500
 118790478.888 7  92564011.57447  22605075.440    22605074.320          45.750
        42.750
 129083745.727 6 100584753.35744  24563816.800    24563817.620          36.000
        28.000
 108364811.915 8  84440156.05848  20621125.180    20621127.160          50.000
        48.750
 116711322.822 7  90943874.55446  22209426.460    22209426.280          45.750
        40.750
 126296309.368 6  98412746.11145  24033379.280    24033381.420          41.000
        34.500
 116518851.856 7  90793957.24347  22172775.880    22172775.180          47.250
        43.500
 105709901.153 8  82371385.16848  20115908.200    20115907.720          50.750
        51.500
 14  1 10  0 52  0.0000000  0  8G02G31G21G25G14G24G12G29
 122523415.491 7  95472777.36546  23315430.660    23315426.920          44.750
        37.250
 118706960.294 7  92498932.16747  22589182.460    22589181.240          46.500
        42.250
 128990547.802 6 100512131.80445  24546081.260    24546082.680          36.250
        32.000
 108371046.589 8  84445014.24148  20622311.640    20622313.560          50.250
        48.750
 116765366.111 7  90985986.20446  22219710.640    22219710.380          45.750
        40.000
 126399587.205 6  98493222.35045  24053032.280    24053034.480          39.500
        32.750
 116577515.914 7  90839669.47147  22183939.400    22183938.540          47.750
        43.500
 105693983.374 8  82358981.70748  20112879.100    20112878.660          50.750
        51.500
 14  1 10  0 52 30.0000000  0  8G02G31G21G25G14G24G12G29
 122555317.965 7  95497636.46846  23321501.320    23321497.420          44.750
        37.000
 118623658.780 7  92434021.91147  22573330.700    22573329.420          46.500
        42.250
 128897330.225 6 100439494.93845  24528341.880    24528343.600          36.500
        34.000
 108377502.400 8  84450044.73948  20623540.180    20623542.040          50.250
        49.000
 116819851.368 7  91028442.21946  22230078.900    22230078.520          45.750
        40.500
 126503029.092 6  98573826.38946  24072716.480    24072718.800          39.000
        36.250
 116636303.704 7  90885478.11047  22195126.520    22195125.440          47.750
        43.500
 105678562.066 8  82346965.10448  20109944.520    20109944.100          51.000
        51.500
 14  1 10  0 53  0.0000000  0  8G02G31G21G25G14G24G12G29
 122587697.938 7  95522867.64546  23327662.840    23327658.820          44.500
        37.750
 118540573.443 7  92369280.09847  22557520.100    22557518.780          46.250
        42.250
 128804093.289 6 100366842.99345  24510599.020    24510600.820          36.750
        30.000
 108384175.988 8  84455244.92548  20624810.160    20624812.020          50.250
        49.000
 116874772.687 7  91071238.03346  22240530.140    22240529.700          45.750
        40.250
 126606630.277 6  98654554.57546  24092431.020    24092433.460          39.750
        36.500
 116695212.074 7  90931380.71147  22206336.560    22206335.340          47.500
        43.500
 105663632.807 8  82335331.91848  20107103.580    20107103.200          51.000
        51.500
 14  1 10  0 53 30.0000000  0  8G02G31G21G25G14G24G12G29
 122620555.885 7  95548471.27946  23333915.340    23333911.360          43.750
        37.750
 118457707.729 7  92304709.43047  22541751.300    22541749.960          46.750
        42.750
 128710839.839 6 100294178.17444  24492853.160    24492854.700          37.000
        24.750
 108391068.850 8  84460615.97648  20626121.920    20626123.720          50.250
        48.500
 116930128.978 7  91114372.79846  22251064.160    22251063.680          46.000
        40.750
 126710390.931 6  98735407.00646  24112175.980    24112178.380          40.250
        36.500
 116754242.473 7  90977378.39447  22217569.700    22217568.480          47.500
        43.250
 105649197.114 8  82324083.32848  20104356.560    20104356.220          51.000
        51.500
 14  1 10  0 54  0.0000000  0  8G02G31G21G25G14G24G12G29
 122653892.727 7  95574448.02246  23340258.840    23340255.420          42.500
        39.500
 118375065.783 7  92240313.11247  22526025.080    22526023.620          47.000
        43.250
 128617574.019 6 100221503.63745  24475105.080    24475106.360          37.250
        35.000
 108398182.747 8  84466159.26648  20627475.700    20627477.400          50.000
        48.750
 116985919.359 7  91157845.80646  22261680.760    22261680.240          45.750
        38.750
 126814309.962 6  98816382.87045  24131951.100    24131953.580          39.250
        35.500
 116813396.403 7  91023472.34147  22228826.360    22228825.160          47.250
        43.750
 105635255.954 8  82313220.09148  20101703.680    20101703.300          51.000
        51.500
 14  1 10  0 54 30.0000000  0  8G02G31G21G25G14G24G12G29
 122687706.581 7  95600796.46046  23346692.940    23346690.320          42.750
        39.750
 118292649.014 7  92176092.25247  22510341.740    22510340.200          47.000
        43.750
 128524297.092 6 100148820.52045  24457354.880    24457356.100          37.000
        32.500
 108405516.787 8  84471874.09248  20628871.260    20628872.980          50.250
        48.750
 117042140.025 7  91201654.11546  22272379.180    22272378.740          45.500
        40.000
 126918385.156 6  98897480.40845  24151755.680    24151758.500          39.250
        35.500
 116872671.902 7  91069661.00947  22240106.140    22240104.980          47.250
        43.500
 105621807.580 8  82302740.83648  20099144.600    20099144.120          51.000
        51.500
 14  1 10  0 55  0.0000000  0  8G02G31G21G25G14G24G12G29
 122721994.854 7  95627514.56846  23353217.440    23353215.320          43.500
        40.000
 118210457.787 7  92112047.15047  22494701.400    22494699.780          47.250
        43.500
 128431009.747 6 100076129.26145  24439602.720    24439603.860          36.500
        30.750
 108413069.348 8  84477759.20348  20630308.440    20630310.280          50.000
        48.750
 117098786.929 7  91245794.55346  22283158.660    22283158.300          45.250
        39.750
 127022612.599 6  98978696.58546  24171589.380    24171592.360          39.500
        38.500
 116932067.981 7  91115943.62347  22251408.820    22251407.640          47.500
        43.000
 105608849.519 8  82292643.65248  20096678.740    20096678.260          51.000
        51.500
 14  1 10  0 55 30.0000000  0  8G02G31G21G25G14G24G12G29
 122756758.866 7  95654603.40146  23359832.760    23359830.780          44.250
        40.000
 118128496.484 7  92048181.22047  22479104.660    22479103.080          47.500
        43.250
 128337716.433 6 100003433.30745  24421849.480    24421850.420          37.250
        34.750
 108420842.911 8  84483816.51748  20631787.680    20631789.580          50.000
        48.750
 117155859.946 7  91290267.03246  22294019.200    22294019.020          45.250
        40.000
 127126992.935 6  99060031.89545  24191452.240    24191455.140          39.500
        35.750
 116991586.770 7  91162321.88647  22262735.000    22262733.620          47.750
        42.750
 105596383.448 8  82282929.83448  20094306.500    20094306.000          51.000
        51.500
 14  1 10  0 56  0.0000000  0  8G02G31G21G25G14G24G12G29
 122791995.485 7  95682060.50246  23366538.200    23366536.180          44.500
        39.500
 118046765.385 7  91984494.64747  22463551.700    22463550.180          47.500
        43.500
 128244417.537 6  99930733.04345  24404095.160    24404095.980          36.750
        32.250
 108428835.384 8  84490044.41248  20633308.560    20633310.520          50.000
        49.000
 117213353.836 7  91335067.47046  22304959.900    22304959.740          45.000
        40.000
 127231522.399 6  99141483.38646  24211343.560    24211346.540          39.500
        36.500
 117051225.897 7  91208793.91247  22274084.080    22274082.680          47.500
        43.250
 105584406.594 8  82273597.22148  20092027.360    20092026.840          51.000
        51.750
 14  1 10  0 56 30.0000000  0  8G02G31G21G25G14G24G12G29
 122827706.580 7  95709887.35846  23373333.960    23373331.760          43.500
        38.250
 117965269.272 7  91920991.19947  22448043.520    22448042.160          47.500
        44.250
 128151118.113 6  99858032.37346  24386340.720    24386341.420          36.250
        36.250
 108437049.625 8  84496445.11248  20634871.620    20634873.700          50.000
        48.750
 117271268.831 7  91380196.04146  22315980.700    22315980.540          45.250
        40.250
 127336201.907 6  99223051.82845  24231263.460    24231266.280          40.000
        34.500
 117110987.697 7  91255361.52047  22285456.300    22285455.120          46.500
        43.250
 105572920.884 8  82264647.31948  20089841.680    20089841.180          51.000
        51.750
 14  1 10  0 57  0.0000000  0  8G02G31G21G25G14G24G12G29
 122863891.729 7  95738083.59146  23380219.680    23380217.480          42.000
        38.000
 117884011.206 7  91857673.23147  22432580.660    22432579.360          47.750
        44.000
 128057821.598 6  99785333.95845  24368586.660    24368587.500          37.500
        33.250
 108445486.103 8  84503018.99048  20636477.040    20636479.080          50.250
        48.750
 117329602.756 7  91425651.03846  22327081.320    22327081.060          45.250
        40.250
 127441029.688 6  99304735.77446  24251211.620    24251214.320          38.500
        36.500
 117170872.647 7  91302025.08547  22296851.860    22296850.860          47.000
        43.500
 105561926.128 8  82256079.97848  20087749.400    20087748.960          50.750
        51.750
 14  1 10  0 57 30.0000000  0  8G02G31G21G25G14G24G12G29
 122900547.491 6  95766646.51846  23387194.960    23387192.880          41.500
        39.000
 117802990.866 7  91794540.51147  22417162.980    22417161.660          47.500
        43.750
 127964526.986 6  99712636.97445  24350833.140    24350833.860          37.750
        34.000
 108454142.529 8  84509764.25048  20638124.360    20638126.280          50.250
        48.750
 117388350.461 7  91471428.46246  22338260.640    22338260.380          45.000
        39.750
 127546001.486 6  99386531.95445  24271187.200    24271189.680          39.500
        31.500
 117230878.223 7  91348782.64447  22308270.560    22308269.520          47.500
        42.750
 105551419.191 8  82247892.76148  20085749.960    20085749.580          51.000
        51.500
 14  1 10  0 58  0.0000000  0  8G02G31G21G25G14G24G12G29
 122937672.146 7  95795574.82246  23394259.640    23394257.560          42.750
        38.500
 117722209.867 7  91731594.27847  22401790.860    22401789.400          47.500
        43.750
 127871236.007 6  99639942.84645  24333080.420    24333081.100          37.250
        32.500
 108463018.410 8  84516680.51548  20639813.440    20639815.160          50.250
        48.750
 117447508.579 7  91517525.68046  22349518.020    22349517.820          45.000
        39.750
 127651114.810 6  99468438.40145  24291189.700    24291192.120          39.500
        33.500
 117291003.725 7  91395633.65347  22319712.100    22319711.000          47.500
        42.500
 105541398.777 8  82240084.64648  20083843.100    20083842.760          50.750
        51.500
 14  1 10  0 58 30.0000000  0  8G02G31G21G25G14G24G12G29
 122975265.519 7  95824868.35446  23401413.720    23401411.480          44.250
        39.250
 117641671.246 7  91668836.90747  22386464.920    22386463.280          47.500
        43.750
 127777952.493 6  99567254.53345  24315329.220    24315329.560          38.500
        33.500
 108472114.792 8  84523768.59948  20641544.440    20641546.100          50.250
        49.000
 117507075.354 7  91563941.32546  22360853.200    22360852.900          45.250
        38.750
 127756368.683 6  99550454.39845  24311219.000    24311221.400          39.500
        34.750
 117351249.653 7  91442578.49447  22331176.640    22331175.480          47.000
        43.000
 105531864.989 8  82232655.71748  20082028.860    20082028.540          51.000
        51.750
 14  1 10  0 59  0.0000000  0  8G02G31G21G25G14G24G12G29
 123013328.832 7  95854528.08846  23408657.320    23408654.740          45.250
        40.750
 117561379.506 7  91606271.91747  22371185.880    22371184.160          47.500
        43.500
 127684681.057 6  99494575.63345  24297580.480    24297580.340          38.750
        32.500
 108481433.967 8  84531030.29648  20643317.840    20643319.540          50.000
        49.000
 117567050.365 7  91610675.08746  22372266.160    22372265.860          45.750
        40.000
 127861763.924 6  99632580.52946  24331275.180    24331277.600          38.750
        38.000
 117411618.487 7  91489619.12047  22342664.480    22342663.440          46.250
        42.750
 105522819.228 8  82225607.07848  20080307.540    20080307.200          51.000
        51.750
 14  1 10  0 59 30.0000000  0  8G02G31G21G25G14G24G12G29
 123051860.065 7  95884552.44846  23415989.880    23415987.020          45.250
        39.500
 117481336.086 7  91543900.43147  22355954.060    22355952.380          47.750
        42.750
 127591422.676 6  99421906.86345  24279834.240    24279833.640          39.250
        32.500
 108490975.120 8  84538464.95448  20645133.360    20645135.260          50.000
        49.000
 117627429.958 7  91657724.11046  22383756.160    22383755.840          45.500
        39.250
 127967297.425 6  99714814.42845  24351357.680    24351360.080          39.250
        31.750
 117472108.827 7  91536754.44847  22354175.360    22354174.400          47.000
        42.750
 105514259.648 8  82218937.28548  20078678.780    20078678.380          51.000
        51.750
 14  1 10  1  0  0.0000000  0  8G02G31G21G25G14G24G12G29
 123090859.058 7  95914941.26346  23423411.320    23423408.400          44.750
        38.750
 117401544.273 7  91481724.99347  22340770.100    22340768.460          47.250
        43.000
 127498180.201 6  99349250.54446  24262090.980    24262090.200          39.250
        36.000
 108500739.196 8  84546073.32348  20646991.360    20646993.320          50.250
        48.750
 117688212.023 7  91705086.71846  22395322.660    22395322.380          45.250
        38.750
 128072968.071 6  99797155.16746  24371466.240    24371468.640          38.000
        36.500
 117532721.601 7  91583985.16547  22365709.600    22365708.600          47.000
        42.750
 105506186.229 8  82212646.31448  20077142.540    20077142.060          51.000
        51.750
 14  1 10  1  0 30.0000000  0  8G02G31G21G25G14G24G12G29
 123130322.795 7  95945692.21946  23430921.160    23430918.160          43.750
        38.000
 117322004.301 7  91419745.80647  22325634.040    22325632.460          47.250
        43.250
 127404954.629 6  99276607.32545  24244350.940    24244349.920          39.000
        33.750
 108510724.520 8  84553854.08948  20648891.500    20648893.460          50.000
        48.750
 117749392.192 7  91752759.57346  22406964.860    22406964.600          45.000
        39.500
 128178772.362 6  99879600.03045  24391600.140    24391602.400          38.000
        35.750
 117593454.700 7  91631309.61747  22377266.660    22377265.900          46.750
        42.750
 105498596.387 8  82206732.14948  20075698.240    20075697.780          51.000
        51.750
 14  1 10  1  1  0.0000000  0  8G02G31G21G25G14G24G12G29
 123170252.378 7  95976806.20046  23438519.460    23438516.380          43.250
        36.750
 117242720.632 7  91357966.32447  22310546.820    22310545.320          47.250
        43.500
 127311751.117 6  99203981.32345  24226615.080    24226613.660          39.500
        33.000
 108520933.596 8  84561809.20548  20650834.180    20650836.220          50.000
        48.750
 117810969.870 7  91800742.17146  22418682.700    22418682.340          45.500
        39.250
 128284710.506 6  99962149.19646  24411759.440    24411761.760          36.750
        38.250
 117654310.255 7  91678729.48747  22388846.940    22388846.520          46.250
        43.500
 105491491.742 8  82201196.06448  20074346.280    20074345.820          51.000
        51.750
 14  1 10  1  1 30.0000000  0  8G02G31G21G25G14G24G12G29
 123210643.886 7  96008280.08346  23446205.760    23446202.540          44.000
        37.750
 117163692.823 7  91296386.22147  22295508.300    22295506.820          47.250
        43.250
 127218568.797 6  99131371.84445  24208883.160    24208881.680          39.250
        31.000
 108531363.733 8  84569936.57648  20652818.920    20652821.000          50.000
        48.750
 117872939.466 7  91849030.14946  22430475.120    22430474.640          44.750
        39.000
 128390778.076 6 100044799.19745  24431943.420    24431945.720          39.500
        34.750
 117715285.832 7  91726242.89547  22400450.120    22400449.940          46.250
        43.750
 105484868.576 8  82196035.16248  20073085.920    20073085.480          51.000
        51.750
 14  1 10  1  2  0.0000000  0  8G02G31G21G25G14G24G12G29
 123251498.858 7  96040115.15446  23453980.260    23453976.900          44.250
        38.750
 117084926.048 7  91235009.50747  22280519.440    22280517.960          47.250
        43.000
 127125412.339 6  99058782.50045  24191156.040    24191154.560          40.000
        30.500
 108542017.658 8  84578238.32948  20654846.320    20654848.360          50.250
        48.750
 117935300.827 7  91897623.41146  22442342.160    22442341.560          44.750
        39.500
 128496975.393 6 100127550.33945  24452152.000    24452154.540          38.750
        35.500
 117776383.570 7  91773851.47947  22412076.660    22412076.480          47.000
        42.500
 105478728.401 8  82191250.61248  20071917.460    20071917.060          51.000
        51.750
 14  1 10  1  2 30.0000000  0  8G02G31G21G25G14G24G12G29
 123292815.360 7  96072309.82946  23461842.500    23461839.080          44.750
        38.500
 117006421.367 7  91173837.03547  22265580.460    22265578.960          47.000
        42.750
 127032283.657 6  98986214.81545  24173434.240    24173432.740          40.750
        30.750
 108552894.580 8  84586713.84148  20656916.260    20656918.120          50.000
        48.750
 117998050.115 7  91946518.96346  22454282.940    22454282.340          44.750
        39.500
 128603299.743 6 100210400.44945  24472384.840    24472387.580          38.000
        35.500
 117837602.203 7  91821554.26947  22423726.240    22423725.980          46.750
        42.750
 105473069.505 8  82186841.08748  20070840.580    20070840.200          51.000
        51.750
 14  1 10  1  3  0.0000000  0  8G02G31G21G25G14G24G12G29
 123334590.900 7  96104862.19446  23469792.140    23469788.700          44.750
        39.250
 116928179.870 7  91112869.63647  22250691.620    22250690.100          47.750
        43.500
 126939183.564 6  98913669.36245  24155717.820    24155716.500          40.250
        30.500
 108563993.472 8  84595362.32548  20659028.360    20659030.200          50.000
        48.750
 118061183.444 7  91995713.76046  22466296.760    22466296.300          44.500
        40.250
 128709748.319 6 100293347.35045  24492641.360    24492644.220          38.500
        35.000
 117898941.153 7  91869350.82047  22435398.660    22435398.260          46.500
        42.250
 105467889.982 8  82182805.09948  20069854.900    20069854.560          51.000
        51.750
 14  1 10  1  3 30.0000000  0  8G02G31G21G25G14G24G12G29
 123376826.724 7  96137773.21746  23477829.260    23477825.880          43.750
        40.000
 116850206.213 7  91052110.93847  22235853.760    22235852.240          47.500
        43.750
 126846117.464 6  98841150.42745  24138007.780    24138006.880          40.000
        30.750
 108575316.807 8  84604185.68848  20661183.140    20661184.940          50.000
        48.750
 118124700.222 7  92045207.33746  22478383.480    22478383.200          44.250
        39.000
 128816321.090 6 100376391.01545  24512921.560    24512924.460          37.250
        34.250
 117960402.445 7  91917242.70347  22447094.360    22447093.860          46.250
        42.500
 105463191.098 8  82179143.63448  20068960.660    20068960.360          51.000
        51.750
 14  1 10  1  4  0.0000000  0  8G02G31G21G25G14G24G12G29
 123419520.781 7  96171041.30646  23485953.440    23485950.360          42.250
        40.000
 116772502.245 7  90991562.39847  22221067.260    22221065.800          47.500
        44.500
 126753086.599 6  98768658.94545  24120304.240    24120303.860          39.500
        35.750
 108586864.091 8  84613183.57348  20663380.420    20663382.300          49.750
        48.750
 118188597.113 7  92094997.10646  22490542.580    22490542.420          44.500
        39.250
 128923016.108 6 100459529.98246  24533225.000    24533227.940          38.500
        36.000
 118021985.283 7  91965229.30447  22458813.260    22458812.760          46.750
        42.500
 105458971.181 8  82175855.39148  20068157.600    20068157.280          51.000
        51.750
 14  1 10  1  4 30.0000000  0  8G02G31G21G25G14G24G12G29
 123462672.760 6  96204666.19746  23494164.580    23494161.880          41.750
        38.750
 116695070.666 7  90931226.11947  22206332.500    22206331.260          47.750
        44.250
 126660094.340 6  98696197.54445  24102608.020    24102607.920          39.500
        34.250
 108598636.400 8  84622356.79148  20665620.540    20665622.500          49.750
        48.750
 118252872.069 7  92145081.47346  22502773.700    22502773.500          44.500
        37.750
 129029832.203 6 100542763.19246  24553551.520    24553554.560          39.000
        36.500
 118083689.899 7  92013310.80147  22470555.440    22470554.920          47.000
        42.750
 105455230.260 8  82172940.38948  20067445.720    20067445.360          51.000
        51.750
 14  1 10  1  5  0.0000000  0  8G02G31G21G25G14G24G12G29
 123506279.604 7  96238645.55046  23502462.360    23502459.780          42.750
        37.000
 116617912.015 8  90871102.50147  22191649.740    22191648.520          48.250
        44.500
 126567140.758 6  98623766.30745  24084919.100    24084919.360          40.000
        33.500
 108610632.001 8  84631704.00348  20667903.260    20667905.180          50.000
        48.500
 118317520.175 7  92195456.60446  22515075.780    22515075.540          44.250
        38.500
 129136765.362 6 100626087.70145  24573900.340    24573903.180          38.750
        33.750
 118145515.074 7  92061486.22647  22482320.480    22482320.020          46.000
        42.750
 105451965.343 8  82170396.30848  20066824.440    20066824.040          51.000
        51.750
 14  1 10  1  5 30.0000000  0  8G02G31G21G25G14G24G12G29
 123550337.054 7  96272976.04146  23510846.160    23510843.400          44.250
        36.750
 116541025.946 8  90811191.26247  22177018.940    22177017.540          48.500
        44.250
 126474225.630 6  98551364.97645  24067237.680    24067237.980          39.250
        33.000
 108622848.149 8  84641223.07448  20670227.980    20670229.900          50.000
        49.000
 118382535.918 7  92246118.21346  22527447.880    22527447.580          44.500
        38.500
 129243810.781 6 100709499.67746  24594270.620    24594273.340          38.500
        36.500
 118207457.391 7  92109752.95447  22494107.680    22494107.220          46.000
        42.250
 105449172.760 8  82168220.26948  20066293.020    20066292.640          51.000
        51.750
 14  1 10  1  6  0.0000000  0  8G02G31G21G25G14G24G12G29
 123594849.427 7  96307661.01546  23519316.740    23519313.760          44.750
        37.000
 116464420.307 8  90751498.55847  22162441.440    22162439.960          48.250
        44.750
 126381356.857 6  98478999.78645  24049565.160    24049565.500          39.250
        33.250
 108635290.441 8  84650918.36548  20672595.740    20672597.680          50.000
        48.750
 118447921.668 7  92297068.13046  22539890.480    22539890.160          44.750
        38.000
 129350971.824 6 100793001.73345  24614662.780    24614665.400          38.750
        33.000
 118269522.597 7  92158115.44946  22505918.320    22505917.540          46.750
        41.750
 105446856.887 8  82166415.69248  20065852.340    20065851.940          51.000
        51.750
 14  1 10  1  6 30.0000000  0  8G02G31G21G25G14G24G12G29
 123639813.610 7  96342698.04146  23527873.320    23527870.020          44.000
        37.250
 116388095.320 8  90692024.54747  22147917.300    22147915.760          48.250
        44.750
 126288535.189 6  98406671.27745  24031901.540    24031902.160          39.500
        31.500
 108647957.297 8  84660788.63248  20675006.260    20675008.180          50.500
        48.500
 118513672.829 7  92348302.79346  22552402.640    22552402.340          45.000
        38.500
 129458245.189 6 100876591.29445  24635076.220    24635078.860          38.000
        30.750
 118331708.427 7  92206571.91946  22517751.940    22517750.880          46.750
        41.750
 105445014.847 8  82164980.34348  20065501.820    20065501.420          51.000
        51.750
 14  1 10  1  7  0.0000000  0  8G02G31G21G25G14G24G12G29
 123685229.082 7  96378086.73146  23536515.800    23536512.400          43.750
        38.000
 116312053.911 8  90632771.50147  22133447.160    22133445.560          48.250
        44.500
 126195763.374 6  98334381.66545  24014247.480    24014248.400          40.000
        34.250
 108660849.559 8  84670834.54148  20677459.700    20677461.480          50.250
        48.500
 118579787.229 7  92399820.48746  22564983.760    22564983.560          44.250
        38.750
 129565629.324 6 100960267.20745  24655510.620    24655513.380          36.750
        35.750
 118394015.874 7  92255123.13247  22529608.720    22529607.600          46.250
        42.500
 105443646.317 8  82163913.95648  20065241.420    20065241.040          51.000
        51.750
 14  1 10  1  7 30.0000000  0  8G02G31G21G25G14G24G12G29
 123731094.625 7  96413826.09846  23545243.800    23545240.580          43.000
        38.500
 116236298.744 8  90573741.50947  22119031.420    22119029.860          48.250
        44.750
 126103044.710 6  98262133.42845  23996603.520    23996604.660          39.500
        33.500
 108673967.809 8  84681056.54348  20679956.000    20679957.720          50.000
        48.500
 118646262.188 7  92451619.15246  22577633.540    22577633.320          44.000
        38.250
 129673122.990 6 101044028.44046  24675965.860    24675968.700          37.250
        37.000
 118456444.736 7  92303768.97647  22541488.560    22541487.600          46.250
        42.750
 105442750.589 8  82163215.99248  20065071.040    20065070.620          51.000
        51.750
 14  1 10  1  8  0.0000000  0  8G02G31G21G25G14G24G12G29
 123777407.268 7  96449913.85446  23554056.840    23554053.760          43.500
        39.000
 116160830.699 8  90514935.23447  22104670.280    22104668.740          48.000
        44.500
 126010379.307 6  98189926.67945  23978969.800    23978970.760          40.250
        35.750
 108687310.468 8  84691453.41648  20682494.960    20682496.720          50.000
        48.500
 118713093.209 7  92503695.25646  22590351.060    22590350.740          44.250
        38.750
 129780722.269 6 101127871.95245  24696441.280    24696444.080          37.250
        32.750
 118518993.647 7  92352508.37147  22553391.240    22553390.420          46.250
        42.250
 105442325.117 8  82162884.45848  20064990.120    20064989.640          51.250
        51.750
 14  1 10  1  8 30.0000000  0  8G02G31G21G25G14G24G12G29
 123824167.520 7  96486350.39946  23562954.940    23562952.180          42.250
        40.750
 116085653.735 7  90456355.80047  22090364.460    22090363.160          47.500
        45.250
 125917771.756 6  98117765.01545  23961347.120    23961347.940          40.000
        33.750
 108700879.550 8  84702026.71948  20685077.020    20685078.780          50.000
        48.250
 118780279.203 7  92556047.96646  22603136.100    22603135.760          44.500
        38.500
 129888427.145 6 101211797.76445  24716936.840    24716939.780          37.750
        33.000
 118581664.323 7  92401342.64346  22565317.000    22565316.320          46.250
        41.750
 105442370.500 8  82162919.82348  20064998.780    20064998.240          51.000
        51.750
 14  1 10  1  9  0.0000000  0  8G02G31G21G25G14G24G12G29
 123871372.510 7  96523133.49246  23571937.680    23571935.200          43.750
        38.500
 116010769.102 7  90398004.15247  22076114.240    22076113.100          47.500
        44.750
 125825223.161 6  98045649.31946  23943735.700    23943736.140          40.000
        36.750
 108714673.987 8  84712775.62248  20687701.920    20687703.760          50.000
        48.500
 118847815.910 7  92608673.96146  22615988.000    22615987.580          44.750
        37.750
 129996234.345 6 101295803.31145  24737451.900    24737455.060          38.250
        32.750
 118644455.139 7  92450270.53146  22577265.620    22577265.000          46.000
        41.750
 105442884.174 8  82163320.08948  20065096.520    20065095.960          51.250
        51.750
 14  1 10  1  9 30.0000000  0  8G02G31G21G25G14G24G12G29
 123919019.664 7  96560261.15946  23581004.680    23581002.040          43.750
        38.250
 115936177.171 7  90339880.57347  22061919.800    22061918.720          47.750
        44.750
 125732734.421 6  97973580.22045  23926135.700    23926135.760          39.750
        35.500
 108728692.645 8  84723699.24848  20690369.540    20690371.480          50.000
        48.500
 118915698.971 7  92661569.83046  22628905.920    22628905.400          44.500
        37.750
 130104140.684 6 101379886.10245  24757985.840    24757989.180          38.000
        33.750
 118707365.152 7  92499291.32046  22589236.960    22589236.220          46.000
        41.500
 105443863.973 8  82164083.57248  20065282.980    20065282.400          51.250
        51.750
 14  1 10  1 10  0.0000000  0  7G02G31G21G25G14G12G29
 123967109.301 7  96597733.59946  23590155.920    23590153.160          43.750
        37.750
 115861882.036 7  90281988.27347  22047781.860    22047780.820          47.500
        44.750
 125640309.357 6  97901560.76945  23908547.780    23908547.580          40.000
        35.500
 108742937.228 8  84734798.92748  20693080.160    20693082.180          50.000
        48.500
 118983926.615 7  92714734.22246  22641889.340    22641888.920          44.250
        37.750
 118770395.637 7  92548405.96446  22601231.240    22601230.560          45.750
        41.750
 105445310.267 8  82165210.55448  20065558.200    20065557.660          51.250
        51.750
 14  1 10  1 10 30.0000000  0  7G02G31G21G25G14G12G29
 124015644.327 7  96635553.09646  23599391.940    23599389.260          43.500
        37.750
 115787890.693 7  90224332.68947  22033701.740    22033700.680          47.750
        44.500
 125547955.062 6  97829596.46145  23890973.320    23890972.840          40.000
        33.750
 108757412.394 8  84746078.27348  20695834.720    20695836.760          50.250
        48.750
 119052501.102 7  92768168.87546  22654938.600    22654938.180          44.000
        39.500
 118833551.058 7  92597617.95147  22613249.320    22613248.800          46.000
        42.000
 105447226.037 8  82166703.35848  20065922.740    20065922.240          51.000
        51.750
 14  1 10  1 11  0.0000000  0  7G02G31G21G25G14G12G29
 124064617.359 7  96673713.91046  23608711.280    23608708.640          43.250
        38.500
 115714198.944 8  90166910.54147  22019678.720    22019677.500          48.250
        44.500
 125455667.393 6  97757684.06345  23873411.540    23873410.940          39.750
        33.750
 108772112.058 8  84757532.55548  20698632.080    20698634.000          50.250
        48.750
 119121412.450 7  92821866.02546  22668051.920    22668051.480          44.000
        38.500
 118896824.799 7  92646922.14246  22625289.860    22625289.520          46.250
        41.750
 105449604.196 8  82168556.47548  20066375.240    20066374.780          51.000
        51.750
 14  1 10  1 11 30.0000000  0  7G02G31G21G25G14G12G29
 124114029.827 7  96712217.13046  23618114.140    23618111.580          42.750
        39.750
 115640812.613 8  90109726.39547  22005713.820    22005712.500          48.000
        44.500
 125363452.335 6  97685828.21345  23855863.500    23855862.800          40.750
        33.750
 108787039.829 8  84769164.58048  20701472.840    20701474.700          50.000
        48.750
 119190661.263 7  92875826.12746  22681229.380    22681228.880          43.750
        38.250
 118960220.333 7  92696321.24547  22637353.740    22637353.260          46.250
        42.000
 105452447.175 8  82170771.78348  20066916.200    20066915.800          51.000
        51.750
 14  1 10  1 12  0.0000000  0  7G02G31G21G25G14G12G29
 124163880.186 7  96751061.55146  23627600.180    23627597.700          43.000
        39.500
 115567733.470 8  90052781.61847  21991807.340    21991806.080          48.000
        44.750
 125271311.962 6  97614030.57546  23838329.700    23838328.980          39.500
        37.000
 108802195.641 8  84780974.30348  20704356.960    20704358.820          50.250
        48.750
 119260244.325 7  92930046.67746  22694470.400    22694469.840          43.750
        37.250
 119023737.542 7  92745815.17947  22649440.840    22649440.120          46.250
        42.250
 105455753.310 8  82173347.99048  20067545.280    20067544.960          51.000
        51.750
 14  1 10  1 12 30.0000000  0  7G02G31G21G25G14G12G29
 124214163.689 7  96790243.49046  23637168.660    23637166.220          42.500
        39.500
 115494960.659 8  89996075.52647  21977959.180    21977957.900          48.250
        45.000
 125179245.656 6  97542290.64445  23820810.100    23820809.420          40.250
        35.250
 108817576.470 8  84792959.36148  20707283.800    20707285.760          49.750
        48.750
 119330155.712 7  92984523.07446  22707774.020    22707773.440          43.750
        37.750
 119087373.107 7  92795401.31146  22661550.340    22661549.600          46.000
        41.250
 105459518.169 8  82176281.64748  20068261.660    20068261.340          51.000
        51.750
 14  1 10  1 13  0.0000000  0  7G02G31G21G25G14G12G29
 124264883.736 7  96829765.59646  23646820.140    23646817.800          42.000
        39.750
 115422501.418 7  89939613.79047  21964170.580    21964169.300          47.750
        44.750
 125087260.711 6  97470614.12545  23803305.880    23803305.300          40.500
        33.500
 108833187.296 8  84805123.63748  20710254.360    20710256.360          50.000
        48.250
 119400396.975 7  93039256.51346  22721140.560    22721140.140          44.000
        38.500
 119151131.281 7  92845082.98247  22673683.200    22673682.460          46.250
        42.250
 105463745.386 8  82179575.58448  20069066.100    20069065.720          51.000
        51.750
 14  1 10  1 13 30.0000000  0  7G02G31G21G25G14G12G29
 124316037.360 7  96869625.54446  23656554.140    23656551.980          42.500
        39.500
 115350356.681 8  89883397.12047  21950441.840    21950440.560          48.250
        45.000
 124995357.485 6  97399001.26645  23785817.100    23785816.600          39.750
        34.500
 108849026.967 8  84817466.24248  20713268.520    20713270.440          50.000
        48.250
 119470963.494 7  93094243.39946  22734568.940    22734568.840          43.750
        37.750
 119215010.840 7  92894859.24647  22685839.100    22685838.520          46.000
        42.000
 105468432.323 8  82183227.73948  20069958.040    20069957.560          51.250
        51.750
 14  1 10  1 14  0.0000000  0  7G02G31G21G25G14G12G29
 124367618.847 7  96909818.91646  23666369.820    23666367.640          42.750
        39.000
 115278524.445 8  89827423.95347  21936772.660    21936771.300          48.500
        44.750
 124903534.960 6  97327451.27945  23768343.700    23768343.200          39.500
        34.500
 108865091.589 8  84829984.12548  20716325.440    20716327.340          49.750
        48.250
 119541848.052 7  93149478.10546  22748057.820    22748058.020          43.250
        38.500
 119279008.155 7  92944727.26546  22698017.420    22698016.900          46.250
        41.500
 105473573.616 8  82187233.94348  20070936.460    20070935.860          51.250
        51.750
 14  1 10  1 14 30.0000000  0  7G02G31G21G25G14G12G29
 124419633.019 6  96950349.44946  23676267.760    23676265.480          41.500
        38.000
 115207013.032 8  89771700.77247  21923164.540    21923163.060          48.250
        45.250
 124811801.245 6  97255970.50245  23750887.140    23750886.900          40.250
        32.500
 108881387.404 8  84842682.15948  20719426.360    20719428.260          50.000
        48.500
 119613053.998 7  93204963.24046  22761607.860    22761608.080          43.750
        37.500
 119343129.075 7  92994691.59647  22710219.200    22710218.640          46.250
        42.000
 105479174.054 8  82191597.92348  20072002.220    20072001.600          51.000
        51.750
 14  1 10  1 15  0.0000000  0  7G02G31G21G25G14G12G29
 124472076.040 6  96991214.11246  23686247.180    23686244.980          41.250
        38.750
 115135822.778 8  89716227.85547  21909617.420    21909616.020          48.250
        45.000
 124720156.874 6  97184559.35645  23733447.700    23733447.640          40.500
        34.750
 108897912.701 8  84855559.01448  20722571.000    20722572.860          50.000
        48.250
 119684576.453 7  93260695.01646  22775218.140    22775218.200          43.500
        37.500
 119407371.540 7  93044750.62846  22722444.220    22722443.440          46.250
        41.500
 105485230.283 8  82196317.06248  20073154.740    20073154.080          51.250
        51.750
 14  1 10  1 15 30.0000000  0  7G02G31G21G25G14G12G29
 124524943.757 7  97032409.72946  23696307.600    23696305.280          42.250
        38.500
 115064953.196 8  89661004.79847  21896131.400    21896130.000          48.750
        44.750
 124628601.355 6  97113217.43445  23716025.220    23716025.240          40.000
        35.500
 108914664.819 8  84868612.61048  20725758.820    20725760.700          50.000
        48.500
 119756409.117 7  93316668.50846  22788887.520    22788887.400          43.250
        38.000
 119471732.085 7  93094901.68446  22734691.720    22734690.800          45.750
        41.500
 105491738.810 8  82201388.64448  20074393.280    20074392.640          51.000
        52.000
 14  1 10  1 16  0.0000000  0  7G02G31G21G25G14G12G29
 124578236.856 7  97073936.80746  23706449.080    23706446.320          43.000
        37.000
 114994408.911 8  89606035.23147  21882707.300    21882705.840          49.000
        45.000
 124537139.260 6  97041948.30446  23698620.500    23698620.720          39.750
        38.500
 108931646.295 8  84881844.91948  20728990.400    20728992.200          50.250
        48.500
 119828551.318 7  93372883.18646  22802615.880    22802615.540          43.750
        38.500
 119536213.690 7  93145147.08546  22746962.120    22746961.180          45.500
        40.500
 105498700.040 8  82206812.97748  20075717.940    20075717.380          51.000
        51.750
 14  1 10  1 16 30.0000000  0  7G02G31G21G25G14G12G29
 124631953.295 7  97115793.76646  23716671.260    23716668.100          43.750
        38.000
 114924191.774 8  89551320.57547  21869345.500    21869343.960          49.000
        45.000
 124445772.964 6  96970753.83546  23681234.000    23681234.280          40.250
        36.250
 108948857.083 8  84895255.92048  20732265.600    20732267.400          50.000
        48.500
 119900999.904 7  93429336.62846  22816402.420    22816402.120          43.750
        38.250
 119600815.828 7  93195486.38446  22759255.460    22759254.440          45.500
        41.250
 105506112.653 8  82212589.04648  20077128.480    20077128.000          51.000
        51.750
 14  1 10  1 17  0.0000000  0  7G02G31G21G25G14G12G29
 124686090.647 7  97157978.72846  23726973.640    23726970.240          43.500
        38.000
 114854303.386 8  89496862.08947  21856046.240    21856044.640          48.500
        45.250
 124354504.059 6  96899635.23146  23663866.040    23663866.360          40.500
        37.250
 108966296.720 8  84908845.24148  20735584.320    20735586.180          50.000
        48.500
 119973750.855 7  93486025.67046  22830246.540    22830246.240          43.000
        36.750
 119665537.748 7  93245919.02546  22771571.560    22771570.560          45.750
        41.000
 105513974.654 8  82218715.28048  20078624.500    20078624.120          50.750
        51.750
 14  1 10  1 17 30.0000000  0  7G02G31G21G25G14G12G29
 124740651.896 7  97200493.99146  23737356.540    23737353.080          43.250
        37.250
 114784750.508 8  89442665.03947  21842810.740    21842809.140          48.500
        45.250
 124263339.373 6  96828597.86045  23646518.080    23646518.340          40.000
        35.750
 108983969.777 8  84922616.45748  20738947.400    20738949.300          50.000
        48.500
 120046805.614 7  93542951.43846  22844148.380    22844148.280          43.000
        37.500
 119730383.646 7  93296448.26947  22783911.300    22783910.280          45.250
        42.000
 105522289.156 8  82225194.11648  20080206.660    20080206.340          51.000
        51.750
 14  1 10  1 18  0.0000000  0  7G02G31G21G25G14G12G29
 124795633.834 7  97243337.03946  23747819.180    23747815.900          42.000
        38.250
 114715534.014 8  89388730.11247  21829639.220    21829637.720          48.500
        45.750
 124172279.816 6  96757642.37145  23629190.220    23629190.300          40.000
        35.750
 109001875.125 8  84936568.67248  20742354.640    20742356.620          50.000
        48.250
 120120159.850 7  93600110.55846  22858107.240    22858107.220          43.500
        37.750
 119795352.238 7  93347073.13646  22796274.380    22796273.460          45.000
        40.750
 105531053.244 8  82232023.28048  20081874.380    20081874.080          51.000
        51.750
 14  1 10  1 18 30.0000000  0  7G02G31G21G25G14G12G29
 124851033.850 6  97286505.88546  23758361.220    23758358.220          41.750
        37.750
 114646654.800 8  89335058.01247  21816531.880    21816530.520          48.500
        45.500
 124081326.727 6  96686769.88346  23611882.360    23611882.800          40.250
        37.000
 109020011.653 8  84950701.03048  20745805.840    20745807.960          50.000
        48.250
 120193808.731 7  93657499.29446  22872122.200    22872122.080          42.750
        37.750
 119860441.738 7  93397792.19246  22808660.460    22808659.700          45.500
        41.000
 105540264.343 8  82239200.76248  20083627.180    20083626.900          51.000
        51.750
 14  1 10  1 19  0.0000000  0  7G02G31G21G25G14G12G29
 124906847.726 7  97329997.20946  23768982.120    23768979.120          42.250
        36.250
 114578112.879 8  89281648.73147  21803488.700    21803487.480          48.000
        45.750
 123990480.091 6  96615980.33846  23594594.800    23594595.320          40.250
        37.750
 109038377.266 8  84965011.89548  20749300.600    20749302.840          49.750
        48.250
 120267746.988 7  93715113.49246  22886192.180    22886191.880          43.250
        36.000
 119925650.388 7  93448604.11846  22821069.320    22821068.580          45.750
        40.750
 105549918.763 8  82246723.69348  20085464.340    20085464.140          50.750
        51.750
 14  1 10  1 19 30.0000000  0  7G02G31G21G25G14G12G29
 124963075.195 7  97373810.79445  23779681.880    23779678.720          43.000
        35.750
 114509911.681 8  89228504.93647  21790510.420    21790509.200          48.000
        45.500
 123899743.677 6  96545276.66345  23577328.240    23577328.840          41.250
        34.250
 109056973.657 8  84979502.58348  20752839.300    20752841.520          49.750
        48.250
 120341973.323 7  93772952.18546  22900317.020    22900316.540          42.500
        37.750
 119990979.604 7  93499509.96446  22833501.120    22833500.400          46.000
        40.750
 105560016.716 8  82254592.22748  20087385.920    20087385.720          51.000
        51.500
 14  1 10  1 20  0.0000000  0  7G02G31G21G25G14G12G29
 125019716.227 7  97417946.66746  23790460.580    23790457.240          43.000
        36.250
 114442055.276 8  89175629.82247  21777597.700    21777596.540          48.250
        45.750
 123809120.832 6  96474661.47346  23560083.440    23560083.860          41.500
        37.500
 109075802.628 8  84994174.50648  20756422.380    20756424.500          50.000
        48.250
 120416485.675 7  93831013.73546  22914496.200    22914495.760          43.000
        36.250
 120056430.372 7  93550510.52646  22845956.100    22845955.380          45.000
        40.750
 105570558.209 8  82262806.38648  20089391.960    20089391.600          51.000
        51.750
 14  1 10  1 20 30.0000000  0  7G02G31G21G25G14G12G29
 125076768.896 7  97462403.28946  23801317.540    23801314.140          42.250
        39.500
 114374545.719 8  89123024.97847  21764751.020    21764749.980          48.500
        46.000
 123718614.218 6  96404136.86846  23542860.740    23542861.000          41.000
        36.750
 109094864.184 8  85009027.64848  20760049.760    20760051.720          49.750
        48.250
 120491280.841 7  93889295.68546  22928729.260    22928728.900          43.250
        37.500
 120122002.752 7  93601605.84446  22858434.160    22858433.380          45.250
        40.000
 105581541.672 8  82271364.92948  20091482.100    20091481.660          51.000
        51.750
 14  1 10  1 21  0.0000000  0  7G02G31G21G25G14G12G29
 125134232.743 6  97507180.31246  23812252.460    23812249.320          41.500
        39.250
 114307386.127 8  89070692.83947  21751971.040    21751969.980          48.750
        46.000
 123628227.686 6  96333705.82546  23525660.820    23525661.020          41.000
        36.750
 109114159.542 8  85024062.99048  20763721.620    20763723.460          50.000
        48.250
 120566356.611 7  93947796.25046  22943015.780    22943015.520          42.500
        39.000
 120187697.621 7  93652796.61446  22870935.400    22870934.660          44.750
        41.250
 105592966.689 8  82280267.54448  20093656.280    20093655.740          51.000
        51.750
 14  1 10  1 21 30.0000000  0  7G02G31G21G25G14G12G29
 125192103.107 7  97552274.10246  23823264.700    23823261.800          42.250
        38.000
 114240576.315 8  89018633.24947  21739257.660    21739256.480          49.000
        45.750
 123537961.217 6  96263368.34145  23508483.680    23508483.960          41.250
        34.750
 109133686.547 8  85039278.83447  20767437.580    20767439.260          50.000
        47.750
 120641707.567 7  94006511.25146  22957354.680    22957354.300          43.000
        37.500
 120253513.007 7  93704081.29446  22883459.540    22883459.000          45.000
        40.500
 105604829.443 8  82289511.24848  20095913.740    20095913.140          51.000
        51.750
 14  1 10  1 22  0.0000000  0  7G02G31G21G25G14G12G29
 125250378.996 7  97597683.86746  23834354.180    23834351.320          42.000
        37.500
 114174119.360 8  88966848.59947  21726611.460    21726610.080          49.000
        46.000
 123447817.960 6  96193126.87045  23491330.020    23491330.360          41.500
        34.250
 109153446.021 8  85054675.81748  20771197.740    20771199.340          50.000
        48.250
 120717331.006 7  94065438.60546  22971745.420    22971744.760          42.750
        37.000
 120319449.154 7  93755460.07046  22896006.680    22896006.220          45.000
        40.750
 105617129.098 8  82299095.39148  20098254.240    20098253.700          50.750
        51.750
 14  1 10  1 22 30.0000000  0  7G02G31G21G25G14G12G29
 125309061.005 7  97643410.09446  23845520.880    23845518.020          42.250
        37.000
 114108019.175 8  88915341.97147  21714033.020    21714031.700          49.000
        46.250
 123357801.506 6  96122984.17546  23474200.600    23474200.820          41.750
        38.750
 109173440.388 8  85070255.84348  20775002.560    20775004.220          49.750
        48.500
 120793226.267 7  94124577.75346  22986187.760    22986187.040          42.750
        36.750
 120385508.113 7  93806934.54346  22908577.320    22908576.960          45.500
        40.500
 105629866.516 8  82309020.65348  20100678.060    20100677.580          51.000
        51.500
 14  1 10  1 23  0.0000000  0  7G02G31G21G25G14G12G29
 125368143.644 7  97689448.52046  23856763.900    23856761.120          42.500
        37.750
 114042274.611 8  88864112.43947  21701522.280    21701520.980          49.250
        46.500
 123267911.079 7  96052939.72246  23457095.160    23457095.180          42.500
        37.000
 109193666.310 8  85086016.29448  20778851.280    20778853.120          49.500
        48.250
 120869386.550 7  94183923.42646  23000680.500    23000679.800          42.750
        37.000
 120451686.285 7  93858501.92446  22921170.680    22921170.420          45.500
        41.250
 105643036.749 8  82319283.17248  20103184.180    20103183.720          50.750
        51.750
 14  1 10  1 23 30.0000000  0  7G02G31G21G25G14G12G29
 125427628.060 7  97735799.99346  23868083.460    23868080.640          42.250
        36.000
 113976891.058 8  88813164.22247  21689080.180    21689078.980          49.250
        46.250
 123178151.792 6  95982997.44446  23440014.620    23440014.520          41.750
        36.750
 109214126.880 8  85101959.59948  20782744.620    20782746.700          49.750
        48.500
 120945811.403 7  94243475.24346  23015223.560    23015223.020          42.250
        37.750
 120517986.319 7  93910164.26746  22933787.280    22933787.000          45.250
        40.750
 105656640.979 8  82329883.87248  20105772.920    20105772.500          51.000
        51.500
 14  1 10  1 24  0.0000000  0  7G02G31G21G25G14G12G29
 125487512.308 7  97782463.04746  23879479.040    23879476.260          42.000
        38.750
 113911870.380 8  88762498.76147  21676707.200    21676705.960          49.250
        46.250
 123088526.610 7  95913159.66145  23422959.580    23422959.300          42.000
        35.750
 109234822.240 8  85118085.85148  20786682.680    20786684.980          49.750
        48.250
 121022497.742 7  94303230.79346  23029816.420    23029816.340          42.750
        37.250
 120584408.242 7  93961921.57746  22946427.100    22946426.720          45.500
        40.500
 105670677.502 8  82340821.42048  20108443.900    20108443.520          50.750
        51.750
 14  1 10  1 24 30.0000000  0  7G02G31G21G25G14G12G29
 125547793.117 7  97829435.09846  23890950.060    23890947.500          42.250
        37.000
 113847213.677 8  88712116.90247  21664403.480    21664402.140          49.500
        46.250
 122999035.887 7  95843426.67446  23405930.020    23405929.640          42.500
        36.500
 109255751.354 8  85134394.25048  20790665.260    20790667.720          49.750
        48.500
 121099440.663 7  94363186.30346  23044458.240    23044458.320          42.500
        38.250
 120650950.680 7  94013772.78646  22959089.760    22959089.320          44.500
        41.000
 105685143.708 8  82352093.79048  20111196.680    20111196.340          50.750
        51.500
 14  1 10  1 25  0.0000000  0  7G02G31G21G25G14G12G29
 125608470.797 7  97876716.41546  23902496.700    23902494.040          42.500
        36.250
 113782924.687 8  88662021.59847  21652169.720    21652168.340          49.250
        46.500
 122909684.143 7  95773801.93946  23388926.960    23388926.440          42.750
        36.250
 109276916.367 8  85150886.46148  20794692.880    20794695.340          50.000
        48.250
 121176639.215 7  94423340.99846  23059148.700    23059148.760          42.250
        37.500
 120717615.548 7  94065719.40446  22971775.480    22971775.300          44.250
        40.750
 105700039.598 8  82363700.97348  20114031.220    20114030.960          50.750
        51.750
 14  1 10  1 25 30.0000000  0  7G02G31G21G25G14G12G29
 125669543.445 7  97924305.48346  23914118.540    23914115.360          42.500
        37.750
 113719005.844 8  88612214.71147  21640006.360    21640005.060          49.250
        46.500
 122820473.702 7  95704287.32646  23371950.760    23371950.040          42.500
        38.000
 109298317.491 8  85167562.65848  20798765.460    20798767.820          50.000
        48.250
 121254090.282 7  94483692.45545  23073887.180    23073887.080          43.750
        35.500
 120784403.336 7  94117761.80546  22984484.640    22984484.640          44.750
        40.500
 105715364.574 8  82375642.51748  20116947.440    20116947.260          50.750
        51.750
 14  1 10  1 26  0.0000000  0  7G02G31G21G25G14G12G29
 125731008.476 6  97972200.31046  23925814.940    23925811.320          41.750
        36.750
 113655458.579 8  88562697.36147  21627913.720    21627912.460          49.250
        46.750
 122731405.977 7  95634883.92245  23355001.760    23355000.920          43.000
        35.500
 109319954.216 8  85184422.43448  20802882.940    20802885.060          50.000
        48.000
 121331789.822 7  94544237.54345  23088672.940    23088672.680          42.750
        35.750
 120851312.591 7  94169898.86546  22997217.100    22997217.020          44.500
        40.750
 105731115.965 8  82387916.32648  20119944.800    20119944.620          50.750
        51.500
 14  1 10  1 26 30.0000000  0  7G02G31G21G25G14G12G29
 125792866.158 6  98020401.06346  23937585.960    23937582.180          40.750
        36.000
 113592287.545 8  88513473.18747  21615892.600    21615891.380          49.500
        46.500
 122642485.868 7  95565595.56745  23338080.800    23338080.040          43.250
        35.500
 109341829.116 8  85201467.80448  20807045.760    20807047.660          50.000
        48.250
 121409736.741 7  94604975.39046  23103505.680    23103505.500          42.500
        37.500
 120918345.713 7  94222132.41546  23009973.140    23009973.100          44.750
        41.000
 105747294.469 8  82400522.95648  20123023.480    20123023.240          50.750
        51.750
 14  1 10  1 27  0.0000000  0  7G02G31G21G25G14G12G29
 125855112.035 6  98068904.32546  23949430.680    23949427.220          41.000
        37.000
 113529491.624 8  88464541.29247  21603943.000    21603941.580          49.750
        46.250
 122553712.636 7  95496421.60546  23321187.800    23321186.960          43.000
        36.500
 109363939.407 8  85218696.59848  20811253.320    20811255.120          50.000
        48.250
 121487924.985 7  94665901.24746  23118384.360    23118384.260          42.750
        36.250
 120985499.570 7  94274460.07146  23022752.180    23022752.080          44.750
        41.000
 105763895.491 8  82413458.82048  20126182.620    20126182.340          50.750
        51.500
 14  1 10  1 27 30.0000000  0  7G02G31G21G25G14G12G29
 125917744.829 6  98117709.09045  23961348.980    23961346.120          40.500
        35.500
 113467073.752 8  88415903.99447  21592065.260    21592063.800          49.000
        46.500
 122465089.810 7  95427364.87246  23304323.380    23304322.480          43.000
        36.750
 109386286.028 8  85236109.54348  20815505.800    20815507.500          50.000
        48.000
 121566352.101 6  94727013.28346  23133308.540    23133308.600          41.750
        37.750
 121052774.973 7  94326882.42246  23035554.400    23035554.040          45.250
        39.750
 105780917.944 8  82426723.06948  20129421.940    20129421.620          50.750
        51.500
 14  1 10  1 28  0.0000000  0  7G02G31G21G25G14G12G29
 125980761.330 6  98166812.85746  23973340.560    23973338.140          41.500
        37.500
 113405035.176 8  88367562.26147  21580259.600    21580258.280          49.500
        46.250
 122376618.408 7  95358426.14645  23287487.760    23287486.900          43.500
        35.250
 109408868.184 8  85253706.02747  20819803.020    20819804.600          50.000
        47.750
 121645013.986 7  94788308.24046  23148277.420    23148277.540          42.250
        36.250
 121120171.000 7  94379398.78246  23048379.480    23048378.980          44.500
        40.750
 105798359.485 8  82440313.88448  20132741.040    20132740.620          51.000
        51.500
 14  1 10  1 28 30.0000000  0  7G02G31G21G25G14G12G29
 126044158.346 7  98216213.13546  23985404.800    23985402.460          42.000
        38.000
 113343376.642 8  88319516.64147  21568526.360    21568525.000          49.500
        46.250
 122288299.357 7  95289606.10745  23270681.140    23270680.360          43.500
        35.750
 109431684.784 8  85271485.18748  20824144.800    20824146.420          49.750
        48.000
 121723905.918 7  94849782.43645  23163290.120    23163290.180          42.750
        34.500
 121187686.132 7  94432007.94146  23061227.200    23061226.640          44.500
        39.500
 105816217.289 8  82454229.05648  20136139.320    20136138.860          51.000
        51.500
 14  1 10  1 29  0.0000000  0  7G02G31G21G25G14G12G29
 126107939.400 6  98265912.63946  23997542.060    23997539.800          41.500
        36.750
 113282105.608 8  88271772.99347  21556866.840    21556865.580          49.500
        46.750
 122200140.086 7  95220910.57145  23253905.020    23253904.100          43.500
        35.750
 109454741.317 8  85289451.31948  20828532.160    20828534.020          49.750
        48.000
 121803029.807 7  94911437.39846  23178346.920    23178346.900          42.250
        37.500
 121255325.359 7  94484713.79046  23074098.560    23074098.020          44.750
        39.750
 105834494.688 8  82468471.18848  20139617.460    20139616.960          51.000
        51.750
 14  1 10  1 29 30.0000000  0  7G02G31G21G25G14G12G29
 126172100.049 6  98315907.92346  24009751.560    24009749.260          41.750
        38.500
 113221221.776 8  88224331.04647  21545281.140    21545279.840          49.500
        46.500
 122112140.742 7  95152339.67846  23237159.300    23237158.280          42.750
        37.750
 109478035.689 8  85307602.76748  20832964.780    20832966.860          49.500
        48.250
 121882380.212 6  94973268.85446  23193446.780    23193446.820          41.500
        36.500
 121323086.377 7  94537514.56746  23086993.100    23086992.620          44.500
        39.500
 105853187.995 8  82483037.40348  20143174.740    20143174.220          51.000
        51.750
 14  1 10  1 30  0.0000000  0  7G02G31G21G25G14G12G29
 126236639.281 6  98366198.23046  24022033.140    24022030.660          41.750
        36.250
 113160728.133 8  88177193.14047  21533769.580    21533768.140          49.250
        46.250
 122024304.479 7  95083895.85745  23220444.500    23220443.420          43.000
        35.750
 109501569.086 8  85325940.48348  20837442.940    20837445.160          49.750
        48.000
 121961954.976 6  95035275.15346  23208589.200    23208589.500          41.250
        36.750
 121390970.006 7  94590410.85646  23099910.960    23099910.520          44.750
        41.250
 105872296.852 8  82497927.42348  20146811.040    20146810.520          51.000
        51.500
 14  1 10  1 30 30.0000000  0  7G02G31G21G25G14G12G29
 126301553.176 7  98416780.47445  24034386.100    24034383.300          42.000
        35.750
 113100625.150 8  88130359.64947  21522332.320    21522330.880          49.500
        46.500
 121936631.772 7  95015579.46245  23203760.780    23203759.700          42.750
        35.750
 109525339.655 8  85344462.99548  20841966.360    20841968.520          50.000
        48.000
 122041748.651 6  95097451.99646  23223773.440    23223773.760          41.500
        39.000
 121458974.390 7  94643401.24846  23112851.680    23112851.380          44.750
        39.750
 105891817.201 8  82513138.08948  20150525.640    20150525.120          50.750
        51.500
 14  1 10  1 31  0.0000000  0  7G02G31G21G25G14G12G29
 126366840.941 7  98467654.04846  24046810.160    24046807.060          42.250
        36.250
 113040916.062 8  88083833.08747  21510970.000    21510968.680          49.250
        46.750
 121849125.930 7  94947393.11246  23187108.840    23187107.840          43.000
        36.750
 109549348.977 8  85363171.55548  20846535.260    20846537.360          50.000
        48.000
 122121759.685 7  95159798.24846  23238999.220    23238999.300          42.250
        36.000
 121527100.835 7  94696486.76146  23125815.680    23125815.220          44.750
        39.750
 105911748.818 8  82528669.21448  20154318.440    20154317.920          50.750
        51.500
 14  1 10  1 31 30.0000000  0  7G02G31G21G25G14G12G29
 126432501.476 6  98518818.09846  24059305.100    24059301.780          41.500
        36.250
 112981603.662 8  88037615.64147  21499683.220    21499681.940          49.500
        46.750
 121761790.932 7  94879339.87546  23170489.460    23170488.540          43.250
        36.750
 109573598.244 8  85382067.08548  20851149.880    20851151.880          49.750
        48.250
 122201985.037 7  95222311.46246  23254265.860    23254265.500          42.000
        36.500
 121595350.057 7  94749667.95646  23138803.120    23138802.560          45.250
        40.750
 105932091.031 8  82544520.29248  20158189.380    20158188.880          50.750
        51.250
 14  1 10  1 32  0.0000000  0  7G02G31G21G25G14G12G29
 126498533.977 6  98570272.00646  24071870.620    24071867.540          40.500
        37.250
 112922691.115 8  87991709.76647  21488472.560    21488471.360          49.500
        46.750
 121674629.734 7  94811422.06946  23153903.180    23153902.280          43.000
        39.000
 109598088.535 8  85401150.42348  20855810.360    20855812.280          50.000
        48.250
 122282422.843 7  95284990.23545  23269572.840    23269572.280          42.500
        34.000
 121663723.047 7  94802945.60346  23151814.140    23151813.680          44.000
        39.750
 105952842.961 8  82560690.62948  20162138.300    20162137.820          50.750
        51.250
 14  1 10  1 32 30.0000000  0  7G02G31G21G25G14G12G29
 126564936.867 6  98622014.49646  24084506.380    24084503.780          40.750
        37.250
 112864180.953 8  87946117.43647  21477338.440    21477337.240          49.500
        46.500
 121587644.829 7  94743641.63646  23137350.480    23137349.520          43.500
        37.750
 109622820.579 8  85420422.13748  20860516.820    20860518.620          50.000
        48.000
 122363070.262 7  95347832.33945  23284919.660    23284919.020          42.000
        31.500
 121732219.778 7  94856319.66546  23164848.560    23164848.260          43.750
        39.500
 105974003.373 8  82577179.25648  20166164.920    20166164.520          50.750
        51.250
 14  1 10  1 33  0.0000000  0  7G02G31G21G25G14G12G29
 126631704.799 6  98674041.43846  24097211.720    24097209.380          41.000
        36.750
 112806071.922 8  87900837.66347  21466280.700    21466279.420          49.250
        46.750
 121500834.904 7  94675997.55346  23120831.060    23120830.040          42.750
        36.500
 109647791.349 8  85439879.87048  20865268.680    20865270.360          50.000
        48.000
 122443920.675 6  95410832.63245  23300305.000    23300304.420          41.500
        35.750
 121800837.546 7  94909788.02246  23177905.920    23177905.840          43.500
        40.750
 105995567.353 8  82593982.35948  20170268.380    20170267.980          50.750
        51.250
 14  1 10  1 33 30.0000000  0  7G02G31G21G25G14G12G29
 126698836.748 6  98726352.02446  24109986.480    24109984.280          41.750
        37.000
 112748367.371 8  87855873.09947  21455299.800    21455298.660          49.250
        46.750
 121414203.934 7  94608492.90946  23104345.680    23104344.660          43.500
        37.000
 109673002.003 8  85459524.53648  20870066.040    20870067.780          49.750
        48.000
 122524971.916 6  95473989.41946  23315728.420    23315728.020          41.750
        38.000
 121869576.791 7  94963351.05446  23190986.520    23190986.700          44.500
        40.250
 106017534.142 8  82611099.33848  20174448.480    20174448.100          50.750
        51.250
 14  1 10  1 34  0.0000000  0  7G02G31G21G25G14G12G29
 126766329.231 7  98778943.55346  24122830.000    24122827.880          42.750
        37.000
 112691068.014 8  87811224.23747  21444396.120    21444394.860          49.750
        47.000
 121327752.894 7  94541128.47246  23087894.600    23087893.580          43.750
        37.250
 109698451.501 8  85479355.31648  20874908.820    20874910.680          49.750
        48.000
 122606219.352 7  95537299.08746  23331189.300    23331189.080          42.000
        36.500
 121938435.970 7  95017007.52946  23204090.040    23204090.260          45.000
        41.250
 106039900.816 8  82628527.91548  20178704.720    20178704.320          50.750
        51.250
 14  1 10  1 34 30.0000000  0  7G02G31G21G25G14G12G29
 126834182.764 6  98831816.43846  24135742.380    24135740.180          41.500
        37.000
 112634178.280 8  87766894.58647  21433570.320    21433569.120          49.500
        47.000
 121241487.049 7  94473908.34546  23071478.780    23071477.640          43.500
        37.250
 109724142.766 8  85499374.47448  20879797.620    20879799.560          49.500
        48.000
 122687662.441 7  95600761.18945  23346687.440    23346687.060          42.000
        34.250
 122007418.403 7  95070760.04746  23217217.200    23217217.280          44.750
        40.500
 106062668.820 8  82646269.21648  20183037.340    20183036.920          50.750
        51.250
 14  1 10  1 35  0.0000000  0  7G02G31G21G25G14G12G29
 126902396.385 6  98884969.91545  24148723.140    24148720.780          41.500
        35.750
 112577701.155 8  87722886.44347  21422823.060    21422821.940          49.750
        47.250
 121155408.664 7  94406834.27746  23055098.640    23055097.260          43.250
        36.750
 109750076.873 8  85519582.86748  20884732.600    20884734.660          49.500
        48.000
 122769298.737 7  95664373.83345  23362222.300    23362221.840          42.000
        35.750
 122076524.544 7  95124608.98246  23230367.720    23230367.700          43.750
        40.000
 106085836.710 8  82664322.11848  20187446.020    20187445.640          50.750
        51.250
 14  1 10  1 35 30.0000000  0  7G02G31G21G25G14G12G29
 126970968.192 6  98938402.47045  24161771.840    24161769.220          41.000
        35.250
 112521639.483 8  87679202.02947  21412154.920    21412153.760          50.000
        46.750
 121069521.105 7  94339908.92546  23038754.800    23038753.400          43.500
        37.000
 109776254.637 8  85539981.11948  20889714.000    20889716.060          49.750
        48.000
 122851125.590 6  95728134.99845  23377793.540    23377792.940          41.750
        35.750
 122145754.700 7  95178554.53746  23243541.780    23243541.700          44.500
        39.250
 106109403.571 8  82682685.90348  20191930.700    20191930.300          50.750
        51.250
 14  1 10  1 36  0.0000000  0  7G02G31G21G25G14G12G29
 127039895.153 6  98992111.78646  24174888.100    24174885.140          41.500
        36.500
 112465993.626 8  87635841.61147  21401565.960    21401564.660          49.750
        47.000
 120983825.074 7  94273132.79946  23022447.500    23022445.960          43.750
        37.750
 109802674.738 8  85560568.20747  20894741.580    20894743.560          49.750
        47.750
 122933138.194 6  95792040.86946  23393399.960    23393399.460          41.000
        37.250
 122215107.439 7  95232595.61546  23256739.160    23256739.080          44.250
        40.500
 106133366.097 8  82701358.00148  20196490.700    20196490.260          50.750
        51.250
 14  1 10  1 36 30.0000000  0  7G02G31G21G25G14G12G29
 127109174.884 6  99046095.97946  24188071.500    24188068.320          41.000
        36.250
 112410765.069 8  87592806.38047  21391056.360    21391055.040          49.750
        47.500
 120898322.281 7  94206507.26446  23006176.960    23006175.440          44.500
        37.750
 109829337.072 8  85581344.04748  20899815.340    20899817.240          49.750
        48.000
 123015333.007 6  95856088.72946  23409041.080    23409040.720          41.250
        37.500
 122284582.421 7  95286731.95446  23269959.920    23269959.740          45.000
        38.500
 106157722.445 8  82720336.97848  20201125.640    20201125.120          50.750
        51.250
 14  1 10  1 37  0.0000000  0  7G02G31G21G25G14G12G29
 127178807.546 6  99100355.18046  24201321.800    24201318.780          40.000
        36.750
 112355958.641 8  87550100.07447  21380627.020    21380625.660          49.750
        47.500
 120813017.818 7  94140036.26146  22989944.200    22989942.800          43.750
        37.250
 109856244.454 8  85602310.83248  20904935.720    20904937.620          49.750
        48.000
 123097709.257 6  95920277.99145  23424716.740    23424716.620          40.750
        35.750
 122354182.052 7  95340965.41946  23283204.400    23283204.200          44.250
        39.000
 106182473.431 8  82739623.45748  20205835.580    20205835.100          50.750
        51.250
 14  1 10  1 37 30.0000000  0  7G02G31G21G25G14G12G29
 127248789.176 6  99154886.29045  24214638.420    24214635.640          40.000
        34.750
 112301574.355 8  87507722.70747  21370278.000    21370276.660          50.000
        47.500
 120727911.513 7  94073719.67946  22973749.040    22973747.840          43.750
        37.500
 109883395.015 8  85623467.10448  20910102.380    20910104.240          50.000
        48.000
 123180261.754 6  95984604.57846  23440425.900    23440425.980          41.000
        37.000
 122423904.095 7  95395294.27146  23296472.020    23296471.960          43.750
        39.000
 106207614.874 8  82759214.19548  20210619.840    20210619.380          50.750
        51.250
 14  1 10  1 38  0.0000000  0  7G02G31G21G25G14G12G29
 127319114.773 6  99209685.44845  24228020.860    24228018.200          41.000
        32.500
 112247611.475 8  87465673.71847  21360009.200    21360007.920          49.750
        47.500
 120643003.545 7  94007557.62246  22957591.560    22957590.580          43.500
        39.000
 109910786.446 8  85644811.07247  20915314.920    20915316.640          50.000
        47.750
 123262984.423 6  96049063.75045  23456167.440    23456167.620          41.750
        35.000
 122493745.868 7  95449716.42746  23309762.440    23309762.420          43.500
        39.000
 106233142.911 8  82779106.17548  20215477.660    20215477.220          50.750
        51.250
 14  1 10  1 38 30.0000000  0  7G02G31G21G25G14G12G29
 127389783.128 6  99264751.73445  24241468.780    24241466.000          41.000
        34.750
 112194072.554 8  87423955.08047  21349821.100    21349819.820          50.000
        47.500
 120558296.690 7  93941552.28746  22941472.400    22941471.400          44.250
        38.500
 109938419.738 8  85666343.49847  20920573.420    20920575.100          49.750
        47.750
 123345874.917 6  96113653.70645  23471941.040    23471941.160          41.000
        35.000
 122563708.362 7  95504232.67146  23323075.780    23323075.800          43.500
        38.000
 106259056.235 8  82799298.37548  20220408.800    20220408.440          50.750
        51.250
 14  1 10  1 39  0.0000000  0  7G02G31G21G25G14G12G29
 127460796.039 6  99320086.46345  24254982.300    24254979.480          40.750
        35.500
 112140963.917 8  87382571.72547  21339714.840    21339713.540          49.750
        47.500
 120473797.325 7  93875708.65146  22925392.680    22925391.620          44.000
        38.750
 109966299.017 8  85688067.60448  20925878.680    20925880.400          49.750
        48.250
 123428933.759 6  96178374.83646  23487746.740    23487746.780          40.750
        37.500
 122633795.395 7  95558845.92146  23336412.880    23336412.900          44.250
        38.750
 106285356.510 8  82819792.08848  20225413.580    20225413.240          50.750
        51.250
 14  1 10  1 39 30.0000000  0  7G02G31G21G25G14G12G29
 127532148.947 6  99375686.12246  24268560.540    24268557.500          40.750
        36.250
 112088284.799 8  87341523.06147  21329690.360    21329688.940          50.000
        47.500
 120389505.193 7  93810026.47846  22909352.360    22909351.220          44.000
        37.500
 109994422.170 8  85709981.74148  20931230.340    20931232.140          50.000
        48.000
 123512155.574 6  96243222.93245  23503583.400    23503583.380          41.500
        35.250
 122704004.459 7  95613554.26046  23349773.280    23349773.380          43.500
        39.750
 106312040.682 8  82840584.95348  20230491.400    20230491.060          50.500
        51.000
 14  1 10  1 40  0.0000000  0  7G02G31G21G25G14G12G29
 127603842.445 6  99431551.16946  24282203.520    24282200.180          40.750
        37.750
 112036039.504 8  87300812.44247  21319748.360    21319746.900          49.500
        47.750
 120305424.954 7  93744509.41946  22893352.340    22893351.160          44.250
        37.500
 110022791.673 8  85732087.84148  20936628.880    20936630.780          49.750
        48.000
 123595538.991 6  96308196.98045  23519450.840    23519450.640          40.750
        34.250
 122774337.475 7  95668359.17746  23363157.360    23363157.400          44.250
        39.750
 106339108.791 8  82861676.98448  20235642.260    20235641.920          50.500
        51.000
 14  1 10  1 40 30.0000000  0  7G02G31G21G25G14G12G29
 127675874.438 6  99487679.97245  24295910.820    24295907.120          40.500
        33.500
 111984230.911 8  87260442.12147  21309889.480    21309888.080          50.000
        47.500
 120221559.427 7  93679159.67646  22877393.220    22877392.020          44.750
        38.000
 110051408.471 8  85754386.64248  20942074.420    20942076.420          49.500
        48.000
 123679081.818 6  96373295.22246  23535348.400    23535348.280          40.750
        36.500
 122844795.078 7  95723261.19046  23376565.060    23376565.140          43.750
        38.750
 106366559.620 8  82883067.24448  20240865.940    20240865.540          50.500
        51.000
 14  1 10  1 41  0.0000000  0  7G02G31G21G25G14G12G29
 127748240.698 6  99544069.28446  24309681.600    24309677.600          40.500
        37.000
 111932858.307 8  87220411.51347  21300113.560    21300112.220          49.750
        47.500
 120137908.748 7  93613977.33546  22861474.920    22861473.880          44.250
        38.750
 110080270.573 8  85776876.58847  20947566.560    20947568.680          49.750
        47.750
 123762778.468 6  96438513.34045  23551275.240    23551275.140          40.000
        33.500
 122915374.910 7  95778258.43246  23389995.920    23389996.020          43.000
        39.750
 106394389.339 8  82904752.74248  20246161.700    20246161.320          50.500
        51.000
 14  1 10  1 41 30.0000000  0  7G02G31G21G25G14G12G29
 127820939.432 6  99600717.62946  24323515.620    24323511.360          38.500
        36.000
 111881924.254 8  87180722.64447  21290421.160    21290419.880          49.750
        47.750
 120054475.020 7  93548964.05346  22845597.920    22845596.900          44.250
        38.250
 110109378.464 8  85799558.05247  20953105.540    20953107.680          49.750
        47.750
 123846625.623 6  96503848.72345  23567230.880    23567230.720          41.250
        33.250
 122986077.552 7  95833351.40446  23403450.200    23403450.240          44.750
        38.750
 106422596.433 8  82926732.28948  20251529.320    20251528.880          50.750
        50.750
 14  1 10  1 42  0.0000000  0  7G02G31G21G25G14G12G29
 127893968.625 6  99657623.49046  24337412.440    24337408.440          38.500
        36.250
 111831430.736 8  87141377.04647  21280812.600    21280811.340          49.750
        47.750
 119971261.103 7  93484122.05146  22829762.700    22829761.820          44.000
        39.000
 110138732.396 8  85822431.22947  20958691.400    20958693.460          49.750
        47.750
 123930619.974 6  96569298.79546  23583214.640    23583214.320          40.500
        36.000
 123056903.205 7  95888540.22846  23416927.900    23416927.900          43.500
        39.750
 106451178.802 8  82949004.26748  20256968.400    20256967.860          50.500
        50.750
 14  1 10  1 42 30.0000000  0  7G02G31G21G25G14G12G29
 127967328.145 6  99714786.74945  24351372.120    24351368.960          39.500
        35.750
 111781381.568 8  87102377.69447  21271288.580    21271287.300          49.750
        47.750
 119888271.029 7  93419454.47246  22813970.100    22813969.300          44.500
        39.000
 110168334.778 8  85845498.01447  20964324.520    20964326.520          49.500
        47.750
 124014761.166 6  96634863.28145  23599226.200    23599225.880          40.500
        34.750
 123127853.562 7  95943826.20046  23430429.240    23430429.300          43.500
        40.750
 106480137.238 8  82971569.27448  20262478.960    20262478.440          50.500
        51.000
 14  1 10  1 43  0.0000000  0  7G02G31G21G25G14G12G29
 128041012.440 6  99772203.08246  24365393.760    24365391.420          40.250
        37.250
 111731775.389 8  87063723.52947  21261848.880    21261847.500          49.750
        47.500
 119805503.750 7  93354960.50046  22798219.900    22798219.300          44.000
        39.250
 110198182.528 8  85868755.99747  20970004.360    20970006.340          49.500
        47.750
 124099042.056 6  96700536.61745  23615264.340    23615264.220          40.750
        34.750
 123198925.160 7  95999206.62946  23443953.680    23443953.820          43.250
        40.500
 106509466.452 8  82994423.20948  20268060.120    20268059.620          50.500
        50.750
 14  1 10  1 43 30.0000000  0  7G02G31G21G25G14G12G29
 128115020.930 6  99829872.03046  24379477.200    24379475.240          41.000
        36.500
 111682615.951 8  87025417.46747  21252494.140    21252492.740          50.000
        47.500
 119722962.947 7  93290642.98546  22782512.840    22782512.400          43.750
        40.000
 110228277.607 8  85892206.69347  20975731.280    20975733.260          49.750
        47.500
 124183461.234 6  96766317.76845  23631328.800    23631328.820          40.750
        33.750
 123270119.684 7  96054682.84946  23457501.500    23457501.680          43.250
        40.250
 106539166.226 8  83017565.88848  20273711.840    20273711.340          50.500
        50.750
 14  1 10  1 44  0.0000000  0  7G02G31G21G25G14G12G29
 128189352.233 6  99887792.50645  24393622.040    24393620.140          41.250
        35.250
 111633905.598 8  86987461.34447  21243224.880    21243223.400          49.750
        47.500
 119640651.934 7  93226504.55046  22766849.540    22766849.160          44.250
        40.500
 110258620.725 8  85915850.67347  20981505.400    20981507.420          49.500
        47.500
 124268016.050 6  96832204.55846  23647419.200    23647419.220          41.500
        36.000
 123341437.670 7  96110255.27546  23471072.880    23471073.020          44.250
        39.000
 106569235.271 8  83040996.30948  20279433.820    20279433.380          50.500
        51.000
 14  1 10  1 44 30.0000000  0  7G02G31G21G25G14G12G29
 128264003.149 6  99945962.05345  24407827.760    24407825.500          41.250
        34.500
 111585645.372 8  86949855.97147  21234041.240    21234039.780          49.750
        47.750
 119558571.648 7  93162545.90246  22751230.140    22751229.780          44.000
        40.500
 110289211.406 8  85939687.55148  20987326.680    20987328.620          49.750
        48.250
 124352702.476 6  96898193.90145  23663534.620    23663534.620          39.750
        34.500
 123412877.970 7  96165923.04346  23484667.600    23484667.740          45.000
        39.500
 106599671.233 8  83064712.63648  20285225.620    20285225.180          50.500
        50.750
 14  1 10  1 45  0.0000000  0  7G02G31G21G25G14G12G29
 128338972.013 6 100004379.37145  24422094.080    24422091.100          41.000
        34.500
 111537837.629 8  86912603.18747  21224943.660    21224942.280          49.750
        47.750
 119476724.592 7  93098768.96746  22735655.200    22735654.780          44.500
        39.250
 110320050.282 8  85963717.84047  20993195.200    20993197.060          50.000
        47.250
 124437517.466 6  96964283.43245  23679674.520    23679674.360          40.500
        35.500
 123484441.148 7  96221686.52846  23498285.780    23498285.880          44.750
        39.250
 106630472.593 8  83088713.69748  20291086.940    20291086.480          50.500
        50.750
 14  1 10  1 45 30.0000000  0  7G02G31G21G25G14G12G29
 128414258.105 6 100063043.90545  24436420.620    24436417.120          39.500
        34.000
 111490485.335 8  86875705.29547  21215932.760    21215931.420          50.000
        47.750
 119395114.850 7  93035176.97946  22720125.420    22720124.920          44.000
        39.750
 110351138.867 8  85987942.70748  20999111.260    20999113.040          49.750
        48.000
 124522459.331 6  97030471.82945  23695838.660    23695838.320          40.500
        34.000
 123556128.182 7  96277546.55046  23511927.320    23511927.500          44.000
        39.500
 106661638.916 8  83112999.14148  20297017.700    20297017.220          50.500
        50.750
 14  1 10  1 46  0.0000000  0  7G02G31G21G25G14G12G29
 128489861.662 6 100121955.74345  24450807.320    24450803.840          37.750
        34.000
 111443593.111 8  86839165.89247  21207009.480    21207008.160          50.000
        47.750
 119313747.192 7  92971773.60946  22704641.760    22704641.140          44.500
        39.500
 110382480.062 8  86012364.40347  21005075.300    21005077.100          49.500
        47.500
 124607527.291 6  97096758.45445  23712026.620    23712026.380          40.000
        35.000
 123627941.736 7  96333505.15246  23525592.940    23525593.260          44.250
        37.500
 106693171.013 8  83137569.60448  20303018.080    20303017.580          50.500
        50.750
 14  1 10  1 46 30.0000000  0  7G02G31G21G25G14G12G29
 128565775.944 6 100181109.71744  24465253.100    24465249.960          38.250
        29.500
 111397158.396 8  86802983.00147  21198173.240    21198171.960          49.750
        47.750
 119232618.993 7  92908556.84546  22689203.740    22689202.960          45.500
        39.000
 110414069.667 8  86036979.66747  21011086.560    21011088.460          49.500
        47.750
 124692713.728 6  97163137.38845  23728236.980    23728236.860          40.000
        33.750
 123699877.822 7  96389559.23446  23539281.840    23539282.160          43.000
        37.000
 106725061.939 8  83162419.67248  20309086.720    20309086.280          50.500
        50.750
 14  1 10  1 47  0.0000000  0  7G02G31G21G25G14G12G29
 128641997.926 6 100240503.47345  24479757.680    24479755.060          40.250
        35.500
 111351182.267 8  86767157.43948  21189424.300    21189423.020          50.000
        48.000
 119151731.826 7  92845527.89046  22673811.620    22673810.660          45.250
        39.000
 110445907.042 8  86061788.00747  21017144.960    21017146.940          49.500
        47.750
 124778014.586 6  97229605.51745  23744469.040    23744468.920          41.000
        33.500
 123771935.052 7  96445707.71546  23552993.800    23552994.180          43.500
        37.500
 106757310.384 8  83187548.32448  20315223.400    20315223.040          50.500
        50.750
 14  1 10  1 47 30.0000000  0  7G02G31G21G25G14G12G29
 128718523.981 6 100300134.14745  24494320.420    24494318.240          41.250
        35.000
 111305664.647 8  86731689.16647  21180762.620    21180761.300          50.000
        47.750
 119071086.255 7  92782687.19946  22658465.400    22658464.400          45.500
        39.250
 110477991.077 8  86086788.54047  21023250.280    21023252.360          49.500
        47.500
 124863425.087 6  97296159.06645  23760722.340    23760721.920          41.250
        32.000
 123844111.956 7  96501949.45046  23566728.760    23566728.880          43.500
        37.750
 106789912.443 8  83212952.52648  20321427.340    20321427.040          50.250
        50.750
 14  1 10  1 48  0.0000000  0  7G02G31G21G25G14G12G29
 128795358.440 6 100360005.15445  24508941.660    24508939.960          40.500
        33.750
 111260614.124 8  86696584.85748  21172189.860    21172188.460          50.250
        48.000
 118990691.296 7  92720041.79746  22643166.800    22643165.780          45.500
        39.250
 110510328.424 8  86111986.46347  21029403.820    21029405.960          49.250
        47.500
 124948948.522 6  97362800.59345  23776997.240    23776996.640          40.250
        33.500
 123916415.061 7  96558289.52046  23580487.820    23580487.760          43.000
        39.250
 106822872.666 8  83238635.81948  20327699.420    20327699.160          50.500
        50.750
 14  1 10  1 48 30.0000000  0  7G02G31G21G25G14G12G29
 128872500.385 6 100420115.77945  24523621.160    24523619.980          40.500
        34.250
 111216033.866 8  86661846.99148  21163706.540    21163705.160          50.000
        48.250
 118910550.297 7  92657594.26846  22627916.500    22627915.520          45.000
        39.750
 110542920.617 8  86137382.97447  21035605.860    21035608.020          49.500
        47.250
 125034583.066 6  97429528.71645  23793293.200    23793292.440          40.000
        31.750
 123988845.399 7  96614728.70546  23594270.780    23594270.700          42.250
        37.250
 106856190.011 8  83264597.38748  20334039.520    20334039.200          50.500
        50.500
 14  1 10  1 49  0.0000000  0  7G02G31G21G25G14G12G29
 128949941.271 6 100480459.32845  24538357.520    24538356.460          40.750
        34.000
 111171919.362 8  86627472.04948  21155311.840    21155310.480          50.000
        48.000
 118830659.217 7  92595341.48446  22612713.580    22612712.740          44.500
        40.250
 110575761.753 8  86162973.46247  21041855.320    21041857.500          49.500
        47.500
 125120319.480 6  97496336.18845  23809608.440    23809607.620          39.750
        32.000
 124061396.729 7  96671262.19646  23608076.820    23608076.520          42.500
        37.000
 106889857.492 8  83290831.78548  20340446.240    20340445.820          50.500
        50.500
 14  1 10  1 49 30.0000000  0  7G02G31G21G25G14G12G29
 129027681.425 6 100541036.10445  24553150.920    24553149.660          41.250
        33.500
 111128274.842 8  86593463.32448  21147006.580    21147005.120          50.250
        48.000
 118751022.539 7  92533286.92646  22597559.060    22597558.400          44.750
        40.500
 110608854.601 8  86188760.08047  21048152.680    21048154.860          49.500
        47.500
 125206157.102 6  97563222.54045  23825942.840    23825942.140          40.000
        34.500
 124134071.462 6  96727891.85546  23621906.160    23621906.020          40.750
        37.750
 106923875.339 8  83317339.19648  20346919.620    20346919.140          50.250
        50.500
 14  1 10  1 50  0.0000000  0  7G02G31G21G25G14G12G29
 129105720.452 6 100601845.76445  24568001.280    24567999.460          40.750
        33.500
 111085104.179 8  86559823.84448  21138791.480    21138790.000          50.250
        48.000
 118671644.566 7  92471433.97246  22582453.760    22582453.240          44.250
        40.000
 110642201.401 8  86214744.59747  21054498.380    21054500.540          49.250
        47.500
 125292094.340 6  97630186.52345  23842295.980    23842295.620          39.750
        34.500
 124206871.573 6  96784619.18546  23635759.080    23635759.500          40.000
        37.750
 106958243.294 8  83344119.41148  20353459.560    20353459.140          50.250
        50.500
 14  1 10  1 50 30.0000000  0  7G02G31G21G25G14G12G29
 129184051.942 6 100662883.30645  24582907.440    24582904.920          41.500
        32.000
 111042404.730 8  86526551.54848  21130666.080    21130664.620          50.250
        48.500
 118592523.007 7  92409780.80746  22567397.320    22567396.820          44.500
        41.250
 110675798.004 8  86240923.75647  21060891.640    21060893.760          49.500
        47.250
 125378123.887 6  97697222.42146  23858666.660    23858666.540          38.750
        37.500
 124279792.563 6  96841440.68746  23649635.240    23649635.920          41.500
        37.500
 106992955.097 8  83371167.57148  20360064.980    20360064.560          50.250
        50.250
 14  1 10  1 51  0.0000000  0  7G02G31G21G25G14G12G29
 129262674.133 6 100724147.39645  24597869.060    24597865.980          40.750
        34.750
 111000178.544 8  86493648.02548  21122630.740    21122629.280          50.500
        48.000
 118513660.819 7  92348329.76846  22552390.280    22552389.760          45.250
        39.750
 110709645.172 8  86267298.15747  21067332.520    21067334.740          49.500
        47.500
 125464242.659 6  97764327.87445  23875054.420    23875054.560          39.500
        33.250
 124352835.155 7  96898356.99046  23663535.020    23663535.440          42.250
        37.250
 107028010.561 8  83398483.51548  20366735.820    20366735.480          50.250
        50.500
 14  1 10  1 51 30.0000000  0  7G02G31G21G25G14G12G29
 129341589.014 6 100785639.50645  24612886.300    24612882.880          39.750
        33.750
 110958431.668 8  86461117.98148  21114686.560    21114685.020          50.250
        48.250
 118435064.096 7  92287085.57946  22537433.900    22537433.240          45.500
        40.000
 110743747.183 8  86293871.13747  21073821.880    21073824.160          49.250
        47.500
 125550451.742 6  97831503.64845  23891459.380    23891459.840          39.000
        34.000
 124426003.050 6  96955370.88746  23677458.720    23677458.700          41.250
        37.750
 107063411.363 8  83426068.54548  20373472.340    20373472.040          50.250
        50.250
 14  1 10  1 52  0.0000000  0  7G02G31G21G25G14G12G29
 129420794.905 6 100847362.17945  24627958.140    24627955.940          39.250
        34.000
 110917167.526 8  86428964.10048  21106834.220    21106832.740          50.000
        48.500
 118356736.815 7  92226051.33846  22522528.820    22522528.040          45.500
        40.250
 110778106.132 8  86320644.33147  21080360.180    21080362.420          49.500
        47.500
 125636749.879 6  97898748.83745  23907881.400    23907882.340          40.000
        32.000
 124499298.125 6  97012483.88546  23691406.580    23691406.320          41.750
        37.750
 107099157.244 8  83453922.48448  20380274.580    20380274.200          50.250
        50.250
 14  1 10  1 52 30.0000000  0  7G02G31G21G25G14G12G29
 129500283.730 6 100909301.55445  24643084.400    24643082.320          38.750
        34.500
 110876380.469 8  86397181.97348  21099072.660    21099071.220          50.500
        48.250
 118278673.395 7  92165222.71946  22507673.900    22507673.020          45.750
        40.250
 110812714.624 8  86347611.98347  21086946.060    21086948.180          49.500
        47.250
 125723126.317 6  97966055.03745  23924318.360    23924319.440          39.250
        31.500
 124572712.476 6  97069689.88346  23705377.120    23705376.740          41.750
        37.750
 107135238.753 8  83482037.94648  20387140.680    20387140.240          50.250
        50.250
 14  1 10  1 53  0.0000000  0  7G02G31G21G25G14G12G29
 129580057.854 6 100971463.22145  24658265.000    24658262.780          39.250
        35.000
 110836077.121 8  86365776.76448  21091403.220    21091401.780          50.250
        48.500
 118200881.441 7  92104605.61046  22492870.680    22492869.680          45.750
        40.000
 110847578.402 8  86374778.55347  21093580.540    21093582.540          49.500
        47.250
 125809583.356 6  98033424.06045  23940770.660    23940771.900          39.750
        34.750
 124646251.484 6  97126993.00146  23719371.080    23719370.840          40.750
        36.500
 107171659.583 8  83510417.80448  20394071.360    20394070.880          50.250
        50.250
 14  1 10  1 53 30.0000000  0  7G02G31G21G25G14G12G29
 129660113.976 6 101033844.62745  24673499.220    24673497.120          39.500
        30.500
 110796258.223 8  86334749.04648  21083825.960    21083824.500          50.250
        48.250
 118123362.261 7  92044201.05946  22478119.360    22478118.260          45.500
        40.500
 110882696.638 8  86402143.40847  21100263.400    21100265.360          49.500
        47.500
 125896116.475 6  98100852.35045  23957237.520    23957238.980          39.750
        30.500
 124719914.278 6  97184392.56046  23733388.500    23733388.280          41.250
        37.500
 107208416.265 8  83539059.37248  20401065.980    20401065.440          50.250
        50.250
 14  1 10  1 54  0.0000000  0  7G02G31G21G25G14G12G29
 129740448.733 6 101096443.15845  24688786.480    24688784.320          39.500
        34.000
 110756924.033 8  86304099.03248  21076340.880    21076339.480          50.250
        48.500
 118046116.243 7  91984009.36846  22463419.880    22463418.740          45.750
        39.750
 110918068.137 8  86429705.60547  21106994.360    21106996.320          49.250
        47.500
 125982721.180 6  98168336.37245  23973718.040    23973719.360          39.250
        32.750
 124793699.140 7  97241887.24346  23747429.240    23747429.140          42.000
        38.250
 107245506.487 8  83567960.84148  20408123.980    20408123.480          50.250
        50.000
 14  1 10  1 54 30.0000000  0  7G02G31G21G25G14G12G29
 129821060.859 6 101159257.82445  24704126.400    24704124.140          39.750
        30.750
 110718077.615 8  86273829.09448  21068948.620    21068947.280          50.000
        48.500
 117969146.719 7  91924033.11646  22448772.980    22448771.860          45.750
        40.000
 110953694.424 8  86457466.34647  21113773.820    21113775.860          49.500
        47.500
 126069395.743 6  98235874.83945  23990211.920    23990212.740          40.250
        33.250
 124867607.044 7  97299477.81046  23761493.520    23761493.420          42.000
        38.750
 107282929.386 8  83597121.53648  20415245.320    20415244.860          50.250
        50.250
 14  1 10  1 55  0.0000000  0  7G02G31G21G25G14G12G29
 129901950.695 6 101222288.89145  24719519.020    24719516.920          39.750
        34.500
 110679722.882 8  86243942.28548  21061649.920    21061648.560          50.250
        48.250
 117892458.523 7  91864276.09246  22434179.620    22434178.620          45.000
        41.750
 110989578.129 8  86485427.66047  21120602.300    21120604.380          49.500
        47.250
 126156139.182 6  98303467.02745  24006718.920    24006719.140          40.000
        35.750
 124941640.751 6  97357166.37446  23775581.620    23775581.720          41.500
        36.250
 107320685.442 8  83626541.83748  20422430.080    20422429.640          50.250
        50.250
 14  1 10  1 55 30.0000000  0  7G02G31G21G25G14G12G29
 129983112.466 6 101285531.88145  24734963.340    24734961.400          39.750
        32.500
 110641858.911 8  86214437.88448  21054444.640    21054443.200          50.000
        48.250
 117816050.352 7  91804737.25746  22419639.540    22419638.620          45.750
        40.750
 111025716.506 8  86513587.42447  21127479.240    21127481.280          49.500
        47.250
 126242945.521 6  98371108.17845  24023237.780    24023237.800          40.500
        30.500
 125015797.006 7  97414950.47046  23789693.180    23789692.880          42.250
        36.250
 107358769.401 8  83656217.64848  20429677.240    20429676.800          50.250
        50.000
 14  1 10  1 56  0.0000000  0  7G02G31G21G25G14G12G29
 130064545.292 6 101348986.05844  24750459.340    24750457.380          39.750
        28.500
 110604487.827 8  86185317.56248  21047333.140    21047331.680          50.000
        48.250
 117739925.443 7  91745419.15746  22405153.420    22405152.520          45.750
        40.500
 111062110.950 8  86541946.72747  21134404.880    21134406.880          49.500
        47.500
 126329812.665 6  98438796.71345  24039768.040    24039768.100          38.750
        35.250
 125090076.932 7  97472830.92246  23803828.380    23803827.720          42.500
        36.500
 107397180.920 8  83686148.69548  20436986.660    20436986.280          50.000
        50.250
 14  1 10  1 56 30.0000000  0  6G31G21G25G14G12G29
 110567609.530 8  86156581.22548  21040315.380    21040313.940          50.000
        48.750
 117664084.537 7  91686322.35546  22390721.400    22390720.460          46.000
        41.000
 111098759.928 8  86570504.36047  21141378.960    21141381.040          49.500
        47.500
 126416735.868 6  98506528.93345  24056309.100    24056309.460          39.500
        34.000
 125164478.455 6  97530806.10646  23817986.680    23817985.820          41.750
        36.250
 107435916.882 8  83716332.55848  20444357.880    20444357.480          50.000
        50.250
 14  1 10  1 57  0.0000000  0  6G31G21G25G14G12G29
 110531233.381 8  86128236.18048  21033393.160    21033391.880          50.000
        49.000
 117588537.141 7  91627454.25246  22376345.240    22376344.280          45.750
        41.000
 111135671.376 8  86599266.51947  21148402.920    21148405.080          49.250
        47.000
 126503719.585 6  98574308.27345  24072861.800    24072862.140          38.500
        33.250
 125239009.353 7  97588882.13145  23832169.380    23832168.500          42.000
        34.750
 107474982.671 8  83746773.42848  20451791.860    20451791.420          50.250
        50.000
 14  1 10  1 57 30.0000000  0  6G31G21G25G14G12G29
 110495351.846 8  86100276.54348  21026565.120    21026563.960          50.000
        48.750
 117513276.478 7  91568809.60046  22362023.640    22362022.740          46.000
        40.750
 111172836.416 8  86628226.28047  21155475.140    21155477.300          49.250
        47.000
 126590751.486 6  98642125.21545  24089423.480    24089423.940          39.000
        32.000
 125313660.561 6  97647051.88546  23846375.040    23846374.080          41.500
        36.250
 107514366.911 8  83777462.44448  20459286.440    20459285.920          50.250
        50.000
 14  1 10  1 58  0.0000000  0  6G31G21G25G14G12G29
 110459970.439 8  86072706.61348  21019832.240    21019831.140          49.750
        48.500
 117438308.071 7  91510392.66446  22347757.680    22347756.760          46.500
        40.750
 111210259.005 8  86657386.73647  21162596.360    21162598.540          49.250
        47.500
 126677832.326 6  98709980.22145  24105994.280    24105994.960          38.500
        35.000
 125388435.504 6  97705318.06646  23860604.220    23860603.360          41.250
        37.000
 107554071.857 8  83808401.36248  20466842.060    20466841.460          50.250
        50.250
 14  1 10  1 58 30.0000000  0  6G31G21G25G14G12G29
 110425088.034 8  86045525.51448  21013194.280    21013193.240          49.750
        48.750
 117363631.426 7  91452203.06846  22333547.220    22333546.280          46.000
        41.750
 111247936.916 8  86686746.12447  21169766.180    21169768.340          49.250
        47.000
 126764956.169 6  98777868.77645  24122573.480    24122574.140          38.750
        35.000
 125463331.494 6  97763678.56946  23874856.360    23874855.840          41.000
        37.000
 107594093.153 8  83839586.78648  20474457.880    20474457.340          50.250
        50.000
 14  1 10  1 59  0.0000000  0  6G31G21G25G14G12G29
 110390708.609 8  86018736.35448  21006652.060    21006651.000          50.000
        48.500
 117289251.460 7  91394244.66146  22319393.160    22319392.280          46.000
        41.750
 111285873.075 8  86716306.74747  21176985.200    21176987.280          49.250
        47.000
 126852122.732 6  98845790.59844  24139160.900    24139161.520          40.250
        26.000
 125538351.095 6  97822135.36046  23889132.000    23889131.960          41.000
        37.250
 107634431.932 8  83871019.59948  20482134.140    20482133.680          50.250
        50.000
 14  1 10  1 59 30.0000000  0  6G31G21G25G14G12G29
 110356832.614 8  85992339.47748  21000205.660    21000204.600          50.000
        48.750
 117215169.041 7  91336518.10546  22305295.740    22305294.840          46.250
        40.750
 111324066.499 8  86746067.84447  21184253.260    21184255.200          49.250
        46.750
 126939327.836 6  98913742.46545  24155755.740    24155756.140          39.750
        33.750
 125613493.562 6  97880687.91445  23903430.980    23903431.220          41.000
        34.250
 107675084.677 8  83902697.05648  20489870.180    20489869.740          50.250
        50.000
 14  1 10  2  0  0.0000000  0  6G31G21G25G14G12G29
 110323461.024 8  85966335.64248  20993855.280    20993854.240          50.000
        48.500
 117141385.342 7  91279024.31646  22291255.160    22291254.240          46.000
        41.250
 111362516.737 8  86776029.05647  21191570.180    21191572.040          49.500
        46.750
 127026567.807 6  98981721.52446  24172357.040    24172357.640          38.750
        36.500
 125688757.518 7  97939335.14146  23917753.320    23917753.540          42.250
        37.500
 107716049.252 8  83934617.49648  20497665.560    20497665.040          50.250
        49.750
 14  1 10  2  0 30.0000000  0  6G31G21G25G14G12G29
 110290595.238 8  85940725.93548  20987601.180    20987600.100          50.000
        48.500
 117067902.784 7  91221765.18446  22277271.860    22277270.880          46.250
        41.250
 111401224.112 8  86806190.62047  21198936.000    21198937.900          49.250
        47.000
 127113839.261 6  99049725.06445  24188964.480    24188965.360          38.750
        30.500
 125764142.657 7  97998076.77946  23932098.840    23932098.640          42.250
        36.750
 107757323.969 8  83966779.60748  20505519.900    20505519.280          50.000
        49.750
 14  1 10  2  1  0.0000000  0  6G31G21G25G14G12G29
 110258242.329 8  85915515.87448  20981444.700    20981443.480          49.750
        48.750
 116994728.940 7  91164746.62146  22263347.320    22263346.320          46.500
        41.750
 111440194.575 8  86836557.19847  21206351.840    21206353.760          49.250
        47.000
 127201145.246 6  99117755.49545  24205578.300    24205579.300          38.750
        30.500
 125839655.273 6  98056917.75645  23946468.600    23946468.120          41.250
        35.500
 107798912.349 8  83999186.12748  20513433.860    20513433.160          50.000
        49.750
 14  1 10  2  1 30.0000000  0  6G31G21G25G14G12G29
 110226398.432 8  85890702.45048  20975385.040    20975383.740          50.000
        48.750
 116921860.348 7  91107965.90847  22249480.860    22249479.900          46.250
        42.500
 111479422.823 8  86867124.66347  21213816.740    21213818.720          49.250
        46.750
 127288476.794 6  99185805.93745  24222197.120    24222198.020          38.000
        31.000
 125915289.684 6  98115853.67446  23960861.380    23960860.960          39.750
        36.000
 107840807.029 8  84031831.32048  20521406.080    20521405.420          50.000
        49.750
 14  1 10  2  2  0.0000000  0  6G31G21G25G14G12G29
 110195067.406 8  85866288.65148  20969423.020    20969421.680          50.000
        48.750
 116849301.375 7  91051426.45246  22235673.340    22235672.420          46.750
        41.750
 111518911.774 8  86897895.25847  21221331.240    21221333.320          49.250
        47.000
 127375833.450 6  99253875.85245  24238820.760    24238821.380          38.750
        34.750
 125991048.233 6  98174886.29346  23975277.600    23975277.400          39.250
        37.000
 107883008.744 8  84064715.76148  20529436.760    20529436.120          50.000
        49.500
 14  1 10  2  2 30.0000000  0  6G31G21G25G14G12G29
 110164249.587 8  85842274.76848  20963558.620    20963557.280          50.000
        49.000
 116777052.966 7  90995128.99947  22221924.940    22221924.080          46.250
        42.250
 111558660.269 8  86928868.10047  21228895.140    21228897.340          49.000
        47.000
 127463211.211 6  99321962.21845  24255448.400    24255448.760          39.000
        33.250
 126066929.681 6  98234014.66746  23989717.180    23989717.220          38.500
        36.750
 107925514.522 8  84097837.14848  20537525.340    20537524.700          50.000
        49.500
 14  1 10  2  3  0.0000000  0  6G31G21G25G14G12G29
 110133947.121 8  85818662.45348  20957792.320    20957790.920          50.250
        48.500
 116705118.241 7  90939075.97747  22208236.260    22208235.440          46.250
        42.250
 111598669.592 8  86960044.17347  21236508.640    21236510.860          49.000
        46.750
 127550607.769 6  99390063.22745  24272079.620    24272079.720          38.500
        30.250
 126142934.578 6  98293239.27146  24004180.280    24004180.620          39.500
        37.000
 107968323.672 8  84131194.92048  20545671.600    20545671.080          49.750
        49.750
 14  1 10  2  3 30.0000000  0  6G31G21G25G14G12G29
 110104161.152 8  85795452.60548  20952124.260    20952122.840          50.000
        48.750
 116633498.761 7  90883268.59646  22194607.580    22194606.800          46.750
        41.750
 111638939.617 8  86991423.39147  21244171.820    21244173.940          49.000
        46.500
 127638019.708 6  99458176.26345  24288713.640    24288713.740          39.250
        32.750
 126219062.769 6  98352559.89046  24018667.000    24018667.380          38.500
        36.750
 108011433.479 8  84164786.96748  20553875.080    20553874.720          49.750
        50.000
 14  1 10  2  4  0.0000000  0  6G31G21G25G14G12G29
 110074889.777 8  85772643.74148  20946554.080    20946552.660          50.000
        48.750
 116562192.609 7  90827705.35946  22181038.580    22181037.680          47.000
        41.250
 111679467.204 8  87023003.32247  21251884.000    21251886.000          49.000
        46.500
 127725440.552 6  99526296.24645  24305349.440    24305349.760          39.250
        31.750
 126295310.654 6  98411973.82046  24033176.680    24033176.920          39.750
        36.250
 108054839.481 8  84198609.82548  20562134.920    20562134.660          49.750
        49.500
 14  1 10  2  4 30.0000000  0  6G31G21G25G14G12G29
 110046138.280 8  85750239.97148  20941082.820    20941081.400          50.000
        48.750
 116491206.276 7  90772391.34946  22167530.440    22167529.420          47.000
        41.750
 111720256.593 8  87054787.24447  21259645.960    21259647.860          49.250
        46.500
 127812871.468 6  99594423.98045  24321987.200    24321987.800          39.750
        33.500
 126371682.397 6  98471484.25645  24047709.960    24047709.900          39.750
        34.750
 108098543.677 8  84232665.03748  20570451.540    20570451.320          50.000
        49.500
 14  1 10  2  5  0.0000000  0  6G31G21G25G14G12G29
 110017905.468 8  85728240.36948  20935710.300    20935708.900          50.250
        49.000
 116420539.071 7  90717326.00147  22154083.060    22154081.880          47.000
        42.000
 111761305.304 8  87086773.22847  21267457.280    21267459.160          49.250
        46.750
 127900306.661 6  99662555.10445  24338625.940    24338626.820          39.250
        33.250
 126448174.911 6  98531088.80746  24062266.400    24062265.720          40.000
        36.750
 108142541.307 8  84266948.90248  20578824.060    20578823.800          50.000
        49.500
 14  1 10  2  5 30.0000000  0  6G31G21G25G14G12G29
 109990194.544 8  85706647.44148  20930437.100    20930435.780          50.250
        49.000
 116350194.499 7  90662512.05546  22140696.980    22140695.640          47.000
        41.750
 111802615.713 8  87118963.14147  21275318.420    21275320.240          49.000
        46.500
 127987745.162 6  99730688.81745  24355265.300    24355266.160          38.750
        30.750
 126524789.779 6  98590788.72246  24076845.920    24076844.900          40.000
        36.250
 108186832.611 8  84301461.60148  20587252.480    20587252.220          49.750
        49.750
 14  1 10  2  6  0.0000000  0  6G31G21G25G14G12G29
 109963009.685 8  85685464.42748  20925264.040    20925262.640          50.250
        48.750
 116280178.359 7  90607954.02947  22127373.320    22127371.840          46.750
        42.500
 111844190.900 8  87151359.38247  21283229.940    21283231.760          49.000
        46.750
 128075186.987 6  99798825.06044  24371905.120    24371906.020          37.750
        29.250
 126601530.570 6  98650586.70645  24091449.200    24091448.420          38.250
        34.500
 108231418.555 8  84336203.88848  20595736.940    20595736.680          50.000
        49.500
 14  1 10  2  6 30.0000000  0  6G31G21G25G14G12G29
 109936352.627 8  85664692.69148  20920191.360    20920189.980          50.250
        49.000
 116210492.636 7  90553653.47347  22114112.480    22114110.960          46.500
        42.750
 111886031.574 8  87183962.49747  21291191.980    21291193.800          49.250
        46.500
 128162629.466 6  99866961.85645  24388544.860    24388545.860          38.500
        32.500
 126678396.767 6  98710482.45545  24106076.180    24106075.680          37.500
        34.500
 108276298.239 8  84371175.07748  20604277.320    20604277.000          49.750
        49.500
 14  1 10  2  7  0.0000000  0  6G31G21G25G14G12G29
 109910219.081 8  85644328.88748  20915218.300    20915216.880          50.250
        49.000
 116141133.410 7  90499607.32647  22100913.740    22100912.240          46.750
        42.500
 111928132.122 8  87216768.10247  21299203.460    21299205.300          49.000
        46.250
 128250063.560 6  99935092.14845  24405183.000    24405184.060          38.000
        31.500
 126755383.152 6  98770471.80746  24120725.900    24120726.080          37.500
        36.000
 108321463.564 8  84406368.82848  20612872.020    20612871.720          49.750
        49.750
 14  1 10  2  7 30.0000000  0  6G31G21G25G14G12G29
 109884612.158 8  85624375.43048  20910345.480    20910344.060          50.250
        49.000
 116072104.396 7  90445818.48747  22087777.920    22087776.460          47.250
        42.750
 111970494.881 8  87249778.03047  21307264.820    21307266.700          49.000
        46.250
 128337488.706 6 100003215.42145  24421819.420    24421820.700          37.500
        33.500
 126832491.633 6  98830556.31545  24135398.980    24135399.400          37.750
        33.500
 108366915.107 8  84441785.60948  20621521.200    20621520.860          50.000
        49.500
 14  1 10  2  8  0.0000000  0  6G31G21G25G14G12G29
 109859535.005 8  85604834.79148  20905573.480    20905572.080          50.500
        49.000
 116003409.769 7  90392290.20747  22074705.800    22074704.320          47.250
        42.250
 112013122.076 8  87282994.00847  21315376.520    21315378.340          48.750
        46.500
 128424904.098 6 100071331.08545  24438453.880    24438455.560          36.000
        32.000
 126909723.991 6  98890737.34645  24150095.660    24150096.200          38.750
        32.750
 108412653.267 8  84477425.72648  20630224.980    20630224.560          50.000
        49.250
 14  1 10  2  8 30.0000000  0  6G31G21G25G14G12G29
 109834984.601 8  85585704.59848  20900901.720    20900900.300          50.250
        48.750
 115935046.949 7  90339020.48847  22061696.780    22061695.360          47.250
        42.500
 112056009.309 8  87316412.61647  21323537.640    21323539.540          49.000
        46.250
 128512301.762 6 100139432.98744  24455085.040    24455087.240          37.250
        29.500
 126987075.454 6  98951011.21345  24164815.220    24164815.400          38.750
        34.000
 108458671.426 8  84513284.02748  20638981.960    20638981.480          49.750
        49.250
 14  1 10  2  9  0.0000000  0  6G31G21G25G14G12G29
 109810964.867 8  85566987.92048  20896330.900    20896329.460          50.250
        49.250
 115867020.822 7  90286013.13147  22048751.860    22048750.560          47.250
        42.500
 112099159.758 8  87350036.32747  21331748.860    21331750.860          48.500
        46.500
 128599681.693 6 100207521.01245  24471712.880    24471715.540          37.250
        34.000
 127064549.088 6  99011380.29645  24179558.060    24179557.760          38.500
        33.750
 108504970.653 8  84549361.34748  20647792.380    20647791.920          49.750
        49.250
 14  1 10  2  9 30.0000000  0  6G31G21G25G14G12G29
 109787476.650 8  85548685.40348  20891861.280    20891859.820          50.500
        49.000
 115799332.347 7  90233268.87547  22035871.120    22035869.980          47.250
        42.500
 112142573.335 8  87383865.05947  21340010.140    21340012.180          48.750
        46.000
 128687040.706 6 100275592.75345  24488336.900    24488339.800          37.500
        30.000
 127142144.388 6  99071844.13945  24194324.040    24194323.500          39.000
        32.750
 108551548.852 8  84585656.04148  20656655.780    20656655.400          49.750
        49.250
 14  1 10  2 10  0.0000000  0  5G31G21G25G12G29
 109764521.872 8  85530798.55948  20887493.140    20887491.660          50.500
        49.000
 115731984.572 7  90180790.09347  22023055.200    22023054.180          47.500
        42.500
 112186250.704 8  87417899.35947  21348321.600    21348323.740          48.750
        46.000
 127219861.315 6  99132402.77345  24209113.140    24209112.540          39.000
        32.500
 108598404.398 8  84622166.86348  20665571.980    20665571.620          49.750
        49.000
 14  1 10  2 10 30.0000000  0  5G31G21G25G12G29
 109742108.481 8  85513333.57148  20883228.000    20883226.540          50.250
        49.000
 115664986.091 7  90128583.49347  22010305.660    22010304.820          47.000
        42.750
 112230198.978 8  87452144.75147  21356684.620    21356686.800          48.500
        46.250
 127297706.843 6  99193061.62245  24223926.540    24223926.160          37.750
        33.250
 108645542.773 8  84658898.05848  20674542.060    20674541.720          49.500
        49.000
 14  1 10  2 11  0.0000000  0  5G31G21G25G12G29
 109720227.735 8  85496283.63748  20879064.240    20879062.780          50.250
        49.250
 115598329.253 7  90076643.10247  21997621.180    21997620.400          47.000
        43.000
 112274409.014 8  87486594.13347  21365097.480    21365099.720          48.750
        46.000
 127375671.535 6  99253813.30145  24238762.540    24238762.760          37.000
        34.500
 108692953.215 8  84695841.25548  20683563.940    20683563.580          49.500
        49.000
 14  1 10  2 11 30.0000000  0  5G31G21G25G12G29
 109698885.249 8  85479653.12948  20875002.840    20875001.440          50.250
        49.250
 115532020.118 7  90024973.64547  21985002.900    21985002.120          47.250
        42.750
 112318885.119 8  87521250.82647  21373561.060    21373563.240          49.000
        46.000
 127453758.997 6  99314660.66045  24253621.900    24253622.640          38.500
        33.750
 108740637.433 8  84732997.79948  20692637.960    20692637.620          49.750
        49.250
 14  1 10  2 12  0.0000000  0  5G31G21G25G12G29
 109678075.083 8  85463437.40648  20871042.860    20871041.380          50.500
        49.000
 115466053.342 7  89973570.97647  21972449.820    21972449.000          47.500
        43.250
 112363620.256 8  87556109.36247  21382073.960    21382076.020          48.750
        46.000
 127531962.496 6  99375598.47846  24268503.500    24268504.500          38.000
        38.250
 108788586.599 8  84770360.78148  20701762.320    20701762.080          49.500
        49.250
 14  1 10  2 12 30.0000000  0  5G31G21G25G12G29
 109657800.552 8  85447639.06248  20867184.820    20867183.280          50.500
        49.000
 115400433.002 7  89922438.24947  21959962.720    21959961.760          47.500
        43.250
 112408617.157 8  87591171.86247  21390636.640    21390638.700          48.750
        46.000
 127610284.304 6  99436628.45245  24283407.720    24283408.740          38.500
        35.000
 108836801.119 8  84807930.54548  20710937.260    20710936.960          49.750
        48.750
 14  1 10  2 13  0.0000000  0  5G31G21G25G12G29
 109638067.316 8  85432262.51248  20863429.720    20863428.140          50.500
        49.000
 115335165.732 7  89871580.64947  21947542.800    21947541.720          47.500
        43.250
 112453880.451 8  87626441.93747  21399250.000    21399252.100          49.000
        46.250
 127688728.565 6  99497753.84245  24298335.380    24298336.240          39.500
        35.500
 108885283.747 8  84845709.21748  20720163.280    20720162.940          50.000
        49.000
 14  1 10  2 13 30.0000000  0  5G31G21G25G12G29
 109618877.143 8  85417309.12748  20859777.900    20859776.380          50.250
        49.250
 115270254.000 7  89821000.08247  21935190.540    21935189.420          47.500
        43.250
 112499411.166 8  87661920.39647  21407914.260    21407916.340          48.750
        46.000
 127767295.791 6  99558975.02645  24313286.480    24313286.980          39.500
        32.750
 108934034.520 8  84883696.82348  20729440.340    20729439.980          50.000
        49.000
 14  1 10  2 14  0.0000000  0  5G31G21G25G12G29
 109600228.259 8  85402777.53348  20856229.080    20856227.620          50.250
        49.250
 115205696.601 7  89770695.62847  21922905.640    21922904.600          47.250
        44.000
 112545206.583 8  87697605.12547  21416628.880    21416630.960          48.750
        46.250
 127845983.044 6  99620289.76545  24328260.400    24328260.660          39.000
        32.750
 108983047.721 8  84921888.92848  20738767.300    20738766.940          49.750
        49.000
 14  1 10  2 14 30.0000000  0  5G31G21G25G12G29
 109582126.433 8  85388672.20448  20852784.380    20852782.960          50.250
        49.250
 115141500.260 7  89720672.50747  21910689.440    21910688.480          47.500
        43.500
 112591271.693 8  87733499.99247  21425394.820    21425396.920          48.750
        46.250
 127924794.905 6  99681701.61545  24343257.720    24343257.740          39.250
        34.750
 109032326.611 8  84960288.06548  20748144.780    20748144.440          49.750
        49.000
 14  1 10  2 15  0.0000000  0  5G31G21G25G12G29
 109564564.732 8  85374987.75648  20849442.540    20849441.100          50.250
        49.250
 115077658.907 7  89670926.00647  21898540.820    21898539.860          47.500
        43.750
 112637598.980 8  87769599.15247  21434210.680    21434212.820          49.250
        46.000
 128003723.644 6  99743204.51446  24358277.440    24358277.320          38.750
        36.750
 109081861.742 8  84998886.86448  20757570.960    20757570.720          49.750
        49.000
 14  1 10  2 15 30.0000000  0  5G31G21G25G12G29
 109547554.569 8  85361733.08548  20846205.580    20846204.180          50.000
        49.250
 115014184.732 7  89621465.61847  21886462.100    21886461.080          47.500
        43.500
 112684198.997 8  87805910.83747  21443078.480    21443080.640          49.000
        46.500
 128082779.267 6  99804806.25645  24373321.100    24373320.980          38.250
        33.000
 109131661.918 8  85037692.18448  20767047.580    20767047.360          49.750
        48.750
 14  1 10  2 16  0.0000000  0  5G31G21G25G12G29
 109531084.576 8  85348899.31248  20843071.400    20843070.000          50.250
        49.000
 114951067.273 7  89572283.19547  21874451.200    21874450.220          47.750
        43.500
 112731059.444 8  87842425.44647  21451995.780    21451997.960          48.750
        46.250
 128161949.622 6  99866497.43744  24388386.680    24388386.700          37.500
        27.500
 109181712.812 8  85076692.87948  20776571.860    20776571.560          49.500
        48.750
 14  1 10  2 16 30.0000000  0  5G31G21G25G12G29
 109515163.789 8  85336493.50648  20840041.740    20840040.360          50.250
        49.250
 114888316.106 8  89523386.18047  21862510.080    21862509.000          48.000
        43.500
 112778188.780 8  87879149.59047  21460964.200    21460966.340          48.750
        45.750
 128241242.452 6  99928284.05045  24403475.560    24403475.760          38.500
        34.250
 109232020.733 8  85115893.85648  20786145.080    20786144.720          49.500
        48.750
 14  1 10  2 17  0.0000000  0  5G31G21G25G12G29
 109499785.808 8  85324510.65548  20837115.420    20837114.080          50.250
        49.250
 114825925.884 7  89474770.43347  21850637.620    21850636.480          47.500
        44.000
 112825579.835 8  87916077.66747  21469982.360    21469984.480          48.750
        46.000
 128320650.093 6  99990160.11945  24418586.440    24418586.560          37.750
        33.000
 109282576.408 8  85155287.88448  20795765.460    20795765.140          49.500
        48.750
 14  1 10  2 17 30.0000000  0  5G31G21G25G12G29
 109484959.821 8  85312957.93848  20834294.140    20834292.800          50.250
        49.000
 114763906.712 7  89426443.80947  21838835.760    21838834.640          47.750
        43.750
 112873241.034 8  87953216.24947  21479051.940    21479054.080          48.750
        46.000
 128400180.932 6 100052132.19145  24433720.760    24433720.620          36.750
        32.750
 109333386.839 8  85194880.43048  20805434.400    20805434.060          49.750
        48.500
 14  1 10  2 18  0.0000000  0  5G31G21G25G12G29
 109470685.166 8  85301834.83548  20831577.740    20831576.420          50.000
        49.000
 114702258.473 7  89378406.22447  21827104.480    21827103.460          47.750
        43.750
 112921170.909 8  87990564.18547  21488172.680    21488174.920          48.750
        46.000
 128479833.013 6 100114198.75645  24448878.040    24448877.720          37.000
        35.000
 109384448.912 8  85234669.05348  20815151.240    20815150.920          49.500
        48.750
 14  1 10  2 18 30.0000000  0  5G31G21G25G12G29
 109456961.843 8  85291141.33448  20828966.220    20828964.960          50.000
        49.250
 114640982.145 8  89330658.45447  21815444.000    21815443.020          48.000
        44.000
 112969369.036 8  88028121.14647  21497344.540    21497346.720          48.750
        46.000
 128559605.691 5 100176359.30145  24464058.300    24464057.420          35.500
        34.000
 109435759.811 8  85274651.56548  20824915.400    20824915.080          49.750
        48.500
 14  1 10  2 19  0.0000000  0  5G31G21G25G12G29
 109443791.332 8  85280878.58448  20826459.940    20826458.620          50.250
        49.000
 114580080.109 8  89283202.31947  21803854.800    21803853.740          48.250
        44.000
 113017836.039 8  88065887.63647  21506567.520    21506569.620          48.500
        45.750
 128639499.154 5 100238613.91344  24479261.420    24479260.620          35.750
        24.750
 109487317.979 8  85314826.75948  20834726.600    20834726.240          49.750
        48.500
 14  1 10  2 19 30.0000000  0  5G31G21G25G12G29
 109431166.716 8  85271041.22148  20824057.560    20824056.240          50.000
        49.250
 114519546.444 8  89236033.24147  21792335.680    21792334.520          48.000
        44.000
 113066564.335 8  88103857.73147  21515840.180    21515842.280          48.500
        45.750
 128719505.466 6 100300956.48544  24494486.240    24494485.560          36.750
        26.500
 109539114.525 8  85355187.69748  20844583.160    20844582.800          49.750
        48.500
 14  1 10  2 20  0.0000000  0  4G31G21G25G29
 109419015.413 8  85261572.67148  20821745.260    20821743.940          50.000
        49.000
 114459309.000 8  89189094.97747  21780872.900    21780871.720          48.000
        44.000
 113115480.885 8  88141974.50747  21525148.680    21525150.800          48.250
        45.750
 109591074.195 8  85395675.75248  20854470.840    20854470.340          49.750
        48.000
 14  1 10  2 20 30.0000000  0  4G31G21G25G29
 109407564.294 8  85252649.71348  20819566.200    20819564.940          50.000
        49.000
 114399595.898 8  89142565.29947  21769509.860    21769508.660          48.000
        44.250
 113164811.903 8  88180414.23447  21534536.040    21534538.200          48.500
        45.750
 109643421.713 8  85436466.02448  20864432.380    20864431.720          49.750
        48.500
 14  1 10  2 21  0.0000000  0  4G31G21G25G29
 109396600.519 8  85244106.51248  20817479.880    20817478.620          50.000
        49.250
 114340194.787 7  89096278.72047  21758206.180    21758204.960          47.750
        44.500
 113214343.862 8  88219010.55447  21543961.620    21543963.860          48.500
        45.250
 109695941.442 8  85477390.48048  20874426.600    20874426.000          49.500
        48.750
 14  1 10  2 21 30.0000000  0  4G31G21G25G29
 109386148.278 8  85235961.90448  20815490.920    20815489.620          50.000
        49.000
 114281131.686 8  89050255.53847  21746966.760    21746965.660          48.000
        44.250
 113264100.574 8  88257781.99547  21553430.040    21553432.200          48.500
        45.250
 109748655.467 8  85518466.33948  20884457.700    20884457.260          49.750
        48.750
 14  1 10  2 22  0.0000000  0  5G31G21G25G12G29
 109376362.190 8  85228336.37748  20813628.700    20813627.360          50.000
        49.000
 114222561.651 7  89004616.55247  21735821.220    21735820.180          47.750
        44.000
 113314236.033 8  88296848.55247  21562970.520    21562972.600          48.250
        45.250
 129121223.655 6 100613927.22745  24570951.660    24570949.740          36.500
        30.750
 109801715.466 8  85559811.79148  20894554.620    20894554.240          49.500
        48.000
 14  1 10  2 22 30.0000000  0  5G31G21G25G12G29
 109367066.936 8  85221093.31248  20811859.880    20811858.520          50.000
        49.000
 114164310.227 8  88959225.84047  21724736.360    21724735.300          48.000
        44.500
 113364574.167 8  88336073.03747  21572549.620    21572551.660          48.250
        45.250
 129201942.316 5 100676824.93845  24586312.100    24586310.980          34.500
        34.750
 109854943.733 8  85601288.36348  20904683.580    20904683.180          49.500
        48.250
 14  1 10  2 23  0.0000000  0  4G31G21G25G29
 109358325.487 8  85214281.78748  20810196.440    20810195.080          50.000
        49.000
 114106441.258 8  88914133.14847  21713724.300    21713723.200          48.000
        44.250
 113415177.550 8  88375504.23047  21582179.120    21582181.220          48.500
        45.250
 109908401.895 8  85642944.07148  20914856.360    20914855.920          49.500
        48.250
 14  1 10  2 23 30.0000000  0  4G31G21G25G29
 109350107.994 8  85207878.53948  20808632.740    20808631.360          50.000
        49.250
 114048925.815 7  88869315.93147  21702779.520    21702778.300          47.750
        44.750
 113466016.063 8  88415118.63247  21591853.340    21591855.540          48.250
        45.250
 109962057.300 8  85684753.47448  20925066.560    20925066.340          49.250
        48.500
 14  1 10  2 24  0.0000000  0  4G31G21G25G29
 109342478.759 8  85201933.67748  20807180.980    20807179.560          50.000
        49.000
 113991829.250 7  88824825.10247  21691914.400    21691913.180          47.750
        44.500
 113517153.105 8  88454965.66147  21601584.380    21601586.640          48.250
        45.250
 110015971.444 8  85726764.49548  20935325.960    20935325.900          49.250
        48.000
 14  1 10  2 24 30.0000000  0  4G31G21G25G29
 109335414.794 8  85196429.28248  20805836.800    20805835.400          50.000
        49.000
 113935129.451 7  88780643.44247  21681124.760    21681123.580          47.750
        44.500
 113568565.408 7  88495027.17947  21611367.820    21611370.060          47.750
        45.500
 110070119.250 8  85768957.59348  20945629.920    20945629.880          49.500
        48.000
 14  1 10  2 25  0.0000000  0  4G31G21G25G29
 109328929.946 8  85191376.14448  20804602.800    20804601.340          50.000
        48.750
 113878841.098 7  88736782.39247  21670413.440    21670412.280          47.750
        44.250
 113620266.234 8  88535313.52947  21621206.160    21621208.380          48.000
        45.500
 110124512.373 8  85811341.83848  20955980.560    20955980.540          49.250
        48.250
 14  1 10  2 25 30.0000000  0  4G31G21G25G29
 109322991.312 8  85186748.62848  20803472.700    20803471.240          50.000
        48.750
 113822931.956 8  88693216.83747  21659774.300    21659773.120          48.250
        44.750
 113672222.326 8  88575798.75847  21631093.080    21631095.320          48.250
        45.250
 110179115.828 8  85853889.98548  20966371.260    20966371.240          49.250
        48.000
 14  1 10  2 26  0.0000000  0  4G31G21G25G29
 109317599.538 8  85182547.23648  20802446.660    20802445.220          49.750
        48.750
 113767404.437 8  88649948.64247  21649207.780    21649206.600          48.250
        45.000
 113724434.177 8  88616483.28947  21641028.720    21641030.980          48.000
        44.750
 110233928.057 8  85896600.81147  20976801.680    20976801.680          49.500
        47.750
 14  1 10  2 26 30.0000000  0  4G31G21G25G29
 109312806.669 8  85178812.53348  20801534.580    20801533.180          50.000
        49.000
 113712311.672 8  88607019.22647  21638723.980    21638722.800          48.250
        44.750
 113776953.215 8  88657407.20047  21651022.780    21651024.960          48.000
        44.500
 110288999.134 8  85939513.34548  20987281.380    20987281.320          49.250
        48.000
 14  1 10  2 27  0.0000000  0  4G31G21G25G29
 109308571.925 8  85175512.72248  20800728.740    20800727.340          50.000
        49.000
 113657613.361 8  88564397.16747  21628315.280    21628313.960          48.250
        44.500
 113829738.167 7  88698538.32047  21661067.380    21661069.540          47.750
        45.250
 110344285.846 8  85982593.88747  20997802.140    20997801.980          49.500
        47.750
 14  1 10  2 27 30.0000000  0  4G31G21G25G29
 109304902.195 8  85172653.19248  20800030.400    20800029.040          50.000
        48.750
 113603317.615 8  88522088.80447  21617983.120    21617981.740          48.000
        45.000
 113882795.585 8  88739881.73247  21671163.880    21671166.140          48.000
        45.000
 110399792.810 8  86025846.06748  21008364.940    21008364.600          49.500
        48.000
 14  1 10  2 28  0.0000000  0  4G31G21G25G29
 109301784.230 8  85170223.60348  20799437.060    20799435.720          50.000
        49.000
 113549411.895 8  88480084.34847  21607725.220    21607723.720          48.250
        44.750
 113936111.791 8  88781426.80047  21681309.660    21681312.000          48.000
        45.000
 110455505.201 8  86069258.31747  21018966.840    21018966.260          49.750
        47.750
 14  1 10  2 28 30.0000000  0  4G31G21G25G29
 109299192.417 8  85168203.99048  20798943.900    20798942.480          50.000
        49.000
 113495871.985 8  88438364.95347  21597536.880    21597535.340          48.000
        45.250
 113989661.117 8  88823153.51947  21691499.840    21691502.120          48.250
        44.750
 110511395.415 8  86112809.12547  21029602.420    21029601.800          49.500
        47.750
 14  1 10  2 29  0.0000000  0  4G31G21G25G29
 109297173.643 8  85166630.91948  20798559.740    20798558.340          50.000
        49.000
 113442745.713 8  88396967.86547  21587427.280    21587425.780          48.500
        44.750
 114043490.048 8  88865098.12947  21701743.220    21701745.380          48.000
        44.500
 110567507.819 8  86156533.07447  21040280.200    21040279.580          49.250
        47.500
 14  1 10  2 29 30.0000000  0  4G31G21G25G29
 109295724.598 8  85165501.78048  20798283.980    20798282.660          50.000
        49.000
 113390030.723 8  88355891.25847  21577395.940    21577394.560          48.250
        45.500
 114097594.940 8  88907257.76047  21712039.100    21712041.160          48.000
        44.750
 110623837.143 8  86200426.05047  21050999.200    21050998.560          49.250
        47.500
 14  1 10  2 30  0.0000000  0  4G31G21G25G29
 109294851.288 8  85164821.27648  20798117.800    20798116.480          50.250
        48.750
 113337734.202 8  88315140.72547  21567444.180    21567442.940          48.000
        45.750
 114151981.459 7  88949636.82747  21722388.480    21722390.620          47.500
        45.000
 110680387.767 8  86244491.47247  21061760.320    21061759.760          49.250
        47.750
 14  1 10  2 30 30.0000000  0  4G31G21G25G29
 109294533.292 8  85164573.48348  20798057.340    20798055.960          50.000
        48.750
 113285836.439 8  88274700.90947  21557568.280    21557567.120          48.000
        45.000
 114206628.822 7  88992219.14947  21732787.480    21732789.740          47.750
        45.000
 110737137.229 8  86288711.83147  21072559.320    21072558.920          49.250
        47.500
 14  1 10  2 31  0.0000000  0  4G31G21G25G29
 109294795.227 8  85164777.57448  20798107.220    20798105.820          50.000
        49.000
 113234363.217 8  88234591.91947  21547773.220    21547772.040          48.250
        45.250
 114261561.752 7  89035024.00147  21743240.780    21743243.220          47.500
        44.750
 110794108.246 8  86333104.81947  21083400.540    21083400.260          49.500
        47.500
 14  1 10  2 31 30.0000000  0  4G31G21G25G29
 109295635.901 8  85165432.64048  20798267.140    20798265.800          50.000
        48.750
 113183315.011 8  88194814.10547  21538059.060    21538057.840          48.250
        45.250
 114316778.659 7  89078050.13347  21753748.160    21753750.680          47.500
        45.250
 110851297.549 8  86377667.90847  21094283.320    21094283.040          49.250
        47.500
 14  1 10  2 32  0.0000000  0  4G31G21G25G29
 109297010.198 8  85166503.51748  20798528.640    20798527.360          50.000
        49.000
 113132647.252 8  88155332.74247  21528417.300    21528416.040          48.250
        45.250
 114372233.918 7  89121262.01447  21764300.980    21764303.520          47.750
        44.500
 110908658.037 8  86422364.38547  21105198.740    21105198.360          49.500
        47.500
 14  1 10  2 32 30.0000000  0  4G31G21G25G29
 109298952.134 8  85168016.70948  20798898.140    20798896.940          49.750
        49.000
 113082395.206 8  88116175.31047  21518854.620    21518853.400          48.000
        45.250
 114427961.457 7  89164686.04347  21774905.720    21774908.140          47.750
        44.500
 110966222.295 8  86467219.64447  21116152.920    21116152.500          49.500
        47.500
 14  1 10  2 33  0.0000000  0  4G31G21G25G29
 109301468.368 8  85169977.40348  20799377.000    20799375.760          50.000
        48.750
 113032566.510 8  88077347.75947  21509372.500    21509371.360          48.250
        45.500
 114483967.880 7  89208327.38547  21785563.420    21785565.840          47.500
        44.250
 111023995.019 8  86512237.34147  21127146.760    21127146.380          49.250
        47.500
 14  1 10  2 33 30.0000000  0  4G31G21G25G29
 109304562.365 8  85172388.30448  20799965.800    20799964.520          50.000
        49.000
 112983165.976 8  88038853.84447  21499971.880    21499970.780          48.250
        45.500
 114540256.673 7  89252188.74347  21796274.720    21796277.300          47.250
        45.250
 111081978.161 8  86557419.01447  21138180.580    21138180.220          49.250
        47.500
 14  1 10  2 34  0.0000000  0  4G31G21G25G29
 109308210.920 8  85175231.32648  20800660.100    20800658.820          50.000
        49.000
 112934171.447 8  88000676.29347  21490648.520    21490647.400          48.250
        45.500
 114596804.351 7  89296251.84547  21807035.360    21807038.040          47.500
        44.000
 111140146.577 8  86602745.05547  21149249.640    21149249.260          49.000
        47.750
 14  1 10  2 34 30.0000000  0  4G31G21G25G29
 109312429.240 8  85178518.32848  20801462.780    20801461.540          50.000
        48.750
 112885599.311 8  87962827.88247  21481405.620    21481404.440          48.250
        45.500
 114653625.868 7  89340528.32247  21817848.200    21817850.820          47.500
        44.500
 111198513.757 8  86648225.96647  21160356.540    21160356.160          49.250
        47.250
 14  1 10  2 35  0.0000000  0  4G31G21G25G29
 109317201.658 8  85182237.08748  20802370.960    20802369.740          50.000
        48.750
 112837434.762 8  87925297.07047  21472240.200    21472239.040          48.250
        45.750
 114710705.593 7  89385006.00547  21828710.180    21828712.680          47.250
        44.500
 111257062.432 8  86693848.30247  21171497.960    21171497.620          49.000
        47.500
 14  1 10  2 35 30.0000000  0  4G31G21G25G29
 109322544.952 8  85186400.68248  20803387.780    20803386.540          50.000
        48.750
 112789695.897 8  87888097.96147  21463155.820    21463154.700          48.250
        45.750
 114768060.119 7  89429697.81347  21839624.420    21839626.840          47.250
        44.500
 111315807.531 8  86739623.69747  21182676.720    21182676.500          49.000
        47.500
 14  1 10  2 36  0.0000000  0  4G31G21G25G29
 109328468.916 8  85191016.75348  20804515.100    20804513.800          50.000
        48.750
 112742393.215 8  87851238.73547  21454154.480    21454153.360          48.500
        46.000
 114825698.917 7  89474611.14247  21850592.720    21850595.220          47.250
        44.250
 111374757.417 8  86785558.67047  21193894.480    21193894.360          49.250
        47.250
 14  1 10  2 36 30.0000000  0  4G31G21G25G29
 109334942.232 8  85196060.88848  20805746.920    20805745.580          50.000
        48.750
 112695496.632 8  87814695.94947  21445230.440    21445229.260          48.500
        45.750
 114883591.002 7  89519721.82947  21861609.300    21861611.780          47.250
        44.750
 111433879.086 8  86831627.49947  21205144.960    21205144.840          49.250
        47.250
 14  1 10  2 37  0.0000000  0  4G31G21G25G29
 109341992.674 8  85201554.73748  20807088.560    20807087.240          50.000
        48.750
 112649036.073 8  87778492.91647  21436389.320    21436388.100          48.500
        46.000
 114941764.255 7  89565051.59747  21872679.400    21872681.780          47.250
        44.000
 111493199.043 8  86877850.84447  21216433.240    21216433.080          49.500
        47.000
 14  1 10  2 37 30.0000000  0  4G31G21G25G29
 109349610.964 8  85207491.06148  20808538.280    20808536.920          50.000
        48.750
 112603002.685 8  87742622.74747  21427629.460    21427628.260          48.250
        45.750
 115000209.002 7  89610592.92647  21883801.120    21883803.400          47.250
        44.000
 111552706.248 8  86924220.08247  21227757.220    21227756.960          49.250
        46.750
 14  1 10  2 38  0.0000000  0  4G31G21G25G29
 109357793.007 8  85213866.67148  20810095.320    20810093.900          50.000
        49.000
 112557394.148 8  87707083.63247  21418950.440    21418949.240          48.250
        46.250
 115058921.666 7  89656343.02547  21894973.740    21894976.000          47.000
        44.500
 111612395.345 8  86970731.05447  21239115.740    21239115.360          49.250
        47.250
 14  1 10  2 38 30.0000000  0  4G31G21G25G29
 109366534.564 8  85220678.26648  20811758.840    20811757.400          50.000
        48.750
 112512206.718 8  87671872.64547  21410351.560    21410350.340          48.500
        46.000
 115117897.586 7  89702298.27747  21906196.500    21906198.800          47.000
        44.000
 111672260.260 8  87017379.03847  21250507.620    21250507.180          49.000
        46.750
 14  1 10  2 39  0.0000000  0  4G31G21G25G29
 109375842.057 8  85227930.85648  20813530.000    20813528.560          49.750
        49.000
 112467447.713 8  87636995.51047  21401834.220    21401832.900          48.500
        46.000
 115177143.008 7  89748463.51547  21917470.580    21917472.880          47.250
        43.000
 111732305.682 8  87064167.67547  21261933.840    21261933.360          49.000
        47.000
 14  1 10  2 39 30.0000000  0  5G06G31G21G25G29
 128173146.928 6  99875178.85344  24390538.920    24390540.300          37.250
        29.250
 109385717.260 8  85235625.80848  20815409.120    20815407.800          49.750
        49.000
 112423120.903 8  87602455.14147  21393399.100    21393397.720          48.500
        46.250
 115236660.042 7  89794840.39847  21928796.380    21928798.640          47.250
        43.750
 111792532.664 8  87111097.78447  21273394.620    21273394.140          49.000
        46.500
 14  1 10  2 40  0.0000000  0  5G06G31G21G25G29
 128089463.420 6  99809970.94545  24374614.820    24374615.560          38.500
        31.000
 109396150.455 8  85243755.56948  20817394.460    20817393.240          50.000
        49.000
 112379217.714 8  87568244.87447  21385044.620    21385043.200          48.500
        45.750
 115296439.187 7  89841421.53147  21940172.040    21940174.260          47.000
        44.250
 111852930.116 8  87158160.72647  21284887.840    21284887.360          48.750
        46.750
 14  1 10  2 40 30.0000000  0  5G06G31G21G25G29
 128005926.344 6  99744877.14944  24358718.600    24358718.360          38.750
        26.500
 109407153.235 8  85252329.15548  20819488.260    20819487.020          50.000
        48.750
 112335750.507 8  87534374.32147  21376773.000    21376771.700          48.000
        46.250
 115356491.875 7  89888215.80547  21951599.740    21951602.000          47.000
        43.750
 111913507.895 8  87205364.18347  21296415.360    21296414.860          48.750
        46.750
 14  1 10  2 41  0.0000000  0  5G06G31G21G25G29
 127922533.819 6  99679896.00345  24342849.920    24342849.300          39.500
        33.500
 109418724.135 8  85261345.42948  20821690.180    20821688.880          50.000
        49.000
 112292719.192 8  87500843.43347  21368584.340    21368583.140          48.000
        46.500
 115416816.789 7  89935222.21947  21963079.240    21963081.500          47.250
        43.750
 111974263.464 8  87252706.18247  21307976.740    21307976.280          49.000
        47.000
 14  1 10  2 41 30.0000000  0  5G06G31G21G25G29
 127839286.923 6  99615028.28445  24327008.900    24327007.940          38.750
        33.250
 109430863.553 8  85270804.71048  20824000.260    20823998.940          50.000
        48.750
 112250125.815 8  87467653.79747  21360479.000    21360477.860          48.000
        46.500
 115477414.532 7  89982441.20047  21974610.640    21974612.820          47.250
        43.000
 112035195.590 8  87300185.75247  21319571.780    21319571.300          49.000
        46.750
 14  1 10  2 42  0.0000000  0  5G06G31G21G25G29
 127756185.634 6  99550274.08645  24311195.300    24311194.660          38.250
        31.250
 109443570.166 8  85280705.95848  20826418.220    20826416.900          49.750
        48.750
 112207969.947 8  87434805.07947  21352456.920    21352455.860          48.250
        46.250
 115538283.839 7  90029871.80747  21986193.720    21986195.760          47.000
        43.500
 112096302.052 8  87347801.17747  21331200.020    21331199.520          49.000
        46.750
 14  1 10  2 42 30.0000000  0  5G06G31G21G25G29
 127673228.856 6  99485632.46145  24295409.060    24295408.860          38.250
        33.750
 109456843.027 8  85291048.44348  20828943.960    20828942.600          49.750
        48.500
 112166251.986 8  87402297.57747  21344518.240    21344517.140          48.500
        46.500
 115599423.935 7  90077513.42047  21997828.320    21997830.300          47.000
        44.000
 112157580.644 8  87395550.71547  21342861.000    21342860.540          49.000
        47.000
 14  1 10  2 43  0.0000000  0  5G06G31G21G25G29
 127590417.327 6  99421104.00145  24279650.340    24279650.580          37.750
        32.000
 109470681.834 8  85301831.91548  20831577.420    20831576.060          50.000
        48.500
 112124972.398 8  87370131.68047  21336662.960    21336661.900          48.250
        46.250
 115660834.729 7  90125365.96847  22009514.440    22009516.500          47.250
        43.250
 112219029.684 8  87443433.07447  21354554.460    21354553.920          49.000
        46.500
 14  1 10  2 43 30.0000000  0  5G06G31G21G25G29
 127507748.477 6  99356686.76945  24263918.900    24263919.300          38.000
        35.500
 109485083.774 8  85313054.19848  20834318.080    20834316.660          50.000
        48.750
 112084129.942 8  87338306.39847  21328890.920    21328889.840          48.500
        46.000
 115722513.614 7  90173427.42447  22021251.480    22021253.720          46.750
        43.750
 112280645.199 8  87491445.16547  21366279.480    21366279.000          48.500
        46.750
 14  1 10  2 44  0.0000000  0  5G06G31G21G25G29
 127425224.451 6  99292382.33745  24248215.040    24248215.740          38.250
        35.500
 109500050.296 8  85324716.42148  20837166.080    20837164.740          49.500
        49.000
 112043727.941 8  87306824.32247  21321202.680    21321201.600          48.250
        46.250
 115784462.126 7  90221698.97647  22033039.780    22033042.200          46.750
        43.750
 112342427.713 8  87539587.38147  21378036.220    21378035.940          49.000
        47.000
 14  1 10  2 44 30.0000000  0  5G06G31G21G25G29
 127342849.151 6  99228193.83445  24232539.640    24232540.380          40.250
        33.500
 109515584.415 8  85336820.91948  20840122.100    20840120.760          49.500
        49.000
 112003770.152 8  87275688.39247  21313599.000    21313597.840          48.250
        46.750
 115846683.494 7  90270183.13447  22044880.020    22044882.560          46.750
        43.500
 112404379.231 8  87587861.28847  21389825.200    21389825.000          48.750
        46.500
 14  1 10  2 45  0.0000000  0  5G06G31G21G25G29
 127260612.657 6  99164113.49045  24216890.760    24216891.080          39.500
        32.750
 109531675.796 8  85349359.64948  20843184.140    20843182.880          49.750
        48.750
 111964247.645 8  87244891.64647  21306078.140    21306076.880          48.500
        46.250
 115909167.736 7  90318872.12347  22056770.400    22056772.920          46.750
        43.500
 112466488.248 8  87636257.91647  21401644.200    21401644.020          49.000
        46.750
 14  1 10  2 45 30.0000000  0  5G06G31G21G25G29
 127178517.108 6  99100142.93945  24201268.680    24201268.640          39.500
        35.750
 109548326.084 8  85362333.89148  20846352.600    20846351.380          49.750
        48.750
 111925163.316 8  87214436.33947  21298640.600    21298639.340          48.250
        46.750
 115971916.656 7  90367767.35747  22068711.220    22068713.600          47.000
        43.000
 112528755.234 8  87684777.63447  21413493.240    21413493.080          48.500
        46.750
 14  1 10  2 46  0.0000000  0  6G06G31G21G25G16G29
 127096577.986 6  99036294.31945  24185676.180    24185676.000          40.500
        31.750
 109565549.179 8  85375754.47948  20849630.080    20849628.860          49.750
        48.750
 111886532.260 8  87184334.22447  21291289.320    21291288.080          48.500
        46.500
 116034944.601 7  90416880.02747  22080705.080    22080707.420          46.750
        42.750
 129091356.976 6 100590666.57645  24565268.880    24565267.820          36.000
        32.000
 112591193.083 8  87733430.50347  21425374.700    21425374.600          48.500
        46.500
 14  1 10  2 46 30.0000000  0  6G06G31G21G25G16G29
 127014775.345 6  98972552.00846  24170109.720    24170109.440          39.750
        36.000
 109583324.783 8  85389605.59148  20853012.660    20853011.500          49.750
        48.750
 111848335.683 8  87154570.65947  21284020.780    21284019.500          48.500
        46.500
 116098231.389 7  90466194.38747  22092748.180    22092750.460          46.250
        43.000
 129003027.077 6 100521838.07944  24548460.580    24548459.660          36.500
        28.500
 112653779.909 8  87782199.45647  21437284.520    21437284.440          48.750
        46.750
 14  1 10  2 47  0.0000000  0  6G06G31G21G25G16G29
 126933127.564 6  98908930.43245  24154572.540    24154572.300          39.500
        32.250
 109601670.656 8  85403901.07448  20856503.720    20856502.600          49.500
        48.750
 111810592.652 8  87125160.51347  21276838.580    21276837.280          48.500
        46.500
 116161795.266 7  90515724.66647  22104843.980    22104846.220          46.500
        43.500
 128914688.898 5 100453003.17344  24531650.120    24531649.680          35.000
        29.750
 112716533.866 8  87831098.63947  21449226.180    21449226.120          48.750
        46.500
 14  1 10  2 47 30.0000000  0  6G06G31G21G25G16G29
 126851623.980 6  98845421.14845  24139062.700    24139062.520          39.750
        34.250
 109620575.502 8  85418632.12648  20860101.140    20860100.080          49.750
        49.000
 111773293.156 8  87096095.97947  21269740.780    21269739.480          48.500
        46.500
 116225625.079 7  90565462.14847  22116990.420    22116992.720          47.000
        43.250
 128826332.069 6 100384153.70244  24514836.300    24514836.020          38.250
        25.750
 112779441.933 8  87880117.90647  21461197.120    21461197.060          48.500
        46.250
 14  1 10  2 48  0.0000000  0  6G06G31G21G25G16G29
 126770266.816 6  98782025.98645  24123580.760    24123580.980          39.750
        32.750
 109640040.697 8  85433799.79548  20863805.240    20863804.240          49.750
        48.750
 111736440.047 8  87067379.27947  21262727.900    21262726.580          48.500
        47.000
 116289722.559 7  90615408.22047  22129187.840    22129190.200          47.000
        43.250
 128737959.270 6 100315291.82444  24498019.640    24498018.920          38.750
        29.250
 112842504.539 8  87929257.58547  21473197.440    21473197.420          48.500
        46.500
 14  1 10  2 48 30.0000000  0  6G06G31G21G25G16G29
 126689058.015 6  98718746.42745  24108127.100    24108127.400          41.000
        33.000
 109660067.406 8  85449405.01448  20867616.240    20867615.180          49.750
        48.750
 111700035.489 8  87039012.10547  21255800.320    21255799.060          48.250
        47.000
 116354089.224 7  90665564.04647  22141436.480    22141438.860          46.750
        42.750
 128649572.921 6 100246419.36644  24481200.360    24481199.380          39.000
        28.000
 112905721.901 8  87978517.86747  21485227.300    21485227.280          48.750
        46.000
 14  1 10  2 49  0.0000000  0  6G06G31G21G25G16G29
 126607995.291 6  98655580.72145  24092701.440    24092701.400          40.750
        34.750
 109680652.205 8  85465445.11148  20871533.400    20871532.320          49.750
        48.500
 111664077.315 8  87010992.74947  21248957.700    21248956.420          48.500
        46.750
 116418722.077 7  90715927.29847  22153735.720    22153738.140          46.750
        43.250
 128561171.011 6 100177534.75845  24464378.180    24464377.080          40.750
        30.000
 112969090.319 8  88027895.84247  21497285.980    21497285.820          48.500
        46.000
 14  1 10  2 49 30.0000000  0  6G06G31G21G25G16G29
 126527081.578 6  98592531.10045  24077304.100    24077304.260          40.500
        32.750
 109701797.474 8  85481921.93848  20875557.220    20875556.120          49.750
        48.500
 111628569.443 8  86983324.28547  21242200.740    21242199.480          48.500
        47.000
 116483623.938 7  90766500.16547  22166086.100    22166088.580          46.250
        43.000
 128472757.257 6 100108640.91345  24447553.700    24447552.540          39.500
        30.750
 113032611.175 8  88077392.60547  21509373.680    21509373.340          48.500
        45.750
 14  1 10  2 50  0.0000000  0  6G06G31G21G25G16G29
 126446316.817 6  98529597.50245  24061935.060    24061935.300          40.750
        32.000
 109723502.019 8  85498834.55648  20879687.440    20879686.300          49.750
        48.500
 111593512.289 8  86956007.02947  21235529.560    21235528.300          48.250
        47.000
 116548793.953 7  90817281.96047  22178487.460    22178489.980          46.500
        42.250
 128384332.502 6 100039738.47345  24430726.940    24430725.920          39.000
        33.500
 113096282.428 8  88127006.55247  21521489.920    21521489.520          48.500
        45.750
 14  1 10  2 50 30.0000000  0  6G06G31G21G25G16G29
 126365700.548 6  98466779.71545  24046594.300    24046594.600          40.000
        31.500
 109745764.485 8  85516181.93348  20883923.900    20883922.680          50.000
        48.750
 111558905.442 8  86929040.65847  21228944.060    21228942.800          48.500
        47.000
 116614231.391 7  90868272.14947  22190939.700    22190942.300          46.000
        43.250
 128295896.527 6  99970827.33445  24413898.100    24413897.040          40.750
        31.250
 113160101.962 8  88176736.05147  21533634.440    21533633.920          48.750
        46.000
 14  1 10  2 51  0.0000000  0  6G06G31G21G25G16G29
 126285232.384 6  98404077.28045  24031281.700    24031281.900          41.000
        33.750
 109768584.091 8  85533963.43348  20888266.380    20888265.080          49.750
        48.500
 111524750.108 8  86902426.12047  21222444.500    21222443.260          48.250
        47.250
 116679935.462 7  90919470.09447  22203442.680    22203445.480          46.000
        43.500
 128207450.086 6  99901908.06345  24397067.200    24397066.100          40.750
        35.000
 113224068.124 8  88226579.80547  21545806.820    21545806.300          48.250
        46.250
 14  1 10  2 51 30.0000000  0  6G06G31G21G25G16G29
 126204911.983 6  98341489.95145  24015997.340    24015997.320          41.250
        33.250
 109791958.930 8  85552177.58948  20892714.460    20892713.160          49.750
        48.500
 111491045.104 8  86876162.48747  21216030.640    21216029.440          48.250
        47.000
 116745904.973 7  90970874.89347  22215996.260    22215999.100          46.000
        43.250
 128118992.862 6  99832980.37445  24380234.220    24380233.200          41.250
        33.250
 113288178.211 8  88276535.70547  21558006.520    21558005.980          48.500
        45.500
 14  1 10  2 52  0.0000000  0  6G06G31G21G25G16G29
 126124741.278 6  98279019.29845  24000741.500    24000741.260          40.250
        32.500
 109815890.372 8  85570825.45648  20897268.500    20897267.180          49.750
        48.500
 111457793.318 8  86850252.01347  21209703.040    21209701.900          48.500
        47.000
 116812141.834 7  91022488.03147  22228600.720    22228603.540          46.250
        42.500
 128030527.937 7  99764046.66045  24363399.860    24363398.900          42.000
        34.750
 113352433.821 8  88326605.01447  21570233.980    21570233.380          48.750
        46.000
 14  1 10  2 52 30.0000000  0  6G06G31G21G25G16G29
 126044720.157 6  98216665.20345  23985513.960    23985513.680          41.000
        33.750
 109840377.219 8  85589906.11048  20901928.240    20901926.920          49.750
        48.500
 111424995.249 8  86824695.07647  21203461.760    21203460.700          48.250
        47.250
 116878645.282 7  91074308.88447  22241255.980    22241258.680          46.250
        43.250
 127942055.611 6  99695107.19945  24346564.140    24346563.340          41.750
        34.250
 113416832.647 8  88376785.89847  21582488.740    21582488.200          48.750
        46.000
 14  1 10  2 53  0.0000000  0  6G06G31G21G25G16G29
 125964848.912 6  98154427.87745  23970314.860    23970314.600          40.500
        34.750
 109865418.758 8  85609418.99548  20906693.480    20906692.200          49.750
        48.250
 111392651.433 8  86799492.11547  21197306.920    21197305.920          48.500
        47.000
 116945415.130 7  91126337.31447  22253961.960    22253964.620          46.250
        42.250
 127853576.789 6  99626162.67745  24329727.160    24329726.460          41.250
        34.750
 113481373.056 8  88427077.12647  21594770.420    21594770.080          48.500
        46.250
 14  1 10  2 53 30.0000000  0  6G06G31G21G25G16G29
 125885127.391 6  98092307.23446  23955144.320    23955144.040          40.750
        36.750
 109891013.784 8  85629363.16348  20911564.040    20911562.800          49.750
        48.500
 111360762.036 8  86774643.23847  21191238.560    21191237.540          48.250
        47.000
 117012450.709 7  91178572.81547  22266718.480    22266721.240          45.750
        43.500
 127765091.902 6  99557213.45845  24312888.920    24312888.460          40.500
        34.000
 113546053.682 8  88477477.60847  21607078.760    21607078.580          48.500
        46.000
 14  1 10  2 54  0.0000000  0  6G06G31G21G25G16G29
 125805558.022 6  98030305.15945  23940002.620    23940002.580          41.250
        35.250
 109917164.010 8  85649739.95448  20916540.240    20916539.020          49.750
        48.250
 111329329.893 8  86750150.66147  21185257.240    21185256.140          48.500
        47.000
 117079754.058 7  91231016.98447  22279525.880    22279528.760          46.000
        42.750
 127676604.459 6  99488262.21245  24296050.180    24296049.920          41.000
        35.500
 113610875.409 8  88527988.04147  21619413.920    21619413.780          48.500
        46.250
 14  1 10  2 54 30.0000000  0  6G06G31G21G25G16G29
 125726136.532 6  97968418.29046  23924889.180    23924889.320          40.750
        38.000
 109943863.697 8  85670544.89748  20921621.000    20921619.780          49.750
        48.250
 111298351.096 8  86726011.34347  21179362.200    21179361.040          48.250
        47.500
 117147320.188 7  91283665.90847  22292383.260    22292386.280          45.750
        42.750
 127588110.259 6  99419305.75546  24279210.260    24279209.960          41.000
        36.750
 113675832.330 8  88578603.81347  21631774.760    21631774.660          48.250
        45.750
 14  1 10  2 55  0.0000000  0  6G06G31G21G25G16G29
 125646866.803 7  97906649.65745  23909804.640    23909804.860          42.000
        32.000
 109971116.177 8  85691780.58748  20926807.000    20926805.720          49.750
        48.250
 111267829.719 8  86702228.45547  21173554.180    21173552.960          48.250
        47.500
 117215152.808 7  91336522.47747  22305291.360    22305294.380          45.750
        42.500
 127499614.484 6  99350348.03946  24262370.000    24262369.680          40.250
        36.500
 113740927.132 8  88629327.02947  21644161.840    21644161.780          48.250
        45.500
 14  1 10  2 55 30.0000000  0  6G06G31G21G25G16G29
 125567747.764 6  97844998.48745  23894748.740    23894749.040          41.000
        35.500
 109998918.801 8  85713444.96648  20932097.680    20932096.440          49.750
        48.500
 111237765.495 8  86678801.79447  21167833.160    21167831.880          48.500
        46.750
 117283250.183 7  91389585.34847  22318249.900    22318252.780          46.250
        42.000
 127411116.392 6  99281388.48545  24245529.320    24245529.000          40.500
        35.500
 113806156.621 8  88680155.20047  21656574.600    21656574.600          48.250
        45.750
 14  1 10  2 56  0.0000000  0  6G06G31G21G25G16G29
 125488777.837 7  97783463.49346  23879721.360    23879721.520          42.500
        36.000
 110027268.966 8  85735535.99348  20937492.540    20937491.340          49.750
        48.250
 111208156.855 8  86655730.12647  21162198.840    21162197.500          48.250
        47.250
 117351610.122 7  91442852.81747  22331258.440    22331261.140          45.500
        43.000
 127322615.438 6  99212426.72345  24228688.180    24228687.700          40.750
        35.500
 113871518.174 8  88731086.26847  21669012.460    21669012.500          48.000
        45.250
 14  1 10  2 56 30.0000000  0  6G06G31G21G25G16G29
 125409961.385 7  97722048.10545  23864723.140    23864723.280          42.500
        34.500
 110056170.082 8  85758056.34148  20942992.220    20942991.100          49.750
        48.500
 111179008.550 8  86633017.16547  21156652.100    21156650.740          48.250
        47.250
 117420236.640 7  91496328.01047  22344317.620    22344320.260          45.750
        42.500
 127234116.550 7  99143466.56545  24211847.460    24211846.900          42.000
        35.500
 113937014.889 8  88782122.66247  21681476.080    21681476.020          48.250
        45.250
 14  1 10  2 57  0.0000000  0  6G06G31G21G25G16G29
 125331295.525 7  97660750.06346  23849753.540    23849753.520          43.000
        36.000
 110085618.292 8  85781002.99848  20948596.020    20948594.860          49.750
        48.250
 111150318.048 8  86610660.93447  21151192.460    21151191.100          48.250
        47.250
 117489126.402 7  91550008.33546  22357426.900    22357429.540          45.750
        41.750
 127145617.943 7  99074506.62245  24195006.900    24195005.960          42.750
        34.750
 114002642.255 8  88833260.86347  21693964.620    21693964.320          48.250
        45.000
 14  1 10  2 57 30.0000000  0  6G06G31G21G25G16G29
 125252782.029 6  97599570.72545  23834812.880    23834812.840          41.750
        33.750
 110115613.651 8  85804375.99948  20954303.980    20954302.760          49.750
        48.250
 111122087.364 8  86588663.00347  21145820.300    21145818.980          48.250
        47.500
 117558280.565 7  91603894.69347  22370586.520    22370589.220          45.750
        42.000
 127057121.939 6  99005548.71345  24178166.720    24178165.680          41.250
        33.500
 114068400.219 8  88884500.82347  21706478.000    21706477.560          48.250
        45.250
 14  1 10  2 58  0.0000000  0  6G06G31G21G25G16G29
 125174420.404 7  97538509.74946  23819901.160    23819901.000          42.250
        36.250
 110146154.834 8  85828174.31648  20960115.820    20960114.520          50.000
        48.500
 111094316.138 8  86567023.08547  21140535.600    21140534.320          48.500
        47.250
 117627698.007 7  91657986.20047  22383796.280    22383799.080          45.750
        43.250
 126968628.776 6  98936593.06945  24161327.020    24161325.720          41.500
        31.000
 114134286.753 8  88935840.96647  21719015.900    21719015.240          48.250
        45.250
 14  1 10  2 58 30.0000000  0  6G06G31G21G25G16G29
 125096209.369 7  97477566.09245  23805018.020    23805017.980          42.250
        34.500
 110177239.670 8  85852396.25948  20966031.100    20966029.800          49.750
        48.250
 111067003.467 8  86545740.49047  21135338.160    21135336.940          48.250
        47.750
 117697377.307 7  91712281.74947  22397055.880    22397058.740          45.750
        42.250
 126880138.330 6  98867639.44045  24144487.960    24144486.260          41.750
        33.250
 114200299.941 8  88987279.80047  21731577.900    21731577.120          48.250
        45.000
 14  1 10  2 59  0.0000000  0  6G06G31G21G25G16G29
 125018152.559 6  97416742.60045  23790164.240    23790164.220          41.750
        34.500
 110208870.230 8  85877043.44548  20972050.200    20972048.900          49.750
        48.000
 111040153.636 8  86524818.55247  21130228.780    21130227.620          48.250
        47.250
 117767321.270 7  91766783.52947  22410365.800    22410368.620          45.500
        42.250
 126791654.487 6  98798691.02645  24127650.040    24127648.400          41.250
        35.500
 114266441.292 8  89038818.50447  21744164.280    21744163.460          48.500
        45.250
 14  1 10  2 59 30.0000000  0  6G06G31G21G25G16G29
 124940248.188 6  97356037.88745  23775339.400    23775339.520          40.500
        35.750
 110241043.704 8  85902113.67648  20978172.580    20978171.260          49.750
        48.000
 111013764.643 8  86504255.70647  21125207.080    21125205.900          48.250
        47.250
 117837527.703 7  91821489.84746  22423725.640    22423728.280          45.750
        41.750
 126703176.955 6  98729747.50345  24110813.220    24110811.860          41.000
        35.500
 114332708.014 7  89090454.90147  21756774.380    21756773.700          47.500
        45.750
 14  1 10  3  0  0.0000000  0  6G06G31G21G25G16G29
 124862496.993 6  97295452.55246  23760543.620    23760544.000          41.000
        37.000
 110273759.332 8  85927606.36748  20984398.140    20984396.840          49.750
        48.000
 110987837.485 8  86484052.73647  21120273.260    21120272.020          48.250
        47.250
 117907996.677 7  91876400.72846  22437135.440    22437137.900          45.750
        41.000
 126614706.988 6  98660809.87446  24093977.860    24093976.940          40.750
        38.500
 114399099.113 7  89142188.21747  21769408.000    21769407.580          47.500
        45.000
 14  1 10  3  0 30.0000000  0  6G06G31G21G25G16G29
 124784899.531 6  97234986.98746  23745777.120    23745777.880          40.000
        36.250
 110307016.570 8  85953521.08848  20990726.760    20990725.460          49.500
        48.250
 110962372.792 8  86464210.12047  21115427.460    21115426.180          48.250
        47.500
 117978728.348 7  91931516.30446  22450595.160    22450597.540          45.500
        41.000
 126526246.067 6  98591879.33646  24077144.200    24077143.580          40.250
        37.500
 114465613.860 8  89194017.88147  21782065.220    21782064.980          48.000
        45.250
 14  1 10  3  1  0.0000000  0  6G06G31G21G25G16G29
 124707453.640 6  97174639.55845  23731039.400    23731040.300          39.750
        34.000
 110340811.782 8  85979855.01148  20997157.760    20997156.500          49.750
        48.000
 110937368.999 8  86444726.65447  21110669.360    21110668.120          48.250
        47.500
 118049719.968 7  91986834.42646  22464104.300    22464106.740          45.000
        41.500
 126437792.706 6  98522954.67345  24060312.020    24060311.400          41.750
        34.750
 114532248.666 7  89245941.09547  21794745.280    21794745.160          47.750
        44.750
 14  1 10  3  1 30.0000000  0  6G06G31G21G25G16G29
 124630161.724 6  97114412.12645  23716331.040    23716332.000          40.000
        34.250
 110375146.166 8  86006609.07248  21003691.340    21003690.140          49.750
        48.000
 110912828.357 8  86425604.07947  21105999.420    21105998.240          48.250
        47.500
 118120973.362 7  92042356.54746  22477663.320    22477665.900          45.500
        41.500
 126349350.341 6  98454038.56345  24043482.080    24043481.260          41.000
        35.500
 114599004.798 8  89297958.84547  21807448.480    21807448.380          48.000
        44.500
 14  1 10  3  2  0.0000000  0  6G06G31G21G25G16G29
 124553022.389 6  97054303.57646  23701651.820    23701652.720          40.250
        37.500
 110410017.023 8  86033781.16548  21010327.020    21010325.900          49.500
        48.250
 110888749.687 8  86406841.48147  21101417.460    21101416.240          48.250
        47.750
 118192486.549 7  92098081.11746  22491271.840    22491274.480          45.500
        41.500
 126260918.170 6  98385130.40146  24026653.880    24026653.160          39.750
        37.500
 114665879.173 7  89350068.73647  21820174.280    21820174.160          47.750
        44.500
 14  1 10  3  2 30.0000000  0  6G06G31G21G25G16G29
 124476035.914 6  96994314.09346  23687001.840    23687002.660          39.250
        36.500
 110445423.324 8  86061370.48848  21017064.600    21017063.520          49.750
        48.250
 110865133.679 8  86388439.40147  21096923.540    21096922.300          48.500
        47.250
 118264259.458 7  92154008.05146  22504929.760    22504932.420          45.500
        41.250
 126172497.853 6  98316231.43845  24009827.820    24009827.100          40.500
        35.000
 114732871.083 7  89402270.21447  21832922.400    21832922.300          47.500
        44.750
 14  1 10  3  3  0.0000000  0  6G06G31G21G25G16G29
 124399204.616 6  96934445.56746  23672381.240    23672382.140          39.500
        36.250
 110481366.037 8  86089377.78748  21023904.280    21023903.240          49.750
        48.000
 110841982.331 8  86370399.39447  21092518.020    21092516.700          48.250
        47.250
 118336293.674 7  92210138.60646  22518637.400    22518640.220          45.500
        41.750
 126084092.501 6  98247344.17145  23993004.720    23993004.080          41.500
        35.750
 114799981.075 8  89454563.70647  21845693.000    21845692.920          48.000
        44.500
 14  1 10  3  3 30.0000000  0  6G06G31G21G25G16G29
 124322525.319 6  96874695.45946  23657789.680    23657790.420          39.500
        36.750
 110517840.518 8  86117799.46147  21030845.160    21030844.120          49.750
        47.750
 110819292.465 8  86352718.99147  21088200.300    21088198.920          48.250
        47.500
 118408585.523 7  92266469.90146  22532394.040    22532396.940          45.500
        41.500
 125995699.741 7  98178466.71045  23976184.200    23976183.540          42.250
        35.250
 114867204.950 7  89506945.95247  21858485.400    21858485.260          47.750
        45.000
 14  1 10  3  4  0.0000000  0  6G06G31G21G25G16G29
 124246000.925 6  96815066.06145  23643227.500    23643228.160          39.500
        34.500
 110554848.244 8  86146636.63948  21037887.500    21037886.400          49.750
        48.000
 110797068.013 8  86335401.24247  21083971.140    21083969.720          48.250
        47.750
 118481137.273 7  92323003.73046  22546200.180    22546203.080          45.250
        41.750
 125907323.471 7  98109602.09245  23959366.920    23959366.100          42.000
        35.750
 114934544.590 7  89559418.37747  21871299.780    21871299.640          47.750
        45.000
 14  1 10  3  4 30.0000000  0  6G06G31G21G25G16G29
 124169629.923 6  96755556.20446  23628694.540    23628695.320          39.750
        36.750
 110592386.523 8  86175887.24048  21045030.780    21045029.620          49.500
        48.000
 110775307.082 8  86318444.67947  21079830.140    21079828.800          48.250
        47.750
 118553947.137 7  92379738.69646  22560055.480    22560058.280          44.750
        41.500
 125818963.489 7  98040750.16946  23942552.720    23942551.680          42.000
        36.500
 115001996.901 7  89611978.61747  21884135.660    21884135.480          47.750
        45.250
 14  1 10  3  5  0.0000000  0  6G06G31G21G25G16G29
 124093413.652 6  96696166.94346  23614190.980    23614191.920          38.750
        36.500
 110630455.156 8  86205551.10447  21052274.960    21052273.800          49.500
        47.750
 110754010.772 8  86301850.15447  21075777.560    21075776.320          48.000
        47.750
 118627015.597 7  92436675.14746  22573959.960    22573962.740          45.000
        40.750
 125730621.653 7  97971912.36045  23925742.060    23925740.820          42.750
        32.500
 115069561.844 7  89664626.61647  21896992.940    21896992.720          47.500
        44.500
 14  1 10  3  5 30.0000000  0  6G06G31G21G25G16G29
 124017351.912 6  96636898.04246  23599716.800    23599717.860          40.250
        36.000
 110669052.530 8  86235626.97648  21059619.840    21059618.680          49.750
        48.000
 110733179.013 8  86285617.62048  21071813.400    21071812.200          48.250
        48.000
 118700341.989 7  92493812.58046  22587913.560    22587916.260          45.000
        41.000
 125642298.519 6  97903089.15145  23908934.900    23908933.460          41.000
        35.250
 115137237.525 7  89717360.90947  21909871.180    21909871.000          47.500
        45.000
 14  1 10  3  6  0.0000000  0  6G06G31G21G25G16G29
 123941446.674 6  96577751.06446  23585272.360    23585273.480          39.750
        36.250
 110708178.920 8  86266115.06848  21067065.380    21067064.280          49.500
        48.250
 110712814.045 8  86269748.81648  21067938.080    21067936.900          48.000
        48.250
 118773927.633 7  92551152.02246  22601916.480    22601919.200          45.000
        41.250
 125553997.964 7  97834283.55445  23892131.860    23892130.320          42.250
        35.000
 115205025.113 8  89770182.39247  21922770.800    21922770.540          48.000
        44.750
 14  1 10  3  6 30.0000000  0  7G06G31G21G25G16G27G29
 123865696.249 6  96518724.80145  23570857.540    23570858.720          40.000
        33.000
 110747831.408 8  86297013.10448  21074611.040    21074609.960          49.750
        48.250
 110692914.324 8  86254242.54848  21064151.300    21064150.140          48.000
        48.000
 118847770.327 7  92608691.76746  22615968.240    22615971.080          44.750
        41.250
 125465718.730 6  97765494.53745  23875332.720    23875331.060          40.750
        32.500
 129665043.244 6 101037705.10945  24674436.180    24674440.120          38.750
        34.500
 115272922.152 7  89823089.14947  21935691.300    21935690.920          47.500
        44.250
 14  1 10  3  7  0.0000000  0  7G06G31G21G25G16G27G29
 123790105.528 6  96459822.92945  23556473.100    23556474.480          40.250
        34.250
 110788013.266 8  86328323.63548  21082257.420    21082256.360          49.500
        48.000
 110673484.535 8  86239102.45947  21060453.920    21060452.780          48.250
        47.750
 118921874.473 7  92666435.23946  22630069.740    22630072.720          44.500
        41.750
 125377466.524 6  97696726.58045  23858538.460    23858537.240          40.000
        35.250
 129584117.876 6 100974646.40946  24659036.620    24659040.060          37.500
        36.750
 115340931.933 7  89876083.76947  21948633.100    21948632.720          47.500
        44.500
 14  1 10  3  7 30.0000000  0  7G06G31G21G25G16G27G29
 123714661.556 6  96401035.42745  23542116.660    23542117.940          39.000
        35.750
 110828710.006 8  86360035.37848  21090001.740    21090000.720          49.500
        48.000
 110654511.833 8  86224318.54247  21056843.520    21056842.340          48.000
        47.750
 118996226.236 7  92724371.67546  22644218.460    22644221.420          44.750
        41.000
 125289229.870 6  97627970.76645  23841747.440    23841746.520          41.500
        33.750
 129503294.564 6 100911667.23345  24643656.480    24643659.740          38.750
        31.500
 115409039.878 7  89929154.88547  21961593.520    21961593.280          47.500
        44.000
 14  1 10  3  8  0.0000000  0  8G06G31G21G25G16G27G18G29
 123639380.866 6  96342375.17445  23527791.140    23527792.240          39.750
        35.500
 110869936.602 8  86392159.98647  21097846.940    21097845.860          49.750
        47.750
 110636013.081 8  86209903.93847  21053323.320    21053322.100          48.000
        47.750
 119070841.785 7  92782513.64646  22658417.380    22658420.320          44.750
        40.500
 125201026.241 6  97559240.67046  23824962.860    23824962.040          41.500
        36.500
 129422589.975 6 100848780.57046  24628298.900    24628302.140          38.000
        37.750
 129305787.379 6 100757752.32345  24606073.940    24606075.180          38.000
        32.500
 115477261.474 7  89982314.57447  21974575.540    21974575.420          47.250
        44.750
 14  1 10  3  8 30.0000000  0  8G06G31G21G25G16G27G18G29
 123564240.562 6  96283824.31845  23513492.460    23513493.460          40.000
        34.750
 110911668.776 8  86424678.55147  21105788.300    21105787.160          49.500
        47.500
 110617964.846 8  86195840.38448  21049888.820    21049887.600          48.000
        48.000
 119145697.627 7  92840842.87746  22672661.900    22672664.960          44.500
        41.000
 125112833.577 6  97490519.09545  23808180.420    23808179.440          41.500
        32.500
 129341981.370 6 100785968.66846  24612959.580    24612962.860          39.000
        39.000
 129230691.603 6 100699236.09744  24591783.700    24591784.040          38.500
        29.500
 115545572.815 7  90035544.16647  21987574.680    21987574.660          47.500
        44.750
 14  1 10  3  9  0.0000000  0  8G06G31G21G25G16G27G18G29
 123489264.695 6  96225401.56745  23499225.080    23499225.900          40.750
        35.500
 110953928.615 8  86457608.29748  21113830.040    21113828.920          49.500
        48.250
 110600390.967 8  86182146.45448  21046544.560    21046543.400          48.000
        48.000
 119220817.019 7  92899377.44246  22686956.520    22686959.680          44.250
        41.000
 125024677.164 6  97421825.77645  23791404.860    23791403.780          41.000
        35.250
 129261492.604 6 100723250.16746  24597643.080    24597646.360          39.500
        36.500
 129155559.113 6 100640691.29245  24577486.320    24577486.280          38.250
        34.500
 115613996.398 7  90088861.24447  22000595.260    22000595.220          47.500
        43.750
 14  1 10  3  9 30.0000000  0  8G06G31G21G25G16G27G18G29
 123414443.311 6  96167099.20245  23484987.180    23484987.980          41.000
        34.500
 110996704.858 8  86490940.42948  21121970.080    21121969.000          49.500
        48.000
 110583282.200 8  86168814.95047  21043288.840    21043287.720          48.000
        47.750
 119296189.614 7  92958109.32246  22701299.480    22701302.540          44.750
        40.500
 124936548.188 7  97353153.87145  23774634.500    23774633.440          42.000
        35.250
 129181114.067 6 100660617.57345  24582347.620    24582350.800          40.000
        35.000
 129080382.875 6 100582112.35345  24563180.680    24563180.700          38.500
        34.500
 115682521.456 7  90142257.37947  22013635.180    22013635.060          47.250
        44.000
 14  1 10  3 10  0.0000000  0  8G06G31G21G25G16G27G18G29
 123339778.156 6  96108918.57645  23470779.020    23470779.740          41.000
        34.000
 111039997.540 8  86524674.98547  21130208.420    21130207.300          49.750
        47.750
 110566639.453 8  86155846.58647  21040121.820    21040120.680          48.250
        47.500
 119371816.359 7  93017039.24646  22715690.920    22715693.700          45.000
        40.500
 124848449.169 6  97284505.31146  23757869.780    23757868.760          41.500
        37.500
 129100847.302 6 100598072.07145  24567073.400    24567076.520          39.500
        35.500
 129005166.906 6 100523502.52845  24548867.500    24548867.220          38.250
        33.250
 115751148.462 7  90195732.95147  22026694.460    22026694.340          46.750
        44.750
 14  1 10  3 10 30.0000000  0  8G06G31G21G25G16G27G18G29
 123265267.660 6  96050858.47245  23456600.200    23456600.880          41.000
        35.750
 111083803.616 8  86558809.57947  21138544.440    21138543.260          49.500
        47.750
 110550461.582 8  86143240.45747  21037043.280    21037042.060          48.250
        47.750
 119447695.182 7  93076165.57446  22730130.280    22730132.860          44.500
        41.000
 124760380.048 7  97215880.03946  23741110.880    23741109.880          42.250
        36.250
 129020690.896 6 100535612.57045  24551820.260    24551823.160          41.000
        35.750
 128929911.860 6 100464862.24545  24534546.940    24534546.640          37.750
        35.250
 115819874.859 7  90249285.97647  22039772.620    22039772.580          47.250
        44.000
 14  1 10  3 11  0.0000000  0  8G06G31G21G25G16G27G18G29
 123190914.289 6  95992920.80546  23442451.260    23442452.000          41.750
        39.000
 111128123.579 8  86593344.61347  21146978.280    21146977.020          49.750
        47.750
 110534751.123 8  86130998.54247  21034053.700    21034052.480          48.000
        47.500
 119523827.908 7  93135489.75946  22744617.800    22744620.440          44.250
        40.500
 124672344.296 7  97147280.77646  23724358.320    23724357.300          42.000
        37.250
 128940647.372 6 100473241.00446  24536588.520    24536591.260          38.750
        36.250
 128854622.694 6 100406195.32144  24520220.000    24520219.620          37.750
        27.250
 115888701.399 7  90302917.04147  22052869.960    22052869.780          47.000
        43.250
 14  1 10  3 11 30.0000000  0  8G06G31G21G25G16G27G18G29
 123116718.078 6  95935105.59645  23428332.200    23428333.000          41.500
        34.500
 111172956.486 8  86628279.34547  21155509.660    21155508.460          49.500
        47.500
 110519507.442 8  86119120.36247  21031152.940    21031151.700          48.000
        47.750
 119600214.110 7  93195011.45946  22759153.520    22759156.300          44.500
        40.500
 124584343.249 7  97078708.56446  23707612.360    23707611.340          42.250
        36.250
 128860716.898 6 100410957.53646  24521378.080    24521381.000          39.250
        38.750
 128779301.976 6 100347503.90444  24505886.920    24505886.680          38.500
        29.750
 115957627.792 7  90356625.89947  22065986.220    22065985.900          46.750
        43.750
 14  1 10  3 12  0.0000000  0  8G06G31G21G25G16G27G18G29
 123042677.217 7  95877411.42845  23414242.620    23414243.580          42.250
        34.500
 111218298.582 8  86663610.84747  21164137.900    21164136.840          49.500
        47.750
 110504729.110 8  86107604.77947  21028340.720    21028339.460          48.250
        47.750
 119676851.114 7  93254728.60146  22773737.000    22773739.880          44.750
        40.250
 124496375.689 7  97010162.41446  23690872.680    23690871.740          42.000
        37.000
 128780897.621 6 100348760.74546  24506188.860    24506191.860          39.500
        37.750
 128703951.457 6 100288791.38644  24491548.480    24491548.400          39.750
        29.500
 116026650.205 7  90410409.59547  22079120.680    22079120.420          47.000
        44.250
 14  1 10  3 12 30.0000000  0  8G06G31G21G25G16G27G18G29
 122968790.396 6  95819837.28046  23400182.440    23400183.460          41.500
        37.250
 111264146.412 8  86699336.41847  21172862.440    21172861.440          49.500
        47.750
 110490414.315 8  86096450.39747  21025616.740    21025615.400          48.250
        47.500
 119753736.979 7  93314639.65446  22788367.860    22788370.740          44.250
        40.250
 124408442.009 6  96941642.63946  23674139.320    23674138.500          41.750
        36.250
 128701188.218 6 100286649.54946  24491020.520    24491023.720          39.750
        37.000
 128628569.582 6 100230052.25646  24477204.060    24477203.600          39.500
        36.000
 116095766.985 7  90464266.81647  22092273.160    22092273.000          47.000
        43.750
 14  1 10  3 13  0.0000000  0  8G06G31G21G25G16G27G18G29
 122895062.506 6  95762387.02745  23386152.580    23386153.200          41.500
        35.250
 111310503.437 8  86735458.77347  21181683.900    21181682.880          49.500
        47.500
 110476567.848 8  86085660.94648  21022981.880    21022980.480          48.250
        48.000
 119830876.096 7  93374748.03746  22803047.040    22803049.800          44.500
        40.250
 124320548.220 6  96873154.00246  23657413.540    23657412.920          41.750
        37.250
 128621593.764 6 100224627.93346  24475873.980    24475877.440          39.750
        37.500
 128553165.193 6 100171295.60645  24462855.120    24462854.780          39.250
        33.750
 116164981.696 7  90518200.35547  22105444.240    22105444.060          46.500
        43.750
 14  1 10  3 13 30.0000000  0  8G06G31G21G25G16G27G18G29
 122821490.383 6  95705058.15446  23372152.300    23372152.640          41.250
        37.000
 111357364.695 8  86771974.03447  21190601.320    21190600.200          49.750
        47.500
 110463186.689 8  86075234.07748  21020435.560    21020434.120          48.250
        48.000
 119908264.507 7  93435050.68946  22817773.720    22817776.320          44.750
        39.750
 124232692.188 7  96804694.74046  23640695.060    23640694.400          42.500
        36.750
 128542111.053 6 100162693.34746  24460748.680    24460752.320          39.500
        37.000
 128477737.391 6 100112520.73645  24448501.700    24448501.040          39.500
        30.500
 116234289.783 7  90572206.64947  22118633.140    22118632.920          47.000
        43.500
 14  1 10  3 14  0.0000000  0  8G06G31G21G25G16G27G18G29
 122748074.989 7  95647851.35346  23358181.820    23358182.100          42.000
        36.250
 111404729.473 8  86808881.65047  21199614.540    21199613.400          49.500
        47.250
 110450271.291 8  86065170.12848  21017977.840    21017976.420          48.250
        48.000
 119985902.588 7  93495547.88046  22832547.940    22832550.400          44.750
        40.000
 124144875.639 7  96736266.31246  23623984.000    23623983.360          42.000
        36.750
 128462740.986 6 100100846.58146  24445644.800    24445648.660          39.250
        38.750
 128402289.468 6 100053730.15345  24434144.340    24434143.640          38.000
        33.750
 116303691.297 7  90626285.72847  22131839.800    22131839.600          47.000
        43.750
 14  1 10  3 14 30.0000000  0  8G06G31G21G25G16G27G18G29
 122674814.994 6  95590765.69046  23344240.980    23344241.280          41.750
        37.750
 111452594.485 8  86846179.06147  21208722.920    21208721.820          49.250
        47.500
 110437820.183 8  86055467.97348  21015608.460    21015607.060          48.250
        48.000
 120063788.249 7  93556237.99746  22847369.220    22847371.620          44.750
        40.750
 124057099.074 6  96667868.97646  23607280.560    23607279.820          41.500
        36.750
 128383482.345 6 100039086.68446  24430562.320    24430566.240          40.500
        37.500
 128326822.715 6  99994924.91846  24419783.400    24419782.660          39.000
        36.500
 116373183.616 7  90680435.56847  22145063.900    22145063.680          47.500
        43.750
 14  1 10  3 15  0.0000000  0  8G06G31G21G25G16G27G18G29
 122601712.631 7  95533802.84946  23330330.120    23330330.420          42.250
        36.250
 111500960.468 8  86883866.83347  21217926.660    21217925.560          49.750
        47.250
 110425835.660 8  86046129.38748  21013327.880    21013326.460          48.250
        48.000
 120141923.198 7  93617122.36346  22862237.940    22862240.280          44.000
        40.500
 123969365.884 7  96599505.46446  23590585.480    23590584.800          43.250
        36.750
 128304337.461 6  99977415.37446  24415501.560    24415505.340          40.000
        38.250
 128251341.992 6  99936108.76845  24405419.780    24405419.120          39.500
        32.000
 116442767.932 7  90734657.11347  22158305.480    22158305.240          46.750
        43.750
 14  1 10  3 15 30.0000000  0  8G06G31G21G25G16G27G18G29
 122528767.397 7  95476962.45846  23316449.200    23316449.340          42.250
        37.500
 111549825.296 8  86921943.31447  21227225.380    21227224.260          49.500
        47.500
 110414316.919 8  86037153.75348  21011135.880    21011134.460          48.000
        48.000
 120220306.393 7  93678200.16346  22877153.820    22877156.120          44.000
        40.750
 123881676.760 7  96531176.28646  23573898.880    23573898.080          43.000
        36.500
 128225306.003 6  99915832.43746  24400462.260    24400465.980          39.500
        37.250
 128175849.259 6  99877283.25345  24391053.780    24391053.240          39.000
        33.000
 116512443.225 7  90788949.52547  22171564.260    22171564.100          46.750
        44.250
 14  1 10  3 16  0.0000000  0  8G06G31G21G25G16G27G18G29
 122455978.635 6  95420243.97646  23302597.880    23302598.000          41.750
        36.500
 111599186.235 8  86960406.37447  21236618.520    21236617.340          49.500
        47.250
 110403262.928 8  86028540.25848  21009032.340    21009030.980          48.000
        48.250
 120298936.267 7  93739470.17846  22892116.460    22892118.880          43.250
        41.000
 123794032.027 7  96462881.69845  23557220.640    23557219.840          42.750
        34.250
 128146387.126 6  99854337.23945  24385444.360    24385448.060          39.750
        34.500
 128100346.310 6  99818449.74944  24376686.060    24376685.740          40.000
        29.500
 116582207.352 7  90843311.15847  22184840.040    22184839.940          47.000
        44.500
 14  1 10  3 16 30.0000000  0  8G06G31G21G25G16G27G18G29
 122383348.322 7  95363648.94646  23288776.760    23288776.900          42.750
        36.250
 111649043.198 8  86999255.94947  21246106.080    21246104.820          49.500
        47.250
 110392675.314 8  86020290.16948  21007017.560    21007016.220          48.250
        48.000
 120377814.131 7  93800933.43946  22907126.180    22907128.820          43.500
        39.750
 123706435.071 7  96394624.34245  23540551.560    23540550.580          44.000
        34.000
 128067582.874 6  99792931.29646  24370448.180    24370452.040          38.750
        36.750
 128024837.244 6  99759611.55144  24362317.060    24362317.100          39.000
        29.000
 116652061.443 7  90897742.89047  22198132.920    22198132.960          46.750
        43.750
 14  1 10  3 17  0.0000000  0  8G06G31G21G25G16G27G18G29
 122310872.262 7  95307174.10546  23274984.920    23274985.120          42.250
        38.500
 111699390.376 8  87038487.50647  21255686.820    21255685.560          49.500
        47.500
 110382549.536 8  86012399.96048  21005090.660    21005089.360          48.250
        48.250
 120456935.217 7  93862586.22346  22922182.320    22922184.940          43.750
        39.500
 123618883.127 7  96326402.04445  23523891.080    23523889.980          43.250
        34.500
 127988889.130 6  99731611.52646  24355473.200    24355477.080          38.500
        37.750
 127949320.873 6  99700767.59344  24347946.800    24347946.820          39.250
        27.500
 116722000.124 7  90952240.55147  22211441.820    22211441.920          46.750
        43.750
 14  1 10  3 17 30.0000000  0  8G06G31G21G25G16G27G18G29
 122238555.912 7  95250823.74946  23261223.560    23261223.800          43.000
        36.750
 111750231.425 8  87078103.91047  21265361.500    21265360.340          49.500
        47.250
 110372891.298 8  86004874.06348  21003252.760    21003251.500          48.000
        48.000
 120536304.143 7  93924432.11746  22937285.700    22937288.180          44.000
        39.500
 123531382.646 7  96258219.83446  23507240.280    23507239.140          43.000
        36.250
 127910311.418 6  99670382.15445  24340520.160    24340524.080          38.500
        35.750
 127873804.616 6  99641923.84245  24333576.420    24333576.500          38.750
        32.500
 116792027.702 7  91006807.49147  22224767.640    22224767.660          46.750
        43.750
 14  1 10  3 18  0.0000000  0  8G06G31G21G25G16G27G18G29
 122166393.370 7  95194593.19146  23247491.460    23247491.880          42.500
        38.000
 111801558.502 8  87118099.03347  21275128.680    21275127.660          49.500
        47.250
 110363694.080 8  85997707.40548  21001502.600    21001501.340          48.250
        48.000
 120615914.342 7  93986466.02346  22952435.140    22952437.480          44.250
        38.500
 123443929.039 7  96190074.17346  23490598.540    23490597.320          44.250
        37.250
 127831843.764 6  99609238.58145  24325588.160    24325592.240          38.750
        35.250
 127798285.418 6  99583077.68344  24319205.700    24319205.660          39.750
        29.000
 116862137.203 7  91061438.24947  22238109.020    22238108.980          46.750
        44.000
 14  1 10  3 18 30.0000000  0  8G06G31G21G25G16G27G18G29
 122094390.175 7  95138486.84246  23233789.680    23233790.360          42.750
        36.000
 111853375.288 8  87158475.74347  21284989.100    21284988.100          49.500
        47.250
 110354963.109 8  85990904.06048  20999841.160    20999839.900          48.250
        48.250
 120695770.751 7  94048691.78246  22967631.480    22967633.720          44.500
        38.250
 123356529.260 7  96121970.44046  23473967.080    23473965.740          43.500
        37.500
 127753491.842 6  99548185.13246  24310678.180    24310682.380          39.500
        38.250
 127722771.223 6  99524235.50345  24304835.900    24304835.740          40.250
        32.500
 116932333.810 7  91116136.88347  22251466.940    22251466.820          46.250
        44.000
 14  1 10  3 19  0.0000000  0  8G06G31G21G25G16G27G18G29
 122022544.266 7  95082503.02446  23220117.700    23220118.600          42.000
        37.500
 111905677.532 8  87199230.72847  21294941.960    21294940.860          49.500
        47.250
 110346695.871 7  85984462.06548  20998267.960    20998266.680          47.750
        48.250
 120775870.501 7  94111107.15946  22982874.080    22982876.320          44.250
        39.750
 123269182.375 7  96053907.96146  23457345.520    23457344.380          43.500
        37.750
 127675253.566 6  99487220.24146  24295790.080    24295794.440          39.000
        40.000
 127647262.357 6  99465397.42944  24290467.180    24290466.700          41.000
        24.750
 117002614.212 7  91170900.82147  22264840.740    22264840.540          46.000
        43.250
 14  1 10  3 19 30.0000000  0  8G06G31G21G25G16G27G18G29
 121950854.888 6  95026641.16946  23206475.560    23206476.620          41.000
        37.750
 111958462.997 8  87240362.25547  21304986.740    21304985.580          49.500
        47.000
 110338891.368 8  85978380.63848  20996782.800    20996781.540          48.000
        48.000
 120856212.265 7  94173711.11146  22998162.680    22998164.900          44.000
        38.250
 123181889.249 7  95985887.33646  23440734.180    23440733.220          43.000
        39.000
 127597128.391 6  99426343.51846  24280923.580    24280927.720          39.750
        37.750
 127571761.037 6  99406565.23844  24276099.860    24276099.120          40.000
        25.750
 117072976.334 7  91225728.42747  22278230.000    22278229.760          46.000
        42.750
 14  1 10  3 20  0.0000000  0  8G06G31G21G25G16G27G18G29
 121879323.763 6  94970902.63746  23192863.380    23192864.780          41.500
        37.750
 112011731.399 8  87281870.09747  21315123.380    21315122.180          49.500
        47.250
 110331551.046 7  85972660.90848  20995385.960    20995384.720          47.750
        48.250
 120936796.989 7  94236504.40046  23013497.360    23013499.700          43.250
        40.000
 123094652.794 7  95917910.91046  23424133.580    23424132.740          42.500
        37.500
 127519117.962 6  99365556.17146  24266078.840    24266082.900          38.500
        38.750
 127496271.222 6  99347742.05544  24261734.720    24261733.720          40.500
        29.750
 117143421.062 7  91280620.40047  22291635.040    22291634.760          46.000
        43.250
 14  1 10  3 20 30.0000000  0  8G06G31G21G25G16G27G18G29
 121807950.478 6  94915287.10646  23179281.440    23179282.980          41.500
        37.750
 112065480.118 8  87323752.21347  21325351.380    21325350.240          49.250
        47.000
 110324674.288 8  85967302.40648  20994077.360    20994076.080          48.000
        48.250
 121017623.591 7  94299486.15646  23028878.000    23028880.540          43.750
        38.250
 123007474.115 7  95849979.47246  23407543.900    23407543.160          43.000
        36.750
 127441222.014 6  99304858.05045  24251255.860    24251259.800          40.250
        35.750
 127420795.218 6  99288929.57044  24247372.120    24247370.880          39.000
        29.000
 117213947.429 7  91335575.99347  22305055.740    22305055.540          46.500
        43.500
 14  1 10  3 21  0.0000000  0  8G06G31G21G25G16G27G18G29
 121736733.636 6  94859793.47746  23165729.300    23165731.000          41.000
        36.250
 112119705.743 8  87366005.93947  21335670.140    21335669.040          49.750
        46.750
 110318259.061 8  85962303.53248  20992856.560    20992855.280          48.000
        48.250
 121098689.771 7  94362654.60346  23044304.300    23044306.940          43.500
        40.500
 122920353.010 7  95782092.90546  23390965.160    23390964.600          43.250
        36.750
 127363438.929 6  99244247.86446  24236454.460    24236458.040          39.500
        36.000
 127345333.829 6  99230128.49945  24233012.200    24233011.020          40.500
        34.250
 117284552.638 7  91390593.01447  22318491.520    22318491.340          46.750
        42.500
 14  1 10  3 21 30.0000000  0  8G06G31G21G25G16G27G18G29
 121665674.760 6  94804422.95946  23152207.280    23152208.860          41.500
        36.750
 112174408.224 8  87408631.23947  21346079.680    21346078.580          49.500
        47.000
 110312306.693 8  85957665.32748  20991723.840    20991722.540          48.000
        48.000
 121179996.512 7  94426010.49246  23059776.440    23059779.040          43.500
        39.750
 122833292.223 7  95714253.34446  23374398.020    23374397.440          43.000
        37.000
 127285770.514 6  99183727.04546  24221674.920    24221678.120          40.500
        37.250
 127269891.404 6  99171342.18945  24218655.840    24218654.900          39.750
        31.250
 117355237.424 7  91445672.05447  22331942.480    22331942.160          46.000
        42.250
 14  1 10  3 22  0.0000000  0  8G06G31G21G25G16G27G18G29
 121594773.842 7  94749175.50346  23138715.340    23138716.840          42.250
        37.500
 112229585.401 8  87451626.43347  21356579.580    21356578.460          49.500
        47.000
 110306816.545 8  85953387.30048  20990679.100    20990677.760          48.000
        48.000
 121261542.881 7  94489553.09646  23075294.300    23075296.820          44.250
        38.250
 122746293.098 6  95646461.83145  23357842.500    23357841.980          41.750
        35.000
 127208216.558 6  99123295.41946  24206917.200    24206919.920          40.750
        36.500
 127194470.263 6  99112572.44244  24204303.600    24204302.760          40.750
        29.000
 117426000.893 7  91500812.38747  22345408.380    22345407.820          45.750
        43.000
 14  1 10  3 22 30.0000000  0  8G06G31G21G25G16G27G18G29
 121524030.308 7  94694050.70046  23125253.380    23125254.680          42.750
        37.250
 112285234.481 8  87494989.35347  21367169.240    21367168.140          49.250
        47.000
 110301787.789 7  85949468.79648  20989722.200    20989720.800          47.750
        48.250
 121343327.765 7  94553281.56746  23090857.580    23090860.060          43.500
        39.250
 122659356.847 7  95578719.29845  23341299.000    23341298.460          43.000
        35.750
 127130776.821 6  99062952.76846  24192180.940    24192183.480          39.250
        40.000
 127119072.591 6  99053821.02945  24189955.860    24189955.280          40.250
        33.750
 117496841.785 7  91556013.04947  22358889.060    22358888.300          46.500
        42.250
 14  1 10  3 23  0.0000000  0  8G06G31G21G25G16G27G18G29
 121453444.669 7  94639048.93646  23111821.460    23111822.680          43.000
        38.000
 112341353.793 8  87538718.67747  21377848.380    21377847.300          49.250
        47.000
 110297220.406 8  85945909.80347  20988853.060    20988851.660          48.250
        47.750
 121425350.655 7  94617195.49546  23106466.080    23106468.620          43.500
        40.000
 122572485.010 7  95511026.95945  23324767.880    23324767.260          43.500
        34.750
 127053451.544 6  99002699.32646  24177466.340    24177468.860          40.500
        38.750
 127043701.551 6  98995090.31845  24175613.200    24175612.460          39.500
        30.750
 117567759.193 7  91611273.35947  22372384.400    22372383.480          46.750
        42.500
 14  1 10  3 23 30.0000000  0  8G06G31G21G25G16G27G18G29
 121383017.288 7  94584170.47646  23098419.740    23098420.880          43.250
        38.000
 112397941.991 8  87582813.37247  21388616.780    21388615.720          49.500
        46.500
 110293114.565 8  85942710.45548  20988071.780    20988070.340          48.000
        48.250
 121507611.320 7  94681294.72046  23122119.760    23122122.320          42.750
        40.500
 122485679.204 7  95443386.07446  23308249.280    23308248.580          43.750
        36.250
 126976241.449 6  98942535.62646  24162773.820    24162776.280          41.250
        37.250
 126968359.684 6  98936382.43345  24161275.980    24161275.380          40.250
        34.000
 117638752.998 7  91666593.17247  22385894.180    22385893.300          45.750
        42.750
 14  1 10  3 24  0.0000000  0  8G06G31G21G25G16G27G18G29
 121312748.196 7  94529415.35446  23085048.100    23085049.120          43.250
        38.250
 112454996.855 8  87627271.69747  21399474.000    21399472.860          49.500
        46.500
 110289469.084 8  85939869.82648  20987378.060    20987376.620          48.250
        48.250
 121590109.010 7  94745578.61746  23137818.500    23137821.220          43.500
        38.750
 122398941.386 7  95375798.14546  23291743.740    23291742.820          44.000
        36.500
 126899146.198 6  98882461.41046  24148103.120    24148105.520          41.000
        38.500
 126893049.816 6  98877699.40045  24146944.920    24146944.320          39.750
        31.000
 117709822.059 7  91721971.63847  22399418.060    22399417.400          45.750
        42.000
 14  1 10  3 24 30.0000000  0  8G06G31G21G25G16G27G18G29
 121242636.517 7  94474782.91546  23071706.260    23071707.140          43.250
        38.250
 112512515.648 8  87672091.53247  21410419.480    21410418.380          49.250
        46.500
 110286283.419 8  85937387.49648  20986771.840    20986770.400          48.000
        48.250
 121672842.194 7  94810046.02546  23153561.980    23153564.900          42.500
        38.250
 122312272.062 7  95308263.64346  23275251.240    23275250.180          44.500
        36.250
 126822165.315 6  98822476.35246  24133454.240    24133456.360          41.500
        37.000
 126817773.910 6  98819042.85944  24132620.280    24132619.780          40.500
        28.750
 117780964.435 7  91777407.23747  22412956.020    22412955.440          46.250
        42.000
 14  1 10  3 25  0.0000000  0  8G06G31G21G25G16G27G18G29
 121172682.070 7  94420272.97446  23058394.320    23058395.020          43.000
        38.750
 112570496.055 8  87717271.06447  21421452.760    21421451.700          49.250
        46.750
 110283556.765 8  85935262.84348  20986252.980    20986251.500          48.000
        48.250
 121755809.929 7  94874696.19146  23169350.060    23169353.180          42.500
        40.250
 122225672.388 7  95240783.35646  23258772.000    23258770.700          43.500
        37.750
 126745298.663 6  98762580.26846  24118827.000    24118829.100          40.500
        38.750
 126742534.157 6  98760414.48845  24118302.600    24118302.300          41.000
        34.750
 117852180.024 7  91832899.89447  22426507.960    22426507.500          46.250
        43.500
 14  1 10  3 25 30.0000000  0  8G06G31G21G25G16G27G18G29
 121102886.739 7  94365887.00346  23045112.560    23045113.280          43.250
        38.250
 112628937.507 8  87762809.85147  21432573.760    21432572.740          49.250
        46.750
 110281290.084 8  85933496.60448  20985821.680    20985820.140          48.000
        48.000
 121839012.961 7  94939529.71046  23185183.080    23185186.060          43.500
        39.250
 122139145.268 7  95173359.66046  23242306.360    23242305.160          43.000
        40.500
 126668547.622 6  98702774.27646  24104221.880    24104223.920          41.750
        38.000
 126667334.707 6  98701817.50645  24103992.520    24103992.420          40.750
        30.000
 117923469.136 7  91888449.81147  22440073.940    22440073.560          46.750
        42.250
 14  1 10  3 26  0.0000000  0  8G06G31G21G25G16G27G18G29
 121033248.107 7  94311623.15346  23031860.760    23031861.380          43.000
        37.750
 112687835.810 8  87808704.62547  21443781.740    21443780.740          49.500
        46.500
 110279480.841 8  85932086.81048  20985477.380    20985475.840          48.250
        48.250
 121922448.357 7  95004544.28046  23201060.320    23201063.220          43.250
        39.500
 122052690.050 7  95105991.97046  23225854.420    23225853.420          44.000
        39.250
 126591910.263 7  98643056.86646  24089638.400    24089640.280          42.250
        36.500
 126592176.341 6  98643252.53346  24089690.440    24089690.320          41.250
        36.250
 117994828.497 7  91944054.46347  22453653.380    22453652.780          46.250
        42.000
 14  1 10  3 26 30.0000000  0  8G06G31G21G25G16G27G18G29
 120963767.368 7  94257482.33146  23018638.860    23018639.500          42.750
        37.250
 112747189.964 8  87854954.60547  21455076.500    21455075.400          49.250
        46.750
 110278129.600 8  85931033.90248  20985220.280    20985218.680          48.250
        48.000
 122006116.541 7  95069740.25546  23216981.940    23216984.700          43.250
        38.500
 121966309.834 7  95038682.72446  23209416.760    23209416.000          44.000
        39.250
 126515387.803 7  98583429.00946  24075076.880    24075078.560          42.000
        36.750
 126517062.475 6  98584722.23745  24075397.000    24075396.660          41.500
        31.000
 118066258.831 7  91999714.43447  22467246.180    22467245.540          45.750
        42.250
 14  1 10  3 27  0.0000000  0  8G06G31G21G25G16G27G18G29
 120894446.981 7  94203466.46046  23005447.420    23005448.180          42.750
        39.500
 112807000.237 8  87901560.01247  21466458.060    21466456.900          49.250
        46.500
 110277238.402 8  85930339.47048  20985050.700    20985049.120          48.000
        48.250
 122090019.139 7  95135118.88346  23232948.100    23232950.820          43.500
        39.000
 121880007.905 7  94971434.48446  23192994.100    23192993.380          44.250
        38.500
 126438982.653 6  98523892.51146  24060537.420    24060539.220          41.000
        38.500
 126441998.216 6  98526230.60144  24061112.980    24061112.120          41.000
        29.500
 118137761.455 7  92055430.74947  22480852.620    22480852.120          45.500
        42.750
 14  1 10  3 27 30.0000000  0  8G06G31G21G25G16G27G18G29
 120825283.368 7  94149572.77246  22992286.060    22992286.880          43.000
        38.500
 112867261.019 8  87948516.46047  21477925.300    21477924.160          49.250
        46.500
 110276803.009 8  85930000.20948  20984967.840    20984966.300          48.250
        48.000
 122174151.716 7  95200676.73746  23248958.180    23248960.880          43.500
        37.750
 121793782.351 7  94904245.75246  23176586.040    23176585.260          44.000
        38.250
 126362691.307 6  98464444.71346  24046019.540    24046021.400          41.000
        37.750
 126366982.763 6  98467777.00445  24046838.080    24046837.140          41.500
        34.500
 118209332.103 7  92111200.08147  22494471.800    22494471.700          45.250
        43.000
 14  1 10  3 28  0.0000000  0  8G06G31G21G25G16G27G18G29
 120756279.224 7  94095803.30946  22979155.040    22979155.980          43.500
        37.500
 112927972.580 8  87995824.17047  21489478.280    21489477.200          49.000
        46.750
 110276825.277 8  85930017.56448  20984972.040    20984970.540          48.000
        48.250
 122258516.150 7  95266415.25946  23265012.240    23265015.020          43.000
        38.750
 121707637.411 7  94837119.82146  23160193.180    23160192.300          43.250
        37.500
 126286516.407 6  98405087.66245  24031523.800    24031525.700          40.500
        34.250
 126292021.277 6  98409365.43145  24032573.340    24032572.300          41.250
        32.000
 118280972.683 7  92167023.89047  22508104.260    22508104.680          45.250
        43.000
 14  1 10  3 28 30.0000000  0  8G06G31G21G25G16G27G18G29
 120687432.852 7  94042156.82246  22966054.080    22966055.140          43.500
        39.000
 112989131.020 8  88043480.08447  21501116.300    21501115.240          49.250
        46.500
 110277303.046 8  85930389.85448  20985062.920    20985061.480          48.000
        48.250
 122343110.042 7  95332332.55346  23281109.940    23281112.840          43.750
        38.000
 121621572.886 7  94770056.57146  23143815.560    23143814.560          42.500
        37.750
 126210456.332 6  98345820.09246  24017049.880    24017051.680          41.250
        36.750
 126217114.593 6  98350996.59345  24018319.020    24018317.840          41.000
        30.500
 118352680.364 7  92222899.96347  22521749.720    22521750.300          46.000
        43.000
 14  1 10  3 29  0.0000000  0  8G06G31G21G25G16G27G18G29
 120618745.768 7  93988634.43646  22952983.360    22952984.560          43.750
        39.250
 113050735.800 8  88091483.80347  21512839.320    21512838.220          49.250
        46.500
 110278237.155 8  85931117.73348  20985240.640    20985239.220          48.000
        48.000
 122427933.934 7  95398429.08446  23297251.420    23297254.240          44.000
        36.750
 121535591.911 7  94703058.43646  23127453.680    23127452.760          42.500
        37.000
 126134512.554 6  98286643.13046  24002598.080    24002600.040          41.500
        36.500
 126142266.910 6  98292673.72345  24004075.940    24004074.820          41.250
        33.500
 118424456.029 7  92278829.03047  22535408.200    22535408.900          45.500
        42.500
 14  1 10  3 29 30.0000000  0  8G06G31G21G25G16G27G18G29
 120550215.152 7  93935233.98146  22939942.480    22939943.580          43.500
        39.500
 113112781.907 8  88139831.41547  21524646.340    21524645.220          49.000
        46.500
 110279624.056 8  85932198.44447  20985504.600    20985503.100          48.250
        47.500
 122512984.082 7  95464701.92046  23313435.940    23313438.620          42.750
        36.750
 121449693.404 7  94636124.51346  23111107.620    23111106.760          43.500
        38.000
 126058682.219 6  98227554.54546  23988167.960    23988169.940          40.500
        38.750
 126067478.089 6  98234396.70545  23989844.180    23989842.940          40.500
        33.000
 118496296.292 7  92334808.41947  22549078.980    22549079.700          45.750
        42.000
 14  1 10  3 30  0.0000000  0  8G06G31G21G25G16G27G18G29
 120481844.119 7  93881957.86546  22926931.820    22926932.880          43.250
        39.250
 113175270.085 8  88188523.49447  21536537.440    21536536.340          49.000
        46.250
 110281466.154 8  85933633.84448  20985855.180    20985853.620          48.250
        48.250
 122598262.945 7  95531152.98646  23329663.820    23329666.500          42.750
        38.000
 121363881.607 7  94569258.19446  23094778.140    23094777.300          44.500
        36.250
 125982968.595 6  98168556.91445  23973760.060    23973761.960          41.750
        35.500
 125992753.952 6  98176170.10945  23975624.680    23975623.540          41.500
        32.000
 118568203.696 7  92390840.12747  22562762.620    22562763.240          45.750
        42.750
 14  1 10  3 30 30.0000000  0  8G06G31G21G25G16G27G18G29
 120413629.502 7  93828803.64346  22913950.960    22913952.040          43.500
        39.000
 113238194.889 8  88237555.80647  21548511.580    21548510.580          49.000
        46.250
 110283760.106 8  85935421.34148  20986291.740    20986290.100          48.000
        48.000
 122683766.526 7  95597779.14546  23345934.500    23345937.200          43.250
        36.500
 121278155.330 7  94502458.48246  23078465.140    23078464.140          45.250
        36.500
 125907368.525 6  98109647.80946  23959374.000    23959375.660          41.500
        37.750
 125918093.729 6  98117993.28145  23961417.260    23961416.440          39.750
        34.750
 118640173.848 7  92446920.73047  22576458.240    22576458.720          45.750
        43.000
 14  1 10  3 31  0.0000000  0  8G06G31G21G25G16G27G18G29
 120345572.878 7  93775772.50746  22901000.180    22901001.220          43.500
        39.000
 113301555.795 8  88286927.93747  21560568.700    21560567.760          48.750
        46.000
 110286506.450 7  85937561.36048  20986814.340    20986812.700          47.750
        48.500
 122769495.464 7  95664580.90746  23362248.240    23362250.860          43.250
        36.500
 121192517.207 7  94435727.47546  23062168.980    23062167.720          45.500
        36.500
 125831883.635 7  98050828.41846  23945009.880    23945011.440          42.000
        36.500
 125843501.675 6  98059869.61945  23947222.780    23947222.420          40.000
        34.250
 118712207.481 7  92503050.80947  22590166.020    22590166.360          46.250
        42.750
 14  1 10  3 31 30.0000000  0  8G06G31G21G25G16G27G18G29
 120277674.958 7  93722865.08046  22888079.600    22888080.720          43.000
        40.500
 113365351.334 8  88336638.74247  21572708.600    21572707.600          49.000
        46.250
 110289706.042 8  85940054.55548  20987423.140    20987421.580          48.000
        48.250
 122855449.854 7  95731558.34546  23378604.960    23378607.400          42.750
        36.500
 121106970.140 7  94369067.41746  23045890.100    23045888.620          44.750
        37.750
 125756514.747 7  97992099.42946  23930667.840    23930669.340          42.250
        38.000
 125768981.170 6  98001801.69945  23933041.860    23933041.660          39.500
        34.000
 118784305.282 7  92559230.88847  22603886.040    22603886.160          46.000
        42.250
 14  1 10  3 32  0.0000000  0  8G06G31G21G25G16G27G18G29
 120209937.338 7  93670082.54046  22875189.500    22875190.680          42.750
        39.000
 113429580.685 8  88386687.58147  21584931.060    21584930.000          48.750
        46.000
 110293358.767 7  85942900.83648  20988118.140    20988116.680          47.750
        48.250
 122941630.110 6  95798711.78846  23395004.580    23395006.800          41.750
        38.000
 121021516.784 7  94302480.38446  23029628.880    23029627.280          45.000
        37.500
 125681263.267 7  97933461.91246  23916348.000    23916349.480          42.250
        38.500
 125694536.622 6  97943792.96545  23918875.520    23918875.140          40.750
        33.500
 118856467.395 7  92615461.05446  22617618.160    22617618.100          45.500
        41.500
 14  1 10  3 32 30.0000000  0  8G06G31G21G25G16G27G18G29
 120142358.389 7  93617423.65546  22862329.720    22862330.820          43.500
        38.500
 113494239.902 8  88437071.37247  21597235.340    21597234.200          49.000
        46.250
 110297462.766 7  85946098.76148  20988899.080    20988897.660          47.750
        48.000
 123028033.905 7  95866039.40646  23411446.700    23411448.940          42.250
        36.500
 120936157.251 7  94235966.46246  23013385.560    23013383.880          45.000
        37.000
 125606127.760 6  97874914.76846  23902050.140    23902051.600          41.250
        37.500
 125620169.121 6  97885844.26845  23904723.700    23904723.420          40.500
        33.500
 118928691.959 7  92671739.88047  22631362.020    22631361.880          45.000
        42.250
 14  1 10  3 33  0.0000000  0  8G06G31G21G25G16G27G18G29
 120074938.110 7  93564888.37746  22849500.140    22849501.280          43.250
        39.500
 113559326.641 8  88487788.30547  21609620.980    21609619.860          49.000
        46.250
 110302017.026 7  85949647.54048  20989765.700    20989764.340          47.750
        48.000
 123114660.262 6  95933540.47746  23427931.000    23427933.440          41.500
        38.000
 120850893.126 7  94169526.87646  22997160.300    22997158.580          45.000
        36.500
 125531108.098 7  97816457.90946  23887774.340    23887775.800          42.750
        37.500
 125545881.054 6  97827957.48245  23890587.100    23890586.820          40.000
        35.250
 119000977.925 7  92728066.58046  22645117.500    22645117.280          45.500
        41.750
 14  1 10  3 33 30.0000000  0  8G06G31G21G25G16G27G18G29
 120007675.445 7  93512475.91946  22836700.520    22836701.660          43.500
        39.750
 113624837.529 8  88538835.74447  21622087.320    21622086.240          48.750
        46.000
 110307020.380 8  85953546.26548  20990717.780    20990716.420          48.000
        48.250
 123201507.408 7  96001213.56646  23444457.340    23444460.060          42.000
        38.750
 120765725.158 7  94103162.23246  22980953.280    22980951.640          44.000
        37.000
 125456203.419 6  97758090.63346  23873520.460    23873521.860          41.750
        38.000
 125471674.010 6  97770133.80745  23876466.020    23876465.680          41.500
        35.500
 119073323.520 7  92784439.76346  22658884.320    22658883.960          45.500
        41.500
 14  1 10  3 34  0.0000000  0  8G06G31G21G25G16G27G18G29
 119940572.584 7  93460187.99946  22823931.280    22823932.320          43.250
        39.250
 113690772.209 8  88590213.41147  21634634.300    21634633.200          49.000
        45.750
 110312473.575 7  85957795.51248  20991755.460    20991754.100          47.750
        48.500
 123288576.401 6  96069059.53346  23461025.940    23461028.840          41.500
        39.750
 120680657.030 7  94036875.39346  22964765.120    22964763.600          43.500
        38.500
 125381415.720 6  97699814.51046  23859288.740    23859290.080          41.500
        38.000
 125397552.867 6  97712377.05845  23862361.340    23862360.980          41.250
        33.750
 119145730.111 7  92840860.45246  22672662.760    22672662.240          45.000
        41.000
 14  1 10  3 34 30.0000000  0  8G06G31G21G25G16G27G18G29
 119873627.071 7  93408022.69146  22811192.040    22811192.980          43.750
        38.750
 113757125.958 8  88641917.63147  21647261.000    21647259.920          48.750
        46.250
 110318373.414 8  85962392.79148  20992878.140    20992876.760          48.000
        48.250
 123375863.886 6  96137075.74846  23477636.100    23477639.120          41.500
        38.500
 120595687.702 7  93970665.53746  22948595.800    22948594.500          44.250
        36.750
 125306742.486 7  97641627.60346  23845078.820    23845080.220          42.000
        38.750
 125323517.718 6  97654687.31945  23848273.000    23848272.780          41.000
        33.750
 119218195.061 7  92897326.59646  22686452.300    22686451.780          45.000
        41.500
 14  1 10  3 35  0.0000000  0  8G06G31G21G25G16G27G18G29
 119806839.711 7  93355980.61746  22798482.840    22798483.820          43.750
        39.250
 113823897.539 8  88693947.42247  21659967.220    21659966.100          48.750
        45.750
 110324720.301 7  85967338.42648  20994085.900    20994084.500          47.750
        48.000
 123463370.011 7  96205262.33346  23494287.980    23494290.880          42.000
        38.500
 120510819.962 7  93904534.84146  22932445.900    22932444.900          44.250
        38.000
 125232184.907 7  97583530.81146  23830891.060    23830892.440          42.250
        38.250
 125249572.285 6  97597067.50145  23834201.720    23834201.520          41.750
        35.750
 119290718.226 7  92953838.09646  22700253.000    22700252.560          45.500
        41.750
 14  1 10  3 35 30.0000000  0  8G06G31G21G25G16G27G18G29
 119740210.693 7  93304061.92346  22785803.760    22785804.740          44.750
        39.750
 113891084.584 8  88746300.95847  21672752.480    21672751.280          49.000
        45.750
 110331513.359 7  85972631.72248  20995378.560    20995377.180          47.750
        48.250
 123551094.021 6  96273618.68046  23510981.360    23510984.060          41.750
        37.500
 120426055.473 7  93838484.58146  22916315.760    22916314.920          44.500
        38.750
 125157743.097 7  97525524.22646  23816725.200    23816726.760          42.250
        38.500
 125175719.698 6  97539520.05345  23820148.080    23820147.620          41.500
        33.750
 119363299.318 7  93010394.75246  22714064.800    22714064.260          45.500
        41.750
 14  1 10  3 36  0.0000000  0  8G06G31G21G25G16G27G18G29
 119673740.131 7  93252266.70846  22773154.940    22773155.620          44.000
        39.500
 113958684.577 8  88798976.26947  21685616.340    21685615.140          48.750
        46.000
 110338752.002 7  85978272.22948  20996756.020    20996754.680          47.750
        48.250
 123639035.022 6  96342144.14946  23527715.940    23527718.560          41.500
        37.500
 120341396.131 7  93772516.28046  22900205.600    22900204.940          44.500
        39.750
 125083417.112 6  97467607.92846  23802581.440    23802583.240          41.500
        38.000
 125101961.991 7  97482046.49945  23806112.500    23806111.820          42.000
        32.500
 119435937.348 7  93066995.79146  22727887.380    22727886.880          45.250
        41.000
 14  1 10  3 36 30.0000000  0  8G06G31G21G25G16G27G18G29
 119607428.717 7  93200595.51146  22760536.180    22760536.800          44.000
        40.250
 114026696.240 8  88851972.36947  21698558.580    21698557.420          48.750
        46.250
 110346436.191 8  85984259.91348  20998218.280    20998216.920          48.000
        48.500
 123727192.871 6  96410838.56346  23544491.820    23544494.380          40.750
        36.250
 120256844.371 7  93706631.79346  22884115.960    22884115.340          44.750
        39.000
 125009207.719 7  97409782.45746  23788459.920    23788461.540          42.250
        37.750
 125028302.926 7  97424649.80445  23792095.860    23792094.900          42.500
        33.000
 119508632.797 7  93123641.57546  22741720.860    22741720.380          44.750
        41.250
 14  1 10  3 37  0.0000000  0  8G06G31G21G25G16G27G18G29
 119541275.842 7  93149047.83146  22747947.640    22747948.280          44.250
        40.500
 114095116.258 8  88905286.66747  21711578.460    21711577.500          48.750
        46.250
 110354564.244 8  85990593.46948  20999765.060    20999763.680          48.000
        48.500
 123815565.833 6  96479700.59946  23561308.620    23561311.300          41.500
        37.000
 120172400.901 7  93640831.69146  22868047.060    22868046.320          44.750
        39.500
 124935114.052 6  97352047.15946  23774360.260    23774361.960          41.000
        38.250
 124954744.384 6  97367331.47545  23778098.320    23778097.160          41.750
        33.500
 119581384.141 7  93180330.88146  22755564.920    22755564.500          44.750
        40.750
 14  1 10  3 37 30.0000000  0  8G06G31G21G25G16G27G18G29
 119475283.188 7  93097625.00046  22735389.680    22735390.320          44.750
        40.250
 114163944.074 8  88958918.72647  21724675.960    21724675.060          48.750
        46.000
 110363137.366 8  85997273.83048  21001396.500    21001395.060          48.000
        48.250
 123904154.735 6  96548730.90846  23578166.620    23578169.280          41.000
        38.000
 120088069.246 7  93575118.76446  22851999.380    22851998.580          44.500
        39.250
 124861138.090 6  97294403.56946  23760282.840    23760284.860          41.250
        37.000
 124881290.923 6  97310095.01745  23764120.580    23764119.360          41.250
        35.000
 119654192.368 7  93237064.52446  22769419.860    22769419.500          45.000
        41.250
 14  1 10  3 38  0.0000000  0  8G06G31G21G25G16G27G18G29
 119409447.321 7  93046324.34846  22722861.540    22722862.160          44.750
        41.000
 114233173.754 8  89012863.92047  21737849.940    21737849.000          48.750
        45.250
 110372151.371 7  86004297.73448  21003111.820    21003110.400          47.750
        48.500
 123992955.304 6  96617926.15746  23595064.940    23595067.480          40.750
        39.500
 120003847.812 7  93509491.68946  22835972.640    22835971.760          44.500
        40.250
 124787276.291 6  97236848.95946  23746227.240    23746229.480          41.750
        36.500
 124807941.503 6  97252939.58446  23750162.520    23750161.220          41.750
        36.250
 119727053.609 7  93293839.47146  22783285.020    22783284.660          45.750
        40.500
 14  1 10  3 38 30.0000000  0  8G06G31G21G25G16G27G18G29
 119343770.744 7  92995147.81646  22710363.760    22710364.360          45.000
        40.750
 114302805.388 8  89067122.33747  21751100.400    21751099.380          48.500
        45.500
 110381607.515 8  86011666.16448  21004911.300    21004909.900          48.000
        48.250
 124081969.186 6  96687287.60746  23612003.840    23612006.320          40.750
        38.500
 119919740.890 7  93443953.84846  22819967.620    22819966.700          44.750
        38.500
 124713531.454 6  97179385.48846  23732193.920    23732196.360          41.500
        39.500
 124734701.695 7  97195869.62345  23736225.320    23736223.940          42.000
        33.000
 119799969.606 7  93350657.09546  22797160.800    22797160.200          45.750
        41.000
