     2.11           OBSERVATION DATA    G (GPS)             RINEX VERSION / TYPE
teqc  2015Nov6                          20161009 21:29:56UTCPGM / RUN BY / DATE
Linux2.4.20-8|i386|gcc|Win32-MinGW32|=                      COMMENT
BIT 2 OF LLI FLAGS DATA COLLECTED UNDER A/S CONDITION       COMMENT
-Unknown-                                                   MARKER NAME
-Unknown-           -Unknown-                               OBSERVER / AGENCY
462405              LEICA GRX1200PRO    8.20/2.127          REC # / TYPE / VERS
                    LEIAT504        NONE                    ANT # / TYPE
  5106717.8077   270605.9299  3799529.1809                  APPROX POSITION XYZ
        0.0770        0.0000        0.0000                  ANTENNA: DELTA H/E/N
     1     1                                                WAVELENGTH FACT L1/2
     6    L1    L2    C1    P2    S1    S2                  # / TYPES OF OBSERV
    30.0000                                                 INTERVAL
SPIDER                                                      COMMENT
Made by Spider v4.0.0                                       COMMENT
Project creator:                                            COMMENT
                                                            COMMENT
 SNR is mapped to RINEX snr flag value [0-9]                COMMENT
  L1 & L2: min(max(int(snr_dBHz/6), 0), 9)                  COMMENT
  2014     1     8     0     0    0.0000000     GPS         TIME OF FIRST OBS
                                                            END OF HEADER
 14  1  8  0  0  0.0000000  0  6G02G24G25G14G29G12
 122250006.508 7  95259733.03446  23263402.680    23263400.700          44.250
        39.500
 115578254.842 7  90061018.95047  21993799.060    21993801.960          46.750
        44.750
 109195550.130 8  85087489.78448  20779212.380    20779214.420          49.750
        48.250
 113991890.603 7  88824860.31947  21691936.800    21691936.020          47.250
        43.750
 111128470.703 8  86593631.36647  21147033.060    21147033.060          49.500
        47.000
 110476087.031 8  86085305.63647  21022882.640    21022881.980          50.000
        47.750
 14  1  8  0  0 30.0000000  0  6G02G24G25G14G29G12
 122224409.062 7  95239787.00546  23258531.800    23258529.540          44.500
        39.500
 115651301.138 7  90117938.13447  22007699.340    22007702.180          46.750
        44.500
 109175353.647 8  85071752.25948  20775369.140    20775371.200          50.000
        48.250
 113981071.299 7  88816429.68147  21689877.980    21689877.200          47.250
        43.500
 111055181.083 8  86536522.59547  21133086.620    21133086.580          49.250
        47.250
 110517955.512 8  86117930.42647  21030849.960    21030849.200          49.750
        47.750
 14  1  8  0  1  0.0000000  0  6G02G24G25G14G29G12
 122199254.192 7  95220185.81846  23253745.100    23253742.560          44.500
        38.750
 115724681.389 7  90175117.51947  22021663.200    22021665.900          47.000
        44.000
 109155400.755 8  85056204.56348  20771572.300    20771574.280          50.000
        48.250
 113970850.852 7  88808465.70247  21687933.060    21687932.380          47.250
        43.000
 110982329.822 8  86479755.39147  21119223.560    21119223.420          49.500
        47.250
 110560008.016 8  86150698.60147  21038852.280    21038851.520          49.750
        47.750
 14  1  8  0  1 30.0000000  0  7G02G31G24G25G14G29G12
 122174531.053 7  95200921.04246  23249040.580    23249037.920          44.250
        39.250
 129376292.414 6 100812697.53945  24619490.100    24619490.840          36.000
        32.500
 115798382.276 7  90232546.78047  22035688.140    22035690.680          46.750
        44.750
 109135678.841 8  85040836.84648  20767819.420    20767821.320          50.000
        48.250
 113961217.347 7  88800959.06747  21686099.820    21686099.160          47.500
        43.250
 110909906.092 8  86423321.33747  21105441.840    21105441.580          49.250
        47.250
 110602231.577 8  86183600.05447  21046887.220    21046886.400          50.000
        47.750
 14  1  8  0  2  0.0000000  0  7G02G31G24G25G14G29G12
 122150269.408 7  95182015.88146  23244423.780    23244421.120          45.000
        40.750
 129281709.143 6 100738996.29845  24601491.400    24601491.620          36.250
        35.250
 115872431.738 7  90290247.64947  22049779.400    22049781.880          46.750
        44.500
 109116215.877 8  85025670.89848  20764115.760    20764117.680          50.000
        48.250
 113952199.388 7  88793932.07847  21684383.780    21684383.160          47.500
        43.250
 110837939.934 8  86367243.82747  21091747.180    21091746.820          49.500
        47.250
 110644653.857 8  86216656.36247  21054960.020    21054959.020          50.000
        47.500
 14  1  8  0  2 30.0000000  0  7G02G31G24G25G14G29G12
 122126411.321 7  95163425.16046  23239883.600    23239881.180          44.500
        40.500
 129187088.714 6 100665266.14045  24583485.800    24583485.300          38.000
        34.000
 115946769.015 7  90348172.78447  22063925.340    22063927.860          46.500
        44.000
 109096951.946 8  85010660.05748  20760449.960    20760451.860          50.000
        48.000
 113943737.367 7  88787338.28747  21682773.460    21682772.860          47.500
        43.000
 110766373.128 8  86311477.50347  21078128.460    21078128.040          49.500
        47.250
 110687214.282 8  86249820.30947  21063059.120    21063057.840          50.000
        47.250
 14  1  8  0  3  0.0000000  0  7G02G31G24G25G14G29G12
 122102991.446 7  95145175.92346  23235426.760    23235424.500          44.000
        40.500
 129092466.101 6 100591534.27145  24565479.740    24565478.460          38.250
        33.250
 116021426.511 7  90406347.44347  22078132.180    22078134.700          46.500
        43.500
 109077920.137 8  84995830.08248  20756828.340    20756830.120          50.000
        48.000
 113935865.072 7  88781204.03747  21681275.400    21681274.760          47.000
        43.250
 110695240.720 8  86256049.66447  21064592.340    21064591.980          49.500
        47.500
 110729945.169 8  86283117.10248  21071190.660    21071189.220          49.750
        48.000
 14  1  8  0  3 30.0000000  0  7G02G31G24G25G14G29G12
 122080008.601 7  95127267.22946  23231053.200    23231050.960          44.250
        40.500
 128997839.889 6 100517799.55045  24547473.080    24547471.260          39.000
        32.000
 116096400.811 7  90464768.97047  22092399.260    22092401.840          46.250
        44.000
 109059117.362 8  84981178.58048  20753250.340    20753252.000          50.250
        48.250
 113928579.501 7  88775526.96547  21679888.980    21679888.300          47.500
        43.500
 110624541.499 8  86200959.37347  21051138.600    21051138.380          49.250
        47.500
 110772843.537 8  86316544.39247  21079353.900    21079352.640          49.750
        47.750
 14  1  8  0  4  0.0000000  0  7G02G31G24G25G14G29G12
 122057467.697 7  95109702.90446  23226763.800    23226761.440          43.750
        39.750
 128903214.735 6 100444065.68445  24529466.500    24529464.760          38.500
        30.750
 116171694.565 7  90523439.42547  22106727.100    22106729.740          45.750
        44.500
 109040546.758 8  84966707.98948  20749716.480    20749718.200          50.000
        48.500
 113921884.352 7  88770309.96647  21678614.900    21678614.240          47.000
        43.250
 110554280.369 8  86146210.46147  21037768.200    21037768.200          49.250
        47.750
 110815911.987 8  86350104.20047  21087549.480    21087548.360          49.750
        47.500
 14  1  8  0  4 30.0000000  0  7G02G31G24G25G14G29G12
 122035369.248 7  95092483.34646  23222558.540    23222556.180          44.250
        40.250
 128808591.074 6 100370332.92745  24511460.180    24511458.780          38.750
        33.500
 116247305.915 7  90582357.35647  22121115.340    22121118.080          46.250
        44.000
 109022207.123 8  84952417.37548  20746226.540    20746228.360          50.000
        48.500
 113915778.498 7  88765552.15147  21677453.000    21677452.320          47.500
        43.250
 110484457.832 8  86091803.28048  21024481.320    21024481.460          49.250
        48.000
 110859148.708 8  86383795.14847  21095777.160    21095775.980          50.000
        47.250
 14  1  8  0  5  0.0000000  0  7G02G31G24G25G14G29G12
 122013712.918 7  95075608.30246  23218437.480    23218435.120          44.500
        39.750
 128713969.042 6 100296601.44446  24493454.100    24493453.100          38.250
        36.250
 116323232.396 7  90641520.83447  22135563.660    22135566.400          46.750
        44.250
 109004096.636 8  84938305.32448  20742780.140    20742782.080          50.000
        48.750
 113910261.055 7  88761252.84347  21676403.060    21676402.480          47.500
        43.500
 110415074.164 8  86037738.09247  21011278.100    21011278.220          49.750
        47.750
 110902551.294 8  86417615.32848  21104036.460    21104035.260          49.750
        48.000
 14  1  8  0  5 30.0000000  0  7G02G31G24G25G14G29G12
 121992500.022 7  95059078.78946  23214400.840    23214398.480          45.000
        40.500
 128619349.596 6 100222872.00846  24475448.620    24475447.820          39.500
        37.750
 116399472.661 7  90700928.82847  22150071.780    22150074.340          46.500
        43.750
 108986214.568 8  84924371.24248  20739377.260    20739379.240          50.250
        48.250
 113905331.343 7  88757411.49247  21675465.020    21675464.440          47.500
        43.000
 110346130.151 8  85984015.50947  20998158.600    20998158.600          49.750
        47.750
 110946118.720 8  86451563.96447  21112327.060    21112326.020          49.750
        47.750
 14  1  8  0  6  0.0000000  0  7G02G31G24G25G14G29G12
 121971731.194 7  95042895.30146  23210448.700    23210446.460          44.750
        40.250
 128524733.502 6 100149145.21245  24457443.920    24457443.020          40.250
        34.750
 116476025.419 7  90760580.32847  22164639.420    22164641.820          46.500
        43.750
 108968560.019 8  84910614.45548  20736017.740    20736019.720          50.250
        48.500
 113900988.248 7  88754027.25847  21674638.560    21674637.960          47.250
        42.750
 110277626.546 8  85930636.08547  20985122.880    20985122.780          49.750
        47.750
 110989849.354 8  86485639.77547  21120648.720    21120647.820          50.000
        47.500
 14  1  8  0  6 30.0000000  0  7G02G31G24G25G14G29G12
 121951410.610 7  95027061.08446  23206581.860    23206579.660          44.750
        41.250
 128430124.965 6 100075424.26845  24439440.760    24439439.640          40.750
        32.500
 116552892.100 7  90820476.42747  22179266.740    22179269.140          46.000
        44.000
 108951135.440 8  84897036.86548  20732702.020    20732703.880          50.250
        48.250
 113897235.172 7  88751102.78847  21673924.300    21673923.860          47.250
        43.000
 110209567.476 8  85877603.06147  20972171.720    20972171.520          49.750
        47.500
 111033745.711 8  86519844.72047  21129001.960    21129001.080          50.000
        47.250
 14  1  8  0  7  0.0000000  0  7G02G31G24G25G14G29G12
 121931537.288 7  95011575.39146  23202800.160    23202797.800          44.750
        40.500
 128335523.569 6 100001708.92345  24421438.920    24421437.640          40.000
        35.750
 116630069.987 7  90880615.02547  22193953.200    22193955.700          46.000
        44.000
 108933938.329 8  84883636.52148  20729429.560    20729431.340          50.000
        48.500
 113894069.318 7  88748635.88747  21673321.820    21673321.420          47.500
        43.250
 110141952.269 8  85824915.89448  20959304.960    20959304.680          49.750
        48.000
 111077804.835 8  86554176.49247  21137386.140    21137385.120          49.750
        47.500
 14  1  8  0  7 30.0000000  0  7G02G31G24G25G14G29G12
 121912115.618 7  94996441.65046  23199104.440    23199101.840          45.250
        39.750
 128240934.042 6  99928002.80045  24403439.160    24403437.900          39.750
        31.000
 116707560.879 7  90940997.52947  22208699.200    22208701.840          46.000
        43.500
 108916971.483 8  84870415.59848  20726200.900    20726202.580          50.250
        48.500
 113891494.311 7  88746629.38447  21672831.840    21672831.460          47.500
        43.250
 110074785.483 8  85772578.15448  20946523.500    20946523.220          49.500
        48.000
 111122028.707 8  86588636.64847  21145801.660    21145800.600          49.750
        47.500
 14  1  8  0  8  0.0000000  0  7G02G31G24G25G14G29G12
 121893146.169 7  94981660.27646  23195494.740    23195492.060          44.750
        39.750
 128146356.620 6  99854306.09245  24385441.580    24385440.340          40.500
        33.500
 116785363.059 7  91001622.58947  22223504.380    22223507.180          45.500
        43.750
 108900233.882 8  84857373.31748  20723015.840    20723017.480          50.000
        48.500
 113889508.751 7  88745082.18447  21672454.040    21672453.620          47.750
        43.250
 110008067.996 8  85720590.50748  20933827.560    20933827.280          49.750
        48.250
 111166416.174 8  86623224.26447  21154248.220    21154247.380          49.500
        47.750
 14  1  8  0  8 30.0000000  0  7G02G31G24G25G14G29G12
 121874627.705 7  94967230.32746  23191970.700    23191968.200          44.000
        40.750
 128051790.468 6  99780618.18945  24367446.200    24367444.920          41.750
        35.250
 116863473.548 7  91062487.89647  22238368.240    22238371.180          45.750
        43.750
 108883722.650 8  84844507.41848  20719873.840    20719875.520          50.250
        48.500
 113888110.562 7  88743992.67447  21672188.140    21672187.560          47.750
        43.500
 109941798.315 8  85668951.78248  20921216.860    20921216.600          49.750
        48.000
 111210963.866 8  86657936.74947  21162725.320    21162724.560          49.750
        47.500
 14  1  8  0  9  0.0000000  0  7G02G31G24G25G14G29G12
 121856561.632 7  94953152.88146  23188532.660    23188530.480          44.500
        40.500
 127957237.219 7  99706940.35545  24349453.300    24349451.880          42.750
        33.750
 116941890.796 7  91123592.23647  22253290.580    22253293.580          45.750
        43.500
 108867437.610 8  84831817.77748  20716774.860    20716776.620          50.000
        48.500
 113887298.757 7  88743360.09247  21672033.780    21672033.100          47.500
        43.500
 109875977.814 8  85617663.09248  20908691.620    20908691.420          49.750
        48.250
 111255671.325 8  86692773.73047  21171232.840    21171232.000          49.500
        46.750
 14  1  8  0  9 30.0000000  0  7G02G31G24G25G14G29G12
 121838949.993 7  94939429.53646  23185181.100    23185179.160          44.000
        41.500
 127862699.506 7  99633274.61746  24331463.340    24331462.000          42.750
        36.000
 117020615.439 7  91184936.08547  22268271.480    22268274.460          45.750
        43.250
 108851379.473 8  84819304.96348  20713719.060    20713720.880          50.000
        48.750
 113887074.438 7  88743185.30047  21671991.180    21671990.380          47.500
        43.000
 109810608.764 8  85566726.17248  20896252.220    20896252.100          49.250
        48.250
 111300538.478 8  86727735.14347  21179770.700    21179769.800          49.500
        47.250
 14  1  8  0 10  0.0000000  0  7G02G31G24G25G14G29G12
 121821794.606 7  94926061.71346  23181916.560    23181914.520          44.500
        40.500
 127768179.102 7  99559622.38946  24313476.660    24313475.400          43.000
        36.250
 117099646.516 7  91246518.73947  22283310.680    22283313.560          45.500
        43.250
 108835548.368 8  84806969.04348  20710706.400    20710708.340          50.000
        48.750
 113887438.112 7  88743468.67847  21672060.360    21672059.560          47.500
        43.500
 109745693.553 8  85516142.89948  20883899.140    20883899.140          49.500
        48.250
 111345565.540 8  86762821.17147  21188339.040    21188338.100          49.500
        47.000
 14  1  8  0 10 30.0000000  0  7G02G31G24G25G14G29G12
 121805097.107 7  94913050.69746  23178739.220    23178736.900          44.750
        39.500
 127673678.059 7  99485985.22346  24295493.660    24295492.480          42.500
        36.750
 117178983.763 7  91308339.95647  22298408.060    22298410.840          45.750
        43.000
 108819944.578 8  84794810.24448  20707737.040    20707739.000          50.000
        48.750
 113888389.962 7  88744210.36547  21672241.520    21672240.700          47.500
        43.000
 109681233.399 8  85465914.23448  20871632.720    20871632.780          49.750
        48.250
 111390751.691 8  86798031.15247  21196937.760    21196936.720          49.500
        47.000
 14  1  8  0 11  0.0000000  0  7G02G31G24G25G14G29G12
 121788858.293 7  94900397.08446  23175649.160    23175646.580          44.500
        38.750
 127579197.524 7  99412364.04946  24277514.560    24277513.340          43.000
        36.000
 117258625.423 7  91370398.37847  22313563.360    22313566.180          46.000
        43.000
 108804567.469 8  84782828.09248  20704810.880    20704812.780          50.250
        48.500
 113889929.107 7  88745409.69347  21672534.440    21672533.560          47.750
        43.500
 109617229.363 8  85416040.97848  20859453.140    20859453.200          49.750
        48.250
 111436096.288 8  86833364.59947  21205566.580    21205565.480          49.500
        46.750
 14  1  8  0 11 30.0000000  0  7G02G31G24G25G14G29G12
 121773080.154 7  94888102.43346  23172646.660    23172644.060          44.250
        40.250
 127484739.896 7  99338760.72546  24259539.740    24259538.360          42.500
        37.500
 117338570.924 7  91432693.56147  22328776.480    22328779.240          45.750
        43.250
 108789417.489 8  84771022.93648  20701927.980    20701929.880          50.250
        48.500
 113892056.132 7  88747067.09747  21672939.140    21672938.380          47.500
        43.000
 109553683.275 8  85366524.57248  20847360.760    20847360.720          49.750
        48.250
 111481599.698 8  86868821.80547  21214225.620    21214224.320          49.750
        46.500
 14  1  8  0 12  0.0000000  0  7G02G31G24G25G14G29G12
 121757762.816 7  94876166.86946  23169731.860    23169729.380          45.000
        39.750
 127390305.539 7  99265175.53346  24241569.280    24241567.940          42.250
        37.500
 117418818.878 7  91495224.43347  22344047.120    22344049.780          45.500
        43.250
 108774493.188 8  84759393.60148  20699087.980    20699089.900          50.000
        48.750
 113894769.523 7  88749181.41747  21673455.460    21673454.800          47.750
        43.250
 109490595.416 8  85317365.21348  20835355.560    20835355.480          49.750
        48.250
 111527259.466 8  86904400.83747  21222914.440    21222913.040          49.750
        47.000
 14  1  8  0 12 30.0000000  0  7G02G31G24G25G14G29G12
 121742907.527 7  94864591.34046  23166904.980    23166902.680          45.000
        41.750
 127295896.021 6  99191609.68746  24223603.560    24223602.380          41.500
        39.000
 117499367.952 7  91557989.93847  22359375.060    22359377.700          45.500
        43.250
 108759794.341 8  84747939.95848  20696290.820    20696292.720          50.000
        48.250
 113898068.983 7  88751752.42147  21674083.320    21674082.740          47.500
        43.500
 109427966.993 8  85268563.86548  20823437.740    20823437.740          49.500
        48.750
 111573075.057 8  86940101.27747  21231632.840    21231631.580          49.500
        47.250
 14  1  8  0 13  0.0000000  0  7G02G31G24G25G14G29G12
 121728513.914 7  94853375.52546  23164165.900    23164163.780          45.000
        41.500
 127201512.084 6  99118063.78646  24205642.760    24205641.800          41.500
        37.000
 117580215.918 7  91620988.34747  22374759.920    22374762.580          45.250
        43.500
 108745319.567 8  84736660.91948  20693536.340    20693538.160          50.000
        48.250
 113901953.030 7  88754778.94047  21674822.420    21674821.840          47.250
        43.250
 109365798.113 8  85220120.58448  20811607.340    20811607.480          49.750
        48.500
 111619045.169 8  86975922.13147  21240380.640    21240379.560          49.750
        47.000
 14  1  8  0 13 30.0000000  0  7G02G31G24G25G14G29G12
 121714583.538 7  94842520.69246  23161515.040    23161512.860          44.750
        40.250
 127107155.334 7  99044539.08546  24187687.300    24187686.380          42.000
        37.750
 117661362.168 7  91684219.18047  22390201.520    22390204.180          45.250
        43.750
 108731068.909 8  84725556.51748  20690824.540    20690826.360          50.000
        48.750
 113906421.413 7  88758260.78347  21675672.640    21675672.080          47.500
        43.500
 109304090.071 8  85172036.40048  20799864.620    20799864.880          49.750
        48.750
 111665169.538 8  87011863.20047  21249157.880    21249156.840          49.750
        47.000
 14  1  8  0 14  0.0000000  0  7G02G31G24G25G14G29G12
 121701118.200 7  94832028.24846  23158952.720    23158950.400          45.000
        41.000
 127012828.217 7  98971037.45045  24169737.600    24169736.580          42.250
        35.000
 117742806.138 7  91747682.00247  22405699.800    22405702.500          45.250
        42.750
 108717042.875 8  84714627.13048  20688155.480    20688157.320          50.000
        48.500
 113911474.500 7  88762198.23747  21676634.220    21676633.620          47.750
        43.000
 109242844.990 8  85124312.96248  20788210.020    20788210.360          49.750
        48.500
 111711448.023 8  87047924.36247  21257964.420    21257963.460          49.500
        47.250
 14  1  8  0 14 30.0000000  0  7G02G31G24G25G14G29G12
 121688119.303 7  94821899.25846  23156479.260    23156476.760          45.250
        41.250
 126918532.612 6  98897560.35546  24151793.960    24151792.760          41.750
        38.000
 117824547.226 7  91811376.33947  22421254.580    22421257.380          45.000
        43.500
 108703241.652 8  84703872.94448  20685529.180    20685531.080          50.000
        48.750
 113917112.339 7  88766591.35047  21677707.100    21677706.360          47.500
        43.000
 109182064.813 8  85076951.79348  20776643.980    20776644.260          50.000
        48.750
 111757879.848 8  87084104.98047  21266800.020    21266799.180          49.500
        46.750
 14  1  8  0 15  0.0000000  0  7G02G31G24G25G14G29G12
 121675589.120 7  94812135.48546  23154094.860    23154092.380          44.500
        40.750
 126824271.509 6  98824110.14746  24133856.780    24133855.560          41.000
        37.750
 117906585.803 7  91875302.47847  22436865.940    22436868.840          44.750
        43.000
 108689666.069 8  84693294.57048  20682945.880    20682947.760          50.000
        48.750
 113923335.580 7  88771440.63147  21678891.340    21678890.600          47.250
        43.250
 109121751.405 8  85029954.33948  20765166.840    20765166.960          50.000
        48.500
 111804466.316 8  87120406.11747  21275665.040    21275664.220          49.250
        47.000
 14  1  8  0 15 30.0000000  0  7G02G31G24G25G14G29G12
 121663530.456 7  94802739.14846  23151800.020    23151797.660          44.500
        40.500
 126730048.216 6  98750689.41145  24115926.640    24115925.660          41.000
        35.500
 117988922.024 7  91939460.56847  22452533.900    22452536.960          44.750
        43.000
 108676317.756 8  84682893.29548  20680405.820    20680407.640          50.000
        48.750
 113930145.470 7  88776747.02547  21680187.240    21680186.520          47.750
        43.000
 109061907.768 8  84983322.93748  20753779.100    20753779.040          50.000
        48.500
 111851208.487 8  87156828.59147  21284559.740    21284558.880          49.250
        46.500
 14  1  8  0 16  0.0000000  0  7G02G31G24G25G14G29G12
 121651937.853 7  94793705.95146  23149593.760    23149591.720          44.500
        40.250
 126635858.119 7  98677294.53746  24098002.900    24098001.860          42.250
        37.500
 118071548.883 7  92003845.12847  22468257.220    22468260.400          44.750
        43.500
 108663189.955 8  84672663.85448  20677907.620    20677909.460          49.750
        48.500
 113937534.978 7  88782505.08047  21681593.380    21681592.700          47.500
        43.250
 109002528.589 8  84937053.46448  20742479.680    20742479.480          50.000
        49.000
 111898098.446 8  87193366.21347  21293482.580    21293481.700          49.250
        46.750
 14  1  8  0 16 30.0000000  0  7G02G31G24G25G14G29G12
 121640814.106 7  94785038.09646  23147476.780    23147474.980          44.000
        40.250
 126541704.211 7  98603927.86346  24080086.120    24080084.960          42.500
        37.750
 118154466.614 7  92068456.33647  22484036.020    22484039.160          45.250
        42.750
 108650283.985 8  84662607.26448  20675451.600    20675453.520          50.000
        48.500
 113945505.011 7  88788715.48647  21683110.040    21683109.360          47.500
        43.000
 108943616.601 8  84891148.03148  20731269.080    20731268.900          49.750
        48.750
 111945137.827 8  87230020.26147  21302433.860    21302432.980          49.250
        46.500
 14  1  8  0 17  0.0000000  0  7G02G31G24G25G14G29G12
 121630162.909 7  94776738.47246  23145449.880    23145448.060          44.500
        40.500
 126447591.258 7  98530593.11946  24062177.120    24062175.820          43.250
        37.000
 118237676.890 7  92133295.50647  22499870.500    22499873.540          45.000
        43.000
 108637602.769 8  84652725.80448  20673038.400    20673040.380          50.000
        48.500
 113954058.215 7  88795380.30547  21684737.600    21684736.980          47.250
        42.750
 108885175.730 8  84845609.70248  20720148.100    20720147.980          49.750
        48.750
 111992329.617 8  87266793.06047  21311414.160    21311413.220          49.250
        46.500
 14  1  8  0 17 30.0000000  0  7G02G31G24G25G14G29G12
 121619985.285 7  94768807.85846  23143513.200    23143511.140          44.500
        40.500
 126353521.015 7  98457291.62746  24044276.220    24044274.620          42.750
        36.250
 118321178.815 7  92198361.93747  22515760.460    22515763.420          44.500
        42.500
 108625145.774 8  84643019.06448  20670667.940    20670669.900          50.000
        48.750
 113963193.653 7  88802498.82647  21686475.980    21686475.480          47.250
        43.500
 108827206.972 8  84800439.25348  20709116.940    20709116.840          49.750
        48.750
 112039672.720 8  87303683.77947  21320423.400    21320422.320          49.750
        46.500
 14  1  8  0 18  0.0000000  0  7G02G31G24G25G14G29G12
 121610281.050 7  94761246.15346  23141666.660    23141664.400          44.500
        40.750
 126259493.638 7  98384023.54946  24026383.440    24026381.780          42.750
        37.750
 118404969.499 7  92263653.37547  22531705.360    22531708.240          44.500
        42.750
 108612911.854 8  84633486.14648  20668339.900    20668341.860          49.750
        48.500
 113972909.845 7  88810069.88147  21688324.860    21688324.440          47.000
        43.000
 108769710.407 8  84755636.74748  20698175.660    20698175.560          49.750
        49.000
 112087164.856 8  87340690.63047  21329461.020    21329459.800          49.500
        46.750
 14  1  8  0 18 30.0000000  0  7G02G31G24G25G14G29G12
 121601050.995 7  94754053.91546  23139910.300    23139907.940          44.750
        40.000
 126165511.041 7  98310790.39446  24008499.140    24008497.520          42.500
        38.250
 118489048.884 7  92329169.74647  22547705.220    22547708.080          44.750
        42.500
 108600900.855 8  84624126.92848  20666054.200    20666056.280          49.750
        48.750
 113983206.036 7  88818092.87547  21690284.180    21690283.800          47.250
        43.500
 108712687.039 8  84711202.97548  20687324.460    20687324.340          49.750
        49.000
 112134806.088 8  87377813.66647  21338526.980    21338525.680          49.750
        47.000
 14  1  8  0 19  0.0000000  0  7G02G31G24G25G14G29G12
 121592295.399 7  94747231.38346  23138244.220    23138241.840          44.500
        39.750
 126071574.662 7  98237593.22446  23990623.640    23990622.100          43.000
        37.000
 118573414.456 7  92394909.15147  22563759.560    22563762.260          45.000
        42.500
 108589111.924 8  84614940.75848  20663810.840    20663812.960          50.000
        48.750
 113994080.941 7  88826566.82047  21692353.620    21692353.320          46.750
        43.250
 108656137.408 8  84667138.31948  20676563.420    20676563.300          49.750
        49.000
 112182595.401 8  87415052.07647  21347621.040    21347619.720          49.250
        46.500
 14  1  8  0 19 30.0000000  0  7G02G31G24G25G14G29G12
 121584016.553 7  94740780.32246  23136668.800    23136666.440          44.750
        40.000
 125977687.584 7  98164434.46746  23972757.480    23972756.100          43.000
        38.750
 118658066.550 7  92460871.81846  22579868.420    22579870.940          45.250
        41.750
 108577545.904 8  84605928.28348  20661609.940    20661612.000          50.000
        48.750
 114005535.079 7  88835492.11947  21694533.240    21694532.980          47.000
        43.250
 108600063.778 8  84623444.59648  20665892.960    20665892.840          50.000
        49.000
 112230532.996 8  87452406.04847  21356743.200    21356741.880          49.250
        46.750
 14  1  8  0 20  0.0000000  0  7G02G31G24G25G14G29G12
 121576217.040 7  94734702.79046  23135184.600    23135182.260          45.500
        40.000
 125883852.601 7  98091316.30546  23954901.140    23954900.020          43.500
        38.250
 118743005.709 7  92527058.16147  22596031.760    22596034.400          45.000
        42.500
 108566204.634 8  84597090.93248  20659451.700    20659453.820          49.750
        49.000
 114017569.591 7  88844869.65447  21696823.340    21696823.080          47.000
        43.500
 108544468.737 8  84580123.78548  20655313.620    20655313.460          50.000
        49.000
 112278620.546 8  87489876.84647  21365893.920    21365892.680          49.500
        47.000
 14  1  8  0 20 30.0000000  0  7G02G31G24G25G14G29G12
 121568894.461 7  94728996.90646  23133791.240    23133788.800          45.250
        40.500
 125790068.582 7  98018237.87546  23937054.480    23937053.560          43.500
        38.500
 118828227.405 7  92593464.66346  22612248.860    22612251.640          45.500
        41.750
 108555084.566 8  84588425.94648  20657335.600    20657337.760          50.000
        49.000
 114030180.499 7  88854696.32847  21699223.140    21699222.840          47.000
        43.500
 108489350.113 8  84537174.23448  20644824.940    20644824.740          50.000
        49.250
 112326854.023 8  87527461.37147  21375072.440    21375071.240          49.250
        46.750
 14  1  8  0 21  0.0000000  0  7G02G31G24G25G14G29G12
 121562048.421 7  94723662.34246  23132488.680    23132485.980          45.500
        40.750
 125696335.854 7  97945199.37646  23919217.760    23919216.700          43.500
        38.000
 118913729.239 7  92660089.45647  22628519.280    22628522.080          45.250
        42.250
 108544184.275 8  84579932.21048  20655261.420    20655263.500          50.000
        49.000
 114043365.774 7  88864970.56647  21701732.280    21701731.860          47.250
        43.500
 108434707.545 8  84494595.61848  20634426.840    20634426.600          50.000
        49.250
 112375231.649 8  87565158.21247  21384278.280    21384277.240          49.250
        46.750
 14  1  8  0 21 30.0000000  0  7G02G31G24G25G14G29G12
 121555683.052 7  94718702.32946  23131277.580    23131274.700          45.250
        40.000
 125602659.734 7  97872205.01346  23901391.800    23901390.640          42.750
        38.000
 118999513.294 7  92726934.15847  22644843.440    22644846.200          45.250
        42.000
 108533506.907 8  84571612.17548  20653229.700    20653231.620          50.250
        48.750
 114057127.743 7  88875694.15647  21704351.200    21704350.600          47.500
        42.750
 108380545.481 8  84452391.44148  20624120.120    20624119.840          50.000
        49.000
 112423755.430 8  87602968.94247  21393511.980    21393511.040          49.250
        46.250
 14  1  8  0 22  0.0000000  0  7G02G31G24G25G14G29G12
 121549796.989 7  94714115.79946  23130157.500    23130154.620          44.750
        41.000
 125509039.769 7  97799254.39946  23883576.500    23883575.300          42.250
        36.750
 119085576.537 7  92793996.41547  22661220.760    22661223.500          44.750
        42.500
 108523050.130 8  84563464.04248  20651239.880    20651241.720          50.000
        48.750
 114071463.414 7  88886864.79447  21707079.300    21707078.600          47.500
        43.250
 108326862.556 8  84410560.61748  20613904.520    20613904.260          50.000
        49.250
 112472423.908 8  87640892.43847  21402773.160    21402772.360          49.000
        46.750
 14  1  8  0 22 30.0000000  0  7G02G31G24G25G14G29G12
 121544393.223 7  94709905.07246  23129129.040    23129126.240          45.000
        39.500
 125415480.187 7  97726350.84546  23865772.640    23865771.360          42.500
        37.000
 119171919.846 7  92861276.90446  22677651.460    22677654.080          44.750
        41.750
 108512816.119 8  84555489.48448  20649292.400    20649294.260          50.000
        48.750
 114086374.538 7  88898483.84147  21709916.820    21709916.080          47.500
        43.000
 108273662.272 8  84369105.85248  20603780.740    20603780.580          50.000
        49.500
 112521238.899 8  87678930.08347  21412062.320    21412061.520          49.500
        46.500
 14  1  8  0 23  0.0000000  0  7G02G31G24G25G14G29G12
 121539471.052 7  94706069.62846  23128192.220    23128189.520          45.000
        41.000
 125321980.959 7  97653494.29746  23847980.300    23847979.020          42.000
        37.000
 119258540.498 7  92928773.50547  22694134.860    22694137.340          44.000
        42.000
 108502803.156 8  84547687.16548  20647386.960    20647388.920          50.000
        49.000
 114101858.786 7  88910549.47947  21712863.400    21712862.620          47.250
        43.000
 108220943.511 8  84328026.29848  20593748.640    20593748.580          50.000
        49.500
 112570198.018 8  87717080.03647  21421379.020    21421378.080          49.500
        46.000
 14  1  8  0 23 30.0000000  0  7G02G31G24G25G14G29G12
 121535034.523 7  94702612.60946  23127347.920    23127345.260          45.250
        41.000
 125228547.067 6  97580688.68146  23830200.120    23830199.200          41.500
        37.750
 119345440.618 7  92996487.85846  22710671.380    22710673.860          44.500
        41.750
 108493014.134 8  84540059.33948  20645524.200    20645526.160          50.000
        48.750
 114117918.051 7  88923063.18047  21715919.380    21715918.580          47.500
        42.000
 108168710.235 8  84287325.06348  20583809.000    20583808.980          50.250
        49.500
 112619303.676 8  87755344.17947  21430723.640    21430722.560          49.500
        46.250
 14  1  8  0 24  0.0000000  0  7G02G31G24G25G14G29G12
 121531079.241 7  94699530.58346  23126595.260    23126592.620          45.000
        40.250
 125135175.565 6  97507931.66146  23812431.860    23812431.160          41.250
        38.250
 119432613.737 7  93064414.94746  22727259.860    22727262.400          44.500
        41.500
 108483444.044 8  84532602.13448  20643703.080    20643705.040          50.000
        48.750
 114134546.570 7  88936020.45947  21719083.600    21719082.900          47.250
        42.750
 108116958.809 8  84246999.30048  20573961.080    20573961.060          50.250
        49.500
 112668550.715 8  87793718.47747  21440095.200    21440093.960          49.500
        46.500
 14  1  8  0 24 30.0000000  0  7G02G31G24G25G14G29G12
 121527607.733 7  94696825.51246  23125934.680    23125932.060          45.250
        40.750
 125041869.961 6  97435226.00646  23794676.160    23794675.640          41.750
        38.500
 119520060.557 7  93132555.31247  22743900.400    22743902.920          44.000
        42.000
 108474094.540 8  84525316.79848  20641923.940    20641925.880          50.000
        48.750
 114151745.198 7  88949421.97947  21722356.360    21722355.720          47.250
        42.750
 108065691.749 8  84207050.95748  20564205.360    20564205.260          50.250
        49.500
 112717940.524 8  87832204.03147  21449493.880    21449492.500          49.250
        46.250
 14  1  8  0 25  0.0000000  0  7G02G31G24G25G14G29G12
 121524617.471 7  94694495.45046  23125365.780    23125362.920          45.000
        40.750
 124948628.782 7  97362570.54146  23776932.960    23776932.400          43.250
        38.500
 119607776.608 7  93200905.46746  22760592.160    22760594.840          44.000
        41.750
 108464962.142 8  84518200.63848  20640186.080    20640188.040          50.000
        49.000
 114169509.651 7  88963264.39247  21725736.860    21725736.260          47.000
        42.750
 108014906.548 8  84167478.08948  20554541.220    20554541.120          50.000
        49.500
 112767468.671 8  87870797.37447  21458918.780    21458917.380          49.250
        46.000
 14  1  8  0 25 30.0000000  0  7G02G31G24G25G14G29G12
 121522112.871 7  94692543.83246  23124889.220    23124886.260          45.500
        40.500
 124855457.928 7  97289969.86446  23759203.300    23759202.580          44.250
        37.000
 119695764.673 7  93269467.57546  22777335.720    22777338.520          44.500
        41.500
 108456050.719 8  84511256.67848  20638490.260    20638492.160          50.000
        48.750
 114187843.116 7  88977550.20947  21729225.580    21729225.040          46.750
        43.500
 107964608.000 8  84128284.43548  20544969.680    20544969.500          50.000
        49.500
 112817139.791 8  87909502.13547  21468370.920    21468369.520          49.750
        46.250
 14  1  8  0 26  0.0000000  0  7G02G31G24G25G14G29G12
 121520094.499 7  94690971.08346  23124505.200    23124502.080          45.500
        40.000
 124762358.942 7  97217425.18745  23741487.380    23741486.380          43.500
        35.750
 119784023.017 7  93338240.30946  22794130.740    22794133.340          44.000
        41.250
 108447359.881 8  84504484.59848  20636836.480    20636838.320          50.250
        48.500
 114206743.855 7  88992278.03947  21732822.220    21732821.660          47.000
        43.250
 107914796.646 8  84089470.41048  20535490.800    20535490.600          50.000
        49.500
 112866952.693 8  87948317.36547  21477850.040    21477848.680          49.250
        46.250
 14  1  8  0 26 30.0000000  0  7G02G31G24G25G14G29G12
 121518562.178 7  94689777.08546  23124213.660    23124210.580          45.250
        39.750
 124669333.132 7  97144937.56646  23723785.360    23723783.980          43.500
        37.500
 119872549.515 7  93407221.97346  22810976.800    22810979.260          44.250
        41.000
 108438888.779 8  84497883.74048  20635224.500    20635226.320          50.000
        48.750
 114226210.600 7  89007446.92547  21736526.620    21736526.020          47.000
        43.250
 107865472.399 8  84051035.93648  20526104.640    20526104.500          50.250
        49.500
 112916905.746 8  87987241.80047  21487355.700    21487354.440          49.000
        46.250
 14  1  8  0 27  0.0000000  0  7G02G31G24G25G14G29G12
 121517514.145 7  94688960.43646  23124014.180    23124011.160          44.750
        40.000
 124576379.789 7  97072506.36546  23706097.200    23706095.320          44.500
        38.500
 119961340.907 7  93476410.07146  22827873.380    22827875.740          44.500
        41.500
 108430634.955 8  84491452.18448  20633653.780    20633655.700          49.750
        48.750
 114246239.842 7  89023054.11947  21740338.060    21740337.500          47.250
        43.250
 107816633.949 8  84012980.00548  20516810.940    20516810.840          50.000
        49.750
 112966996.829 8  88026273.82847  21496887.580    21496886.480          49.000
        46.250
 14  1  8  0 27 30.0000000  0  7G02G31G24G25G14G29G12
 121516957.810 7  94688526.92846  23123908.240    23123905.340          44.500
        41.000
 124483507.492 7  97000138.33146  23688424.340    23688422.140          44.500
        36.750
 120050402.452 7  93545808.66946  22844821.300    22844823.560          44.750
        40.000
 108422604.938 8  84485195.03648  20632125.620    20632127.640          50.000
        48.750
 114266836.899 7  89039103.76147  21744257.580    21744257.040          47.000
        43.000
 107768288.685 8  83975308.37648  20507611.120    20507611.060          50.000
        50.000
 113017231.646 8  88065417.83247  21506446.820    21506445.900          49.000
        46.500
 14  1  8  0 28  0.0000000  0  7G02G31G24G25G14G29G12
 121516891.121 7  94688474.97946  23123895.480    23123892.620          44.750
        40.250
 124390715.589 7  96927832.96045  23670766.620    23670764.340          44.000
        35.500
 120139730.151 7  93615414.66246  22861819.880    22861822.080          44.250
        41.500
 108414796.097 8  84479110.23348  20630639.660    20630641.720          50.250
        49.000
 114287998.435 7  89055593.25947  21748284.520    21748283.980          47.250
        43.000
 107720434.577 8  83938019.46748  20498504.740    20498504.760          50.000
        49.750
 113067607.785 8  88104671.95447  21516032.960    21516032.340          49.000
        46.750
 14  1  8  0 28 30.0000000  0  7G02G31G24G25G14G29G12
 121517311.674 7  94688802.69746  23123975.500    23123972.560          45.750
        40.500
 124298003.135 7  96855589.46546  23653123.940    23653121.780          44.000
        38.250
 120229320.061 7  93685224.96346  22878868.340    22878870.600          44.250
        41.500
 108407205.385 8  84473195.38948  20629195.260    20629197.220          50.250
        48.750
 114309720.172 7  89072519.27347  21752418.040    21752417.480          47.250
        42.250
 107673069.326 8  83901111.48648  20489491.460    20489491.500          50.250
        49.750
 113118121.790 8  88144033.51847  21525645.380    21525645.060          48.750
        46.750
 14  1  8  0 29  0.0000000  0  7G02G31G24G25G14G29G12
 121518221.870 7  94689511.95946  23124148.680    23124145.740          45.250
        40.000
 124205373.896 7  96783410.86246  23635497.020    23635495.220          43.250
        39.250
 120319172.405 7  93755239.74846  22895966.820    22895969.020          44.500
        40.750
 108399834.436 8  84467451.79248  20627792.620    20627794.520          50.000
        48.750
 114332002.783 7  89089882.32947  21756658.280    21756657.720          47.250
        42.750
 107626195.689 8  83864586.58848  20480571.820    20480571.740          50.500
        49.750
 113168774.418 8  88183503.09847  21535284.240    21535284.020          49.250
        46.000
 14  1  8  0 29 30.0000000  0  7G02G31G24G25G14G29G12
 121519623.388 7  94690604.04746  23124415.280    23124412.500          44.750
        40.750
 124112830.880 7  96711299.44546  23617886.420    23617885.040          43.250
        40.000
 120409287.406 7  93825459.22346  22913115.160    22913117.240          43.750
        40.250
 108392684.563 8  84461880.46548  20626432.000    20626433.960          50.000
        49.000
 114354846.375 7  89107682.51847  21761005.340    21761004.720          47.250
        42.500
 107579815.681 8  83828446.33748  20471746.120    20471745.900          50.500
        49.750
 113219567.052 8  88223081.75847  21544949.880    21544949.500          49.250
        46.000
 14  1  8  0 30  0.0000000  0  7G02G31G24G25G14G29G12
 121521513.892 7  94692077.17346  23124774.980    23124772.280          45.000
        40.250
 124020373.116 7  96639254.45446  23600292.220    23600291.120          44.000
        40.750
 120499660.687 7  93895879.93546  22930312.480    22930314.740          43.250
        41.250
 108385752.564 8  84456478.90548  20625112.880    20625114.960          50.000
        49.000
 114378246.946 7  89125916.72546  21765458.280    21765457.640          47.000
        41.750
 107533926.836 8  83792688.81548  20463013.820    20463013.560          50.250
        50.000
 113270496.704 8  88262767.18647  21554641.680    21554640.960          49.500
        45.750
 14  1  8  0 30 30.0000000  0  7G02G31G24G25G14G29G12
 121523893.903 7  94693931.72746  23125227.880    23125225.220          44.750
        40.750
 123928002.932 7  96567277.69846  23582714.780    23582713.760          43.500
        41.000
 120590290.889 7  93966500.87346  22947558.700    22947561.100          43.250
        41.000
 108379038.631 8  84451247.28748  20623835.220    20623837.360          50.000
        49.000
 114402203.549 7  89144584.19147  21770017.040    21770016.440          47.000
        42.750
 107488529.796 8  83757314.51148  20454375.000    20454374.780          50.000
        50.000
 113321562.716 8  88302558.87447  21564359.420    21564358.360          49.250
        46.000
 14  1  8  0 31  0.0000000  0  7G02G31G24G25G14G29G12
 121526765.075 7  94696169.02346  23125774.320    23125771.500          45.000
        40.000
 123835722.938 7  96495371.24646  23565154.440    23565153.540          43.500
        41.250
 120681178.093 7  94037322.06346  22964853.900    22964856.240          44.000
        39.750
 108372543.581 8  84446186.20348  20622599.240    20622601.320          50.000
        48.500
 114426715.599 7  89163684.48447  21774681.580    21774680.960          47.250
        42.750
 107443626.387 8  83722324.86048  20445830.060    20445829.920          50.250
        50.000
 113372765.832 8  88342457.38747  21574103.120    21574101.860          49.250
        45.750
 14  1  8  0 31 30.0000000  0  7G02G31G24G25G14G29G12
 121530126.921 7  94698788.67146  23126414.040    23126411.100          44.750
        40.250
 123743534.657 7  96423536.24946  23547611.600    23547610.780          43.500
        39.500
 120772319.778 7  94108341.54846  22982197.600    22982199.900          43.750
        41.000
 108366266.620 8  84441295.05848  20621404.780    20621406.760          50.000
        48.750
 114451781.054 7  89183215.99547  21779451.380    21779450.800          47.500
        42.500
 107399216.498 8  83687719.75848  20437379.060    20437379.020          50.250
        48.250
 113424104.431 8  88382461.47647  21583872.560    21583871.180          49.250
        45.500
 14  1  8  0 32  0.0000000  0  7G02G31G24G25G14G29G12
 121533980.644 7  94701791.56446  23127147.280    23127144.320          45.000
        40.750
 123651440.623 7  96351774.67646  23530086.760    23530085.920          43.500
        41.000
 120863715.849 7  94179559.24946  22999589.760    22999592.100          44.250
        41.000
 108360208.460 8  84436574.42048  20620252.020    20620253.900          50.250
        48.750
 114477399.399 7  89203178.32747  21784326.400    21784325.820          47.000
        42.750
 107355301.183 8  83653500.03248  20429022.220    20429022.200          50.250
        50.000
 113475579.710 8  88422572.08347  21593667.980    21593666.620          49.000
        45.750
 14  1  8  0 32 30.0000000  0  7G02G31G24G25G14G29G12
 121538327.126 7  94705178.43546  23127974.380    23127971.540          45.500
        40.750
 123559443.177 7  96280088.38946  23512580.260    23512579.440          42.750
        40.750
 120955365.433 7  94250974.48946  23017030.200    23017032.380          43.750
        40.500
 108354369.758 8  84432024.77448  20619141.040    20619142.820          50.250
        48.750
 114503570.264 7  89223571.19547  21789306.560    21789305.940          47.500
        42.750
 107311882.183 8  83619667.04548  20420759.860    20420759.800          50.500
        50.000
 113527191.644 8  88462789.17347  21603489.340    21603487.980          48.750
        45.250
 14  1  8  0 33  0.0000000  0  7G02G31G24G25G14G29G12
 121543165.053 7  94708948.26346  23128894.940    23128892.400          44.750
        40.750
 123467542.696 7  96208477.63546  23495092.220    23495091.360          44.000
        39.750
 121047265.305 7  94322584.77246  23034518.240    23034520.300          43.500
        40.000
 108348748.444 8  84427644.51548  20618071.380    20618073.080          50.000
        49.000
 114530290.411 7  89244392.07547  21794391.260    21794390.700          47.250
        42.750
 107268957.634 8  83586219.35948  20412591.620    20412591.480          50.500
        50.000
 113578937.776 8  88503110.80747  21613336.140    21613334.780          48.750
        45.250
 14  1  8  0 33 30.0000000  0  7G02G31G24G25G14G29G12
 121548498.820 7  94713104.45946  23129909.780    23129907.540          44.250
        41.000
 123375745.424 7  96136947.30046  23477623.900    23477622.920          44.500
        40.750
 121139418.009 7  94394392.03746  23052054.160    23052056.480          42.000
        41.250
 108343348.611 8  84423436.83748  20617043.880    20617045.560          50.000
        48.750
 114557562.482 7  89265643.02547  21799580.980    21799580.460          47.250
        42.500
 107226532.396 8  83553160.72948  20404518.400    20404518.160          50.500
        50.000
 113630822.005 8  88543540.06447  21623209.260    21623207.920          49.000
        45.250
 14  1  8  0 34  0.0000000  0  7G02G31G24G25G14G29G12
 121554324.323 7  94717643.82146  23131018.120    23131016.160          44.000
        40.750
 123284048.563 7  96065495.21646  23460174.620    23460173.580          44.000
        40.500
 121231817.838 7  94466391.90146  23069637.120    23069639.640          42.750
        40.250
 108338165.672 8  84419398.19848  20616057.580    20616059.320          50.000
        49.000
 114585379.875 7  89287318.90747  21804874.420    21804873.940          46.750
        42.500
 107184602.525 8  83520488.13248  20396539.400    20396539.140          50.250
        50.250
 113682839.331 8  88584073.03747  21633107.740    21633106.500          48.500
        45.250
 14  1  8  0 34 30.0000000  0  7G02G31G24G25G14G29G12
 121560642.408 7  94722566.99346  23132220.360    23132218.340          44.750
        40.250
 123192454.992 7  95994123.62346  23442745.040    23442743.940          45.000
        39.500
 121324463.381 6  94538583.23046  23087266.820    23087269.420          41.500
        40.750
 108333200.003 8  84415528.84548  20615112.580    20615114.440          50.250
        48.750
 114613742.384 7  89309419.54947  21810271.600    21810271.120          46.750
        42.500
 107143168.815 8  83488202.16848  20388654.800    20388654.560          50.250
        50.000
 113734990.164 8  88624710.04247  21643031.620    21643030.540          48.500
        45.500
 14  1  8  0 35  0.0000000  0  7G02G31G24G25G14G29G12
 121567454.665 7  94727875.26646  23133516.800    23133514.600          45.000
        40.250
 123100967.565 7  95922834.73746  23425335.640    23425334.420          44.500
        39.250
 121417354.919 7  94610966.22746  23104943.360    23104946.200          42.500
        39.250
 108328453.082 8  84411829.94548  20614209.280    20614211.160          50.250
        48.750
 114642649.951 7  89331944.92047  21815772.500    21815772.080          46.750
        42.250
 107102233.336 8  83456304.42048  20380864.980    20380864.780          50.250
        50.250
 113787275.455 8  88665451.81447  21652981.140    21652980.240          48.750
        45.750
 14  1  8  0 35 30.0000000  0  7G02G31G24G25G14G29G12
 121574761.201 7  94733568.66646  23134907.240    23134904.980          44.500
        40.000
 123009588.610 7  95851630.35346  23407946.800    23407945.420          44.500
        39.750
 121510491.326 7  94683540.02046  23122666.520    23122669.540          42.500
        38.500
 108323924.847 8  84408301.45748  20613347.640    20613349.520          50.250
        48.750
 114672101.269 7  89354893.98547  21821376.800    21821376.460          46.750
        42.250
 107061796.440 8  83424795.15248  20373170.000    20373169.900          50.250
        50.250
 113839695.248 8  88706298.40147  21662956.340    21662955.640          48.500
        46.000
 14  1  8  0 36  0.0000000  0  7G02G31G24G25G14G29G12
 121582560.362 7  94739645.92546  23136391.300    23136389.080          44.000
        40.500
 122918317.880 7  95780510.30746  23390578.620    23390576.960          45.500
        38.750
 121603868.582 7  94756301.49746  23140435.620    23140438.740          42.250
        40.500
 108319612.893 8  84404941.48248  20612527.140    20612528.980          50.000
        48.750
 114702092.324 7  89378263.63247  21827083.940    21827083.560          47.000
        42.500
 107021856.247 8  83393672.94248  20365569.540    20365569.500          50.000
        50.500
 113892246.796 8  88747247.65247  21672956.600    21672956.140          48.500
        45.750
 14  1  8  0 36 30.0000000  0  7G02G31G24G25G14G29G12
 121590853.452 7  94746108.07246  23137969.200    23137967.220          44.000
        41.500
 122827158.779 7  95709477.22346  23373231.700    23373229.660          45.000
        38.500
 121697486.971 7  94829250.88746  23158250.680    23158253.900          42.250
        39.250
 108315518.461 8  84401751.01448  20611747.940    20611749.820          50.000
        48.750
 114732622.682 7  89402053.51747  21832893.760    21832893.360          47.500
        42.000
 106982414.450 8  83362939.08448  20358063.960    20358063.960          50.250
        50.250
 113944930.820 8  88788300.13347  21682982.060    21682981.800          48.500
        45.750
 14  1  8  0 37  0.0000000  0  7G02G31G24G25G14G29G12
 121599642.372 7  94752956.60546  23139641.520    23139639.660          44.000
        40.500
 122736115.261 7  95638534.24546  23355906.680    23355904.540          45.250
        39.500
 121791346.946 7  94902388.50446  23176111.780    23176114.900          42.750
        39.500
 108311643.337 8  84398731.42348  20611010.500    20611012.380          50.000
        48.750
 114763692.911 7  89426264.06347  21838806.320    21838805.820          47.000
        42.250
 106943473.426 8  83332595.46248  20350653.740    20350653.740          50.500
        50.250
 113997748.556 8  88829456.79647  21693033.100    21693032.760          49.000
        45.500
 14  1  8  0 37 30.0000000  0  7G02G31G24G25G14G29G12
 121608924.315 7  94760189.29846  23141407.760    23141405.940          44.500
        40.500
 122645185.522 7  95567679.90146  23338603.340    23338601.280          45.000
        40.000
 121885443.228 7  94975710.29446  23194017.920    23194020.700          42.500
        40.500
 108307984.256 8  84395880.17648  20610314.220    20610316.100          50.000
        48.500
 114795298.079 7  89450891.45446  21844820.680    21844820.140          47.000
        41.750
 106905030.069 8  83302639.62048  20343338.280    20343338.240          50.250
        50.500
 114050696.990 8  88870715.29847  21703109.060    21703108.540          48.750
        45.750
 14  1  8  0 38  0.0000000  0  7G02G31G24G25G14G29G12
 121618704.546 7  94767810.26946  23143268.980    23143267.180          44.000
        41.500
 122554377.074 7  95496920.08846  23321323.020    23321321.140          44.500
        39.250
 121979780.069 7  95049219.50046  23211969.660    23211972.420          42.000
        40.250
 108304546.570 8  84393201.48248  20609660.020    20609661.960          50.000
        49.000
 114827442.036 7  89475938.67446  21850937.460    21850936.860          47.000
        41.750
 106867090.192 8  83273076.08248  20336118.640    20336118.580          50.250
        50.500
 114103781.031 8  88912079.46847  21713210.720    21713210.200          48.500
        45.750
 14  1  8  0 38 30.0000000  0  7G02G31G24G25G14G29G12
 121628977.541 7  94775815.18846  23145223.900    23145222.200          44.500
        41.000
 122463686.468 7  95426252.08546  23304065.040    23304063.400          44.250
        39.250
 122074350.176 7  95122910.46846  23229965.820    23229968.540          42.250
        39.500
 108301324.269 8  84390690.57648  20609046.840    20609048.820          50.000
        49.000
 114860117.147 7  89501399.78446  21857155.260    21857154.640          46.750
        41.500
 106829648.049 8  83243900.39448  20328993.640    20328993.600          50.250
        50.500
 114156994.229 8  88953544.29447  21723336.880    21723336.280          48.500
        45.000
 14  1  8  0 39  0.0000000  0  7G02G31G24G25G14G29G12
 121639745.800 7  94784206.03146  23147273.060    23147271.400          44.500
        40.750
 122373118.173 7  95355679.39046  23286830.340    23286828.900          44.000
        40.500
 122169154.674 7  95196784.08446  23248006.580    23248009.140          42.000
        40.000
 108298319.944 8  84388349.53548  20608475.140    20608477.140          50.000
        48.750
 114893324.660 7  89527275.75147  21863474.400    21863473.740          46.750
        42.000
 106792706.637 8  83215114.89248  20321963.860    20321963.900          50.250
        50.500
 114210338.809 8  88995111.48347  21733488.020    21733487.220          48.750
        44.750
 14  1  8  0 39 30.0000000  0  7G02G31G24G25G14G29G12
 121651009.285 7  94792982.77946  23149416.500    23149414.760          44.500
        41.000
 122282674.113 7  95285203.51946  23269619.280    23269618.060          44.000
        41.250
 122264191.667 7  95270838.85746  23266091.520    23266094.100          42.500
        40.000
 108295533.304 8  84386178.13348  20607944.840    20607946.760          50.000
        48.750
 114927062.290 7  89553564.80146  21869894.480    21869893.840          47.000
        41.500
 106756266.090 8  83186719.67348  20315029.400    20315029.460          50.500
        50.500
 114263814.738 8  89036781.02047  21743664.140    21743663.220          48.500
        45.250
 14  1  8  0 40  0.0000000  0  7G02G31G24G25G14G29G12
 121662769.161 7  94802146.32646  23151654.260    23151652.460          44.000
        40.750
 122192357.400 7  95214826.89046  23252432.400    23252431.320          44.000
        40.750
 122359460.767 7  95345074.52246  23284220.620    23284223.200          42.500
        39.750
 108292965.501 8  84384177.22248  20607456.140    20607458.100          50.000
        48.750
 114961329.719 7  89580266.68647  21876415.380    21876414.780          46.500
        42.500
 106720327.557 8  83158715.63248  20308190.520    20308190.520          50.250
        50.250
 114317422.685 8  89078553.43347  21753865.380    21753864.400          48.500
        44.750
 14  1  8  0 40 30.0000000  0  7G02G31G24G25G14G29G12
 121675022.451 7  94811694.33246  23153985.940    23153984.080          44.000
        40.250
 122102167.021 7  95144548.65846  23235269.620    23235268.620          44.000
        40.500
 122454957.852 7  95419487.81046  23302393.140    23302395.600          43.250
        38.250
 108290613.592 8  84382344.55548  20607008.600    20607010.560          50.250
        48.750
 114996122.140 7  89607377.64046  21883036.080    21883035.640          46.750
        41.750
 106684888.646 8  83131100.92548  20301446.700    20301446.640          50.250
        50.500
 114371159.590 8  89120426.32847  21764091.080    21764089.980          48.000
        44.500
 14  1  8  0 41  0.0000000  0  7G02G31G24G25G14G29G12
 121687771.724 7  94821628.82746  23156412.080    23156410.080          44.250
        40.750
 122012107.655 7  95074372.56046  23218131.740    23218130.900          44.500
        41.000
 122550683.804 7  95494079.41646  23320609.260    23320611.620          42.750
        38.000
 108288479.932 8  84380681.95248  20606602.660    20606604.480          50.000
        48.750
 115031440.539 7  89634898.46147  21889756.900    21889756.520          46.500
        42.000
 106649951.869 8  83103877.46948  20294798.460    20294798.360          50.250
        50.500
 114425027.319 7  89162401.16747  21774341.560    21774340.560          47.750
        44.750
 14  1  8  0 41 30.0000000  0  7G02G31G24G25G14G29G12
 121701013.318 7  94831946.95646  23158932.000    23158929.880          44.250
        41.000
 121922177.731 7  95004297.28246  23201018.640    23201017.800          44.500
        40.750
 122646633.124 7  95568845.12646  23338867.960    23338870.140          42.500
        39.250
 108286560.806 8  84379186.52448  20606237.460    20606239.180          50.000
        48.500
 115067279.211 7  89662824.68146  21896576.740    21896576.440          46.750
        41.750
 106615513.854 8  83077042.66548  20288245.100    20288244.980          50.250
        50.250
 114479021.266 8  89204474.36947  21784616.080    21784615.280          48.000
        44.500
 14  1  8  0 42  0.0000000  0  7G02G31G24G25G14G29G12
 121714752.174 7  94842652.57346  23161546.520    23161544.220          44.250
        41.000
 121832384.070 7  94934328.18846  23183931.440    23183930.560          44.500
        40.500
 122742809.425 7  95643787.67846  23357169.860    23357171.900          42.250
        38.250
 108284861.112 8  84377862.08748  20605914.060    20605915.740          50.250
        48.750
 115103641.216 7  89691158.70246  21903496.220    21903495.900          47.000
        41.750
 106581579.572 8  83050600.38548  20281787.620    20281787.500          50.500
        50.500
 114533146.744 8  89246650.04147  21794915.700    21794915.000          48.000
        44.500
 14  1  8  0 42 30.0000000  0  7G02G31G24G25G14G29G12
 121728985.906 7  94853743.78646  23164255.100    23164252.640          44.250
        39.500
 121742726.591 7  94864465.22746  23166870.260    23166869.220          45.000
        41.000
 122839208.484 7  95718903.80946  23375514.000    23375516.100          42.000
        38.250
 108283378.753 8  84376707.02048  20605632.000    20605633.720          50.000
        48.750
 115140522.842 7  89719897.63147  21910514.620    21910514.280          46.750
        42.000
 106548146.945 8  83024549.00948  20275425.620    20275425.480          50.500
        50.500
 114587401.803 8  89288926.68847  21805240.060    21805239.360          48.250
        44.500
 14  1  8  0 43  0.0000000  0  7G02G31G24G25G14G29G12
 121743715.323 7  94865221.25846  23167058.120    23167055.320          44.750
        39.500
 121653208.341 7  94794710.74746  23149835.620    23149834.400          44.500
        39.500
 122935830.333 6  95794193.53546  23393900.420    23393902.780          41.250
        40.500
 108282114.484 8  84375721.86748  20605391.360    20605393.180          50.000
        48.500
 115177923.118 7  89749040.68246  21917631.760    21917631.360          46.750
        41.500
 106515217.093 8  82998889.40148  20269159.360    20269159.140          50.500
        50.500
 114641786.543 8  89331304.40247  21815589.260    21815588.440          48.250
        44.500
 14  1  8  0 43 30.0000000  0  7G02G31G24G25G14G29G12
 121758940.404 7  94877084.95946  23169955.520    23169952.380          44.250
        39.750
 121563831.602 7  94725066.53446  23132827.800    23132826.500          44.500
        40.750
 123032673.198 6  95869655.49146  23412328.800    23412331.380          41.500
        36.500
 108281068.519 8  84374906.81948  20605192.300    20605194.120          50.000
        48.750
 115215840.165 7  89778586.41846  21924847.240    21924846.780          47.000
        41.500
 106482790.297 8  82973621.77848  20262988.800    20262988.520          50.500
        50.500
 114696300.855 8  89373783.08047  21825963.100    21825962.220          48.250
        44.750
 14  1  8  0 44  0.0000000  0  7G02G31G24G25G14G29G12
 121774658.543 7  94889332.86846  23172946.720    23172943.340          44.750
        39.750
 121474595.803 7  94655532.14346  23115846.900    23115845.600          44.750
        41.750
 123129732.933 6  95945286.42746  23430798.480    23430801.340          41.500
        39.750
 108280238.032 8  84374259.67448  20605034.280    20605036.060          50.000
        48.750
 115254269.619 7  89808531.42246  21932160.120    21932159.660          46.500
        41.500
 106450863.897 8  82948744.07848  20256913.380    20256913.100          50.500
        50.500
 114750941.429 8  89416360.12047  21836361.060    21836360.140          48.500
        45.000
 14  1  8  0 44 30.0000000  0  7G02G31G24G25G14G29G12
 121790871.555 7  94901966.39246  23176032.180    23176028.480          45.250
        39.250
 121385504.937 7  94586110.71446  23098893.540    23098892.260          45.500
        40.500
 123227010.064 6  96021086.77546  23449309.680    23449312.700          41.500
        38.750
 108279625.108 8  84373782.07148  20604917.680    20604919.460          50.250
        48.750
 115293211.400 7  89838875.65746  21939570.480    21939569.960          47.000
        41.000
 106419439.841 8  82924257.81348  20250933.540    20250933.340          50.500
        50.750
 114805710.428 8  89459037.25047  21846783.480    21846782.440          48.750
        44.750
 14  1  8  0 45  0.0000000  0  7G02G31G24G25G14G29G12
 121807578.637 7  94914984.90646  23179211.680    23179207.680          45.500
        40.000
 121296560.383 7  94516803.27146  23081968.080    23081966.780          45.500
        41.250
 123324502.018 6  96097054.51946  23467861.820    23467864.760          41.500
        39.500
 108279228.912 8  84373473.33548  20604842.320    20604844.120          50.250
        48.750
 115332662.606 7  89869616.84746  21947077.760    21947077.200          46.500
        41.500
 106388517.625 8  82900162.58448  20245049.220    20245049.080          50.250
        50.750
 114860607.224 8  89501813.96647  21857230.300    21857229.040          48.750
        44.500
 14  1  8  0 45 30.0000000  0  7G02G31G24G25G14G29G12
 121824779.879 7  94928388.49746  23182485.180    23182480.920          45.000
        40.000
 121207764.443 7  94447611.65046  23065070.800    23065069.520          45.500
        40.750
 123422207.460 6  96173188.59946  23486454.660    23486457.460          41.750
        38.000
 108279049.813 8  84373333.78148  20604808.200    20604810.040          50.000
        48.750
 115372622.190 7  89900754.15846  21954681.800    21954681.340          46.500
        41.500
 106358097.452 8  82876458.56948  20239260.440    20239260.280          50.500
        50.500
 114915631.184 8  89544689.76547  21867701.180    21867699.920          48.250
        45.250
 14  1  8  0 46  0.0000000  0  7G02G31G24G25G14G29G12
 121842477.299 7  94942178.67846  23185852.880    23185848.680          44.500
        40.750
 121119122.042 7  94378539.63946  23048202.640    23048201.380          45.250
        40.750
 123520127.687 6  96249490.06446  23505088.400    23505091.260          41.250
        39.750
 108279090.282 8  84373365.31948  20604815.880    20604817.660          50.000
        48.500
 115413090.349 7  89932287.77046  21962382.600    21962382.240          46.250
        41.500
 106328181.820 8  82853147.69548  20233567.680    20233567.500          50.500
        50.750
 114970784.447 8  89587666.31947  21878196.480    21878195.440          48.250
        45.250
 14  1  8  0 46 30.0000000  0  7G02G31G24G25G14G29G12
 121860667.903 7  94956353.16546  23189314.360    23189310.320          45.250
        39.250
 121030631.972 7  94309586.32546  23031363.480    23031362.260          45.250
        40.750
 123618258.264 6  96325955.43346  23523762.120    23523764.920          41.750
        38.000
 108279347.371 8  84373565.64148  20604864.780    20604866.480          50.000
        48.250
 115454062.116 7  89964213.81046  21970179.280    21970179.000          46.750
        41.250
 106298767.789 8  82830227.67548  20227970.340    20227970.160          50.500
        50.750
 115026064.380 8  89630741.57947  21888715.800    21888715.000          48.250
        44.750
 14  1  8  0 47  0.0000000  0  7G02G31G24G25G14G29G12
 121879352.802 7  94970912.84546  23192869.960    23192865.860          45.250
        38.500
 120942297.910 7  94240754.58346  23014554.040    23014552.760          45.250
        40.500
 123716598.236 6  96402583.93946  23542475.500    23542478.260          40.500
        39.250
 108279822.398 8  84373935.80348  20604955.120    20604956.900          50.000
        49.000
 115495536.987 7  89996531.87646  21978071.820    21978071.420          46.750
        41.000
 106269856.473 8  82807699.38548  20222468.640    20222468.460          50.250
        50.750
 115081471.969 8  89673916.30747  21899259.360    21899258.700          48.000
        44.500
 14  1  8  0 47 30.0000000  0  7G02G31G24G25G14G29G12
 121898530.799 7  94985856.74346  23196519.340    23196515.240          45.250
        38.750
 120854121.240 7  94172045.49946  22997774.580    22997773.280          46.000
        40.750
 123815145.683 6  96479374.13546  23561228.420    23561231.340          41.250
        38.500
 108280514.538 8  84374475.13048  20605086.860    20605088.660          50.250
        48.750
 115537511.934 7  90029239.61846  21986059.420    21986058.980          46.500
        41.500
 106241447.336 8  82785562.41248  20217062.500    20217062.340          50.500
        50.000
 115137006.067 8  89717189.62447  21909827.080    21909826.380          48.250
        44.250
 14  1  8  0 48  0.0000000  0  7G02G31G24G25G14G29G12
 121918203.957 7  95001186.50346  23200263.000    23200258.860          45.250
        39.750
 120766106.009 7  94103462.22546  22981025.800    22981024.620          46.000
        40.750
 123913900.293 6  96556325.77746  23580020.760    23580023.840          40.250
        39.250
 108281425.922 8  84375185.30548  20605260.380    20605262.120          50.250
        48.750
 115579987.130 7  90062337.15246  21994142.140    21994141.720          46.250
        41.000
 106213542.415 8  82763818.32748  20211752.320    20211752.200          50.500
        50.750
 115192668.054 8  89760562.59547  21920419.200    21920418.380          48.250
        44.500
 14  1  8  0 48 30.0000000  0  7G02G31G24G25G14G29G12
 121938368.508 7  95016899.15746  23204100.080    23204096.060          44.500
        39.250
 120678251.419 7  94035004.09546  22964307.640    22964306.340          45.250
        41.500
 124012858.265 6  96633435.84646  23598851.700    23598854.940          40.000
        38.000
 108282553.287 8  84376063.76948  20605474.940    20605476.720          50.000
        48.750
 115622957.208 7  90095820.31446  22002319.060    22002318.680          46.250
        40.750
 106186138.322 8  82742464.49948  20206537.520    20206537.340          50.750
        50.750
 115248454.925 7  89804032.87247  21931035.020    21931034.160          47.750
        44.250
 14  1  8  0 49  0.0000000  0  7G02G31G24G25G14G29G12
 121959027.259 7  95032996.89946  23208031.100    23208027.380          44.500
        38.500
 120590562.069 7  93966674.75647  22947620.840    22947619.560          45.500
        42.000
 124112020.367 6  96710705.01246  23617721.500    23617724.760          39.750
        39.000
 108283899.635 8  84377112.86548  20605731.140    20605732.960          50.000
        49.000
 115666422.902 7  90129689.69046  22010590.240    22010589.860          46.250
        41.000
 106159237.842 8  82721503.08448  20201418.560    20201418.360          50.500
        51.000
 115304369.122 7  89847602.35447  21941674.960    21941674.180          47.500
        44.500
 14  1  8  0 49 30.0000000  0  7G02G31G24G25G14G29G12
 121980177.967 7  95049477.97846  23212055.680    23212052.360          44.250
        39.750
 120503038.676 7  93898474.72646  22930965.600    22930964.360          45.250
        40.750
 124211383.040 6  96788130.45546  23636629.560    23636632.840          40.500
        38.250
 108285463.242 8  84378331.26648  20606028.700    20606030.520          50.000
        49.000
 115710380.635 7  90163942.45046  22018955.140    22018954.720          46.500
        41.000
 106132838.898 8  82700932.48148  20196395.020    20196394.800          50.500
        51.000
 115360409.049 7  89891269.81747  21952338.760    21952338.300          47.250
        44.250
 14  1  8  0 50  0.0000000  0  7G02G31G24G25G14G29G12
 122001818.576 7  95066340.77046  23216173.460    23216170.520          43.750
        40.000
 120415681.481 7  93830404.19646  22914342.000    22914340.700          45.250
        39.500
 124310943.252 6  96865709.80746  23655575.260    23655578.420          40.250
        38.000
 108287242.313 8  84379717.55848  20606367.180    20606369.040          50.000
        48.750
 115754826.264 7  90198575.39446  22027413.000    22027412.500          46.750
        41.000
 106106939.898 8  82680751.43948  20191466.600    20191466.360          50.500
        51.000
 115416572.601 7  89935033.61347  21963026.180    21963025.900          47.500
        44.000
 14  1  8  0 50 30.0000000  0  7G02G31G24G25G14G29G12
 122023952.576 7  95083588.04246  23220385.260    23220382.640          43.500
        40.500
 120328496.929 7  93762468.18646  22897751.300    22897750.000          44.500
        41.500
 124410703.435 6  96943444.97946  23674558.940    23674562.040          40.250
        38.000
 108289240.982 8  84381274.95848  20606747.460    20606749.360          50.000
        48.500
 115799761.923 7  90233590.17246  22035964.100    22035963.640          46.500
        41.500
 106081544.702 8  82660962.97348  20186634.060    20186633.840          50.500
        51.000
 115472863.663 8  89978896.76847  21973737.980    21973737.740          48.000
        43.750
 14  1  8  0 51  0.0000000  0  7G02G31G24G25G14G29G12
 122046576.801 7  95101217.30746  23224690.280    23224687.980          44.000
        39.000
 120241484.094 7  93694665.97946  22881193.300    22881192.040          45.000
        41.500
 124510658.912 6  97021332.34646  23693579.900    23693582.960          40.750
        38.250
 108291456.326 8  84383001.22148  20607169.020    20607170.940          50.000
        49.000
 115845182.424 7  90268982.76046  22044607.400    22044606.900          46.250
        40.250
 106056650.017 8  82641564.50548  20181896.760    20181896.540          50.500
        51.000
 115529278.855 7  90022856.64447  21984473.520    21984473.140          47.500
        44.500
 14  1  8  0 51 30.0000000  0  7G02G31G24G25G14G29G12
 122069691.600 7  95119228.85346  23229088.800    23229086.820          44.500
        40.500
 120154645.915 7  93626999.89846  22864668.520    22864667.400          45.500
        41.750
 124610808.285 6  97099370.80246  23712637.840    23712640.700          39.500
        38.500
 108293889.121 8  84384896.89748  20607631.940    20607633.940          50.000
        49.000
 115891086.157 7  90304751.89546  22053342.560    22053342.020          46.250
        40.750
 106032256.237 8  82622556.34448  20177254.800    20177254.580          50.500
        51.000
 115585818.824 7  90066913.75047  21995232.700    21995232.200          47.250
        44.000
 14  1  8  0 52  0.0000000  0  7G02G31G24G25G14G29G12
 122093296.392 7  95137622.19946  23233580.720    23233578.780          44.750
        39.500
 120067984.652 7  93559471.65446  22848177.540    22848176.320          45.500
        41.500
 124711150.345 6  97177559.38346  23731732.260    23731735.060          40.250
        37.000
 108296539.335 8  84386961.99548  20608136.280    20608138.340          50.250
        48.750
 115937471.018 7  90340895.93246  22062169.260    22062168.740          46.250
        41.000
 106008363.157 8  82603938.36048  20172708.080    20172707.940          50.750
        51.000
 115642483.281 7  90111067.85847  22006015.580    22006014.980          47.250
        44.000
 14  1  8  0 52 30.0000000  0  7G02G31G24G25G14G29G12
 122117392.217 7  95156398.18946  23238166.080    23238164.200          43.500
        41.000
 119981503.734 7  93492083.95647  22831720.820    22831719.460          45.750
        42.000
 124811684.581 6  97255897.71446  23750863.260    23750866.160          39.500
        38.000
 108299408.456 8  84389197.66148  20608682.320    20608684.280          50.000
        48.750
 115984336.360 7  90377414.37046  22071087.340    22071086.960          46.250
        41.000
 105984972.237 8  82585711.67548  20168256.920    20168256.860          50.500
        51.000
 115699273.311 8  90155319.81847  22016822.460    22016821.840          48.000
        44.250
 14  1  8  0 53  0.0000000  0  7G02G31G24G25G14G29G12
 122141979.971 7  95175557.44946  23242844.700    23242843.140          43.000
        40.500
 119895207.011 7  93424839.77347  22815299.020    22815297.620          45.500
        42.000
 124912410.907 6  97334385.75246  23770030.740    23770033.760          38.750
        39.250
 108302498.167 8  84391605.23048  20609270.300    20609272.220          50.000
        48.750
 116031681.316 7  90414306.51846  22080096.780    22080096.440          46.250
        40.500
 105962084.779 8  82567877.29448  20163901.620    20163901.500          50.750
        51.250
 115756190.892 8  90199671.16147  22027653.740    22027653.060          48.000
        44.250
 14  1  8  0 53 30.0000000  0  7G02G31G24G25G14G29G12
 122167053.314 7  95195095.12946  23247615.840    23247614.440          43.500
        39.250
 119809090.761 7  93357736.19946  22798911.600    22798910.200          46.500
        41.500
 125013321.823 6  97413017.61146  23789233.500    23789236.580          39.500
        38.750
 108305802.542 8  84394180.06348  20609899.080    20609901.060          50.000
        48.750
 116079497.682 7  90451566.01046  22089196.060    22089195.660          46.750
        40.750
 105939694.405 8  82550430.26048  20159640.920    20159640.720          50.750
        51.250
 115813229.244 8  90244116.62047  22038508.040    22038507.060          48.250
        43.750
 14  1  8  0 54  0.0000000  0  7G02G31G24G25G14G29G12
 122192612.855 7  95215011.64146  23252479.840    23252478.400          44.500
        40.250
 119723158.295 7  93290775.82846  22782559.300    22782557.820          46.750
        41.500
 125114416.819 6  97491792.90546  23808471.340    23808474.200          39.750
        36.500
 108309322.800 8  84396923.11848  20610569.000    20610570.880          50.250
        48.750
 116127784.516 7  90489192.09946  22098384.860    22098384.480          46.250
        40.250
 105917802.174 8  82533371.40148  20155475.000    20155474.720          50.500
        51.250
 115870389.870 8  90288657.35747  22049385.620    22049384.380          48.000
        43.750
 14  1  8  0 54 30.0000000  0  7G02G31G24G25G14G29G12
 122218661.094 7  95235308.97446  23257437.080    23257435.400          44.750
        40.750
 119637414.882 7  93223962.77547  22766242.960    22766241.480          46.750
        42.250
 125215696.984 6  97570712.51246  23827744.520    23827747.100          40.000
        37.250
 108313061.942 8  84399836.72748  20611280.540    20611282.380          50.000
        48.750
 116176542.256 7  90527185.13946  22107663.180    22107662.780          46.000
        39.500
 105896410.512 8  82516702.56748  20151404.260    20151404.000          50.750
        51.250
 115927675.319 8  90333295.36147  22060286.840    22060285.520          48.000
        44.500
 14  1  8  0 55  0.0000000  0  7G02G31G24G25G14G29G12
 122245199.065 7  95255987.90646  23262487.380    23262485.580          44.000
        39.750
 119551864.305 7  93157299.99447  22749963.240    22749961.820          46.500
        42.500
 125317162.296 6  97649776.32245  23847052.820    23847055.360          40.250
        35.500
 108317021.627 8  84402922.18748  20612034.020    20612035.920          50.000
        49.000
 116225770.220 7  90565544.57546  22117030.900    22117030.520          46.000
        40.750
 105875520.590 8  82500424.70448  20147429.000    20147428.820          50.500
        51.250
 115985086.718 7  90378031.49247  22071211.940    22071210.680          47.750
        44.250
 14  1  8  0 55 30.0000000  0  7G02G31G24G25G14G29G12
 122272226.230 7  95277048.03546  23267630.660    23267628.700          44.500
        39.500
 119466509.024 7  93090789.39947  22733720.600    22733719.280          46.250
        42.500
 125418811.009 6  97728983.09546  23866395.940    23866398.500          39.500
        39.750
 108321202.160 8  84406179.74348  20612829.620    20612831.440          50.250
        48.750
 116275466.484 7  90604268.91946  22126487.680    22126487.460          46.000
        40.500
 105855132.532 8  82484537.90548  20143549.240    20143549.100          50.500
        51.250
 116042624.627 8  90422866.21247  22082161.060    22082159.860          48.000
        43.750
 14  1  8  0 56  0.0000000  0  7G02G31G24G25G14G29G12
 122299736.522 7  95298484.62846  23272865.940    23272863.560          44.500
        38.500
 119381345.469 7  93024428.19247  22717514.500    22717513.240          46.250
        42.250
 125520636.234 6  97808327.40046  23885772.680    23885775.340          39.750
        37.750
 108325597.942 8  84409605.02048  20613666.100    20613667.880          50.000
        48.500
 116325622.938 7  90643351.85946  22136032.100    22136031.900          46.250
        40.500
 105835240.220 8  82469037.41348  20139763.840    20139763.720          50.750
        51.250
 116100282.874 7  90467794.69947  22093132.900    22093131.860          47.250
        44.000
 14  1  8  0 56 30.0000000  0  8G02G31G24G25G14G21G29G12
 122327737.282 7  95320303.41646  23278194.520    23278191.600          45.250
        38.750
 119296383.774 7  92958224.28247  22701346.760    22701345.580          46.750
        42.250
 125622643.740 6  97887813.75046  23905184.160    23905186.760          40.500
        37.250
 108330216.969 8  84413204.24748  20614545.000    20614546.820          50.000
        48.750
 116376245.200 7  90682797.76446  22145665.200    22145664.900          45.750
        39.750
 129714131.398 6 101075954.38344  24683778.800    24683778.800          37.750
        26.250
 105815851.228 8  82453929.11848  20136074.240    20136074.140          50.750
        51.250
 116158069.288 7  90512823.07047  22104129.120    22104128.180          47.500
        43.750
 14  1  8  0 57  0.0000000  0  8G02G31G24G25G14G21G29G12
 122356212.758 7  95342492.11846  23283613.380    23283610.080          45.000
        39.750
 119211611.295 7  92892167.79647  22685215.080    22685213.960          46.750
        42.250
 125724816.751 6  97967429.08546  23924627.100    23924629.700          40.000
        37.000
 108335044.136 8  84416965.65648  20615463.660    20615465.440          50.000
        48.750
 116427315.500 7  90722592.78346  22155383.580    22155383.280          46.000
        40.750
 129621097.004 6 101003460.23545  24666074.360    24666075.440          37.250
        35.000
 105796950.014 8  82439200.89748  20132477.460    20132477.340          50.750
        51.250
 116215968.538 7  90557939.35847  22115146.900    22115146.040          47.750
        43.250
 14  1  8  0 57 30.0000000  0  8G02G31G24G25G14G21G29G12
 122385179.171 7  95365063.35646  23289125.540    23289122.000          44.500
        39.500
 119127047.251 7  92826273.75046  22669123.020    22669122.040          45.750
        41.750
 125827170.880 6  98047185.49346  23944104.480    23944107.180          41.000
        37.750
 108340096.835 8  84420902.81548  20616425.140    20616426.960          50.000
        48.500
 116478848.924 7  90762748.67546  22165190.100    22165189.820          46.000
        40.750
 129528032.803 6 100930942.82345  24648364.820    24648365.860          38.250
        33.250
 105778553.309 8  82424865.79448  20128976.700    20128976.520          50.750
        51.250
 116273997.709 7  90603156.87347  22126189.460    22126188.740          47.250
        44.000
 14  1  8  0 58  0.0000000  0  8G02G31G24G25G14G21G29G12
 122414628.558 7  95388010.92946  23294729.580    23294725.880          44.750
        38.750
 119042686.230 7  92760537.89646  22653069.560    22653068.680          46.000
        41.750
 125929696.913 6  98127075.86245  23963614.680    23963617.440          41.250
        33.250
 108345367.701 8  84425009.97648  20617428.120    20617429.980          50.000
        48.750
 116530835.744 7  90803257.87446  22175082.880    22175082.720          45.750
        39.750
 129434933.594 6 100858398.19445  24630648.480    24630649.680          38.000
        34.000
 105760653.279 8  82410917.74548  20125570.480    20125570.240          50.750
        51.250
 116332149.364 7  90648469.82347  22137255.280    22137254.800          47.250
        44.250
 14  1  8  0 58 30.0000000  0  8G02G31G24G25G14G21G29G12
 122444562.236 7  95411335.85846  23300425.760    23300422.040          44.250
        38.500
 118958532.334 7  92694963.44647  22637055.560    22637054.640          46.000
        42.250
 126032394.913 6  98207100.25346  23983157.640    23983160.120          40.750
        36.000
 108350858.588 8  84429288.58248  20618472.940    20618474.920          49.750
        49.000
 116583275.131 7  90844119.71346  22185061.800    22185061.720          45.750
        40.000
 129341803.564 6 100785829.48844  24612926.380    24612927.160          37.750
        24.000
 105743251.129 8  82397357.63648  20122259.020    20122258.700          50.750
        51.500
 116390424.893 7  90693879.31847  22148344.660    22148344.240          47.250
        43.250
 14  1  8  0 59  0.0000000  0  8G02G31G24G25G14G21G29G12
 122474977.782 7  95435036.28846  23306213.620    23306209.800          44.500
        39.000
 118874586.437 7  92629551.05747  22621081.220    22621080.120          46.250
        42.000
 126135261.207 6  98287255.81145  24002732.600    24002734.820          40.250
        33.250
 108356567.816 8  84433737.33848  20619559.320    20619561.440          50.000
        48.500
 116636162.470 7  90885330.61046  22195125.880    22195125.840          45.750
        41.000
 129248643.207 6 100713237.11146  24595198.480    24595198.960          37.750
        36.250
 105726344.742 8  82384183.83448  20119041.880    20119041.540          50.750
        51.250
 116448822.639 7  90739384.05747  22159457.320    22159456.780          47.250
        43.250
 14  1  8  0 59 30.0000000  0  8G02G31G24G25G14G21G29G12
 122505874.847 7  95459111.92146  23312093.020    23312089.320          44.750
        39.000
 118790851.541 7  92564303.09247  22605147.000    22605145.740          45.750
        42.500
 126238294.980 6  98367541.81846  24022339.320    24022341.560          40.000
        36.500
 108362496.295 8  84438356.92648  20620687.460    20620689.620          50.000
        49.000
 116689496.595 7  90926889.66046  22205274.940    22205274.940          45.750
        40.500
 129155455.894 6 100640623.81145  24577465.460    24577465.940          37.750
        33.750
 105709934.278 8  82371396.46848  20115919.080    20115918.720          50.750
        51.250
 116507343.218 7  90784984.49847  22170593.480    22170592.800          47.250
        43.250
 14  1  8  1  0  0.0000000  0  8G02G31G24G25G14G21G29G12
 122537254.261 7  95483563.42546  23318064.180    23318060.460          44.500
        38.500
 118707331.089 7  92499222.23247  22589253.580    22589252.340          46.000
        42.500
 126341496.078 6  98447958.22846  24041977.860    24041980.120          39.500
        36.000
 108368645.629 8  84443148.61148  20621857.680    20621859.780          50.000
        48.750
 116743276.515 7  90968796.07546  22215508.920    22215508.880          45.750
        40.750
 129062245.202 6 100567992.24645  24559727.840    24559728.480          36.750
        31.000
 105694021.226 8  82358996.68148  20112890.880    20112890.540          50.750
        51.500
 116565987.635 7  90830681.41147  22181753.220    22181752.440          47.500
        44.000
 14  1  8  1  0 30.0000000  0  8G02G31G24G25G14G21G29G12
 122569114.574 7  95508389.67646  23324126.860    23324122.980          45.000
        37.250
 118624026.958 7  92434309.92747  22573401.300    22573400.060          46.500
        42.000
 126444861.561 6  98528502.71146  24061647.480    24061649.840          39.500
        38.000
 108375015.245 8  84448111.93548  20623069.840    20623071.840          50.000
        48.750
 116797498.903 7  91011047.26746  22225827.160    22225827.060          46.250
        40.500
 128969012.803 5 100495343.72645  24541985.820    24541986.660          35.250
        33.750
 105678603.901 8  82346983.19348  20109957.020    20109956.680          50.750
        51.500
 116624755.293 7  90876474.37347  22192936.480    22192935.520          47.500
        43.750
 14  1  8  1  1  0.0000000  0  8G02G31G24G25G14G21G29G12
 122601452.786 7  95533588.30646  23330280.500    23330276.460          44.250
        38.500
 118540938.773 7  92369565.87847  22557590.200    22557588.860          46.250
        42.750
 126548387.970 6  98609172.59545  24081347.800    24081350.140          39.500
        35.500
 108381602.928 8  84453245.18948  20624323.500    20624325.440          50.250
        48.750
 116852159.121 7  91053639.63446  22236228.720    22236228.500          46.000
        40.250
 128875759.119 6 100422678.65545  24524239.740    24524241.020          36.250
        33.000
 105663679.524 8  82335353.82348  20107116.960    20107116.680          50.750
        51.500
 116683643.936 7  90922361.62347  22204142.780    22204141.720          47.500
        42.750
 14  1  8  1  1 30.0000000  0  8G02G31G24G25G14G21G29G12
 122634269.355 7  95559159.67546  23336525.140    23336521.160          43.250
        38.000
 118458070.187 7  92304992.96047  22541820.840    22541819.500          46.750
        42.250
 126652074.045 6  98689966.91245  24101078.600    24101081.080          39.750
        35.500
 108388410.146 8  84458549.50848  20625618.940    20625620.880          50.250
        48.750
 116907255.934 7  91096572.19146  22246713.400    22246713.160          45.750
        39.500
 128782487.211 6 100349999.40845  24506490.480    24506491.860          37.000
        33.250
 105649248.566 8  82324108.91948  20104370.840    20104370.560          50.750
        51.500
 116742655.107 7  90968344.34347  22215372.280    22215371.160          47.250
        43.000
 14  1  8  1  2  0.0000000  0  8G02G31G24G25G14G21G29G12
 122667566.311 6  95585105.33946  23342860.900    23342857.520          41.750
        40.500
 118375426.793 7  92240595.51047  22526094.340    22526092.900          47.000
        43.000
 126755921.512 6  98770886.99446  24120840.240    24120842.600          40.250
        37.000
 108395439.671 8  84464027.04448  20626956.700    20626958.500          50.250
        48.750
 116962789.381 7  91139844.99046  22257281.180    22257280.840          46.000
        39.750
 128689202.727 6 100277310.40446  24488738.720    24488740.200          36.500
        36.750
 105635313.436 8  82313250.36848  20101719.100    20101718.780          51.000
        51.500
 116801790.720 7  91014424.02647  22226625.420    22226624.300          47.250
        43.750
 14  1  8  1  2 30.0000000  0  8G02G31G24G25G14G21G29G12
 122701338.030 7  95611420.92746  23349286.980    23349284.460          43.000
        40.500
 118293005.364 7  92176371.01047  22510410.120    22510408.640          46.750
        43.750
 126859923.712 6  98851927.60245  24140631.200    24140633.760          39.000
        35.000
 108402686.977 8  84469674.28948  20628335.820    20628337.580          50.000
        48.500
 117018752.179 7  91183452.34546  22267930.600    22267930.260          45.250
        40.250
 128595903.412 6 100204609.72145  24470984.260    24470985.740          36.500
        30.750
 105621869.101 8  82302774.26248  20099160.760    20099160.400          50.750
        51.500
 116861046.045 7  91060596.99447  22237901.340    22237900.260          47.250
        43.000
 14  1  8  1  3  0.0000000  0  8G02G31G24G25G14G21G29G12
 122735585.485 7  95638107.22746  23355803.800    23355801.840          43.500
        41.250
 118210809.814 7  92112322.51747  22494768.960    22494767.380          47.250
        43.250
 126964080.346 6  98933088.60945  24160451.560    24160454.260          39.750
        34.250
 108410153.949 8  84475492.70048  20629756.720    20629758.560          50.000
        48.750
 117075143.665 7  91227393.75346  22278661.500    22278661.200          45.500
        39.500
 128502593.089 6 100131900.55945  24453227.660    24453229.260          37.000
        34.250
 105608916.518 8  82292681.34748  20096695.960    20096695.620          51.000
        51.500
 116920422.835 7  91106864.59647  22249200.340    22249199.260          47.250
        43.250
 14  1  8  1  3 30.0000000  0  8G02G31G24G25G14G21G29G12
 122770309.272 7  95665164.70946  23362411.440    23362409.620          44.000
        39.250
 118128844.845 7  92048453.71647  22479171.560    22479169.980          47.500
        43.500
 127068391.673 6  99014370.14845  24180301.380    24180304.200          39.500
        34.500
 108417842.415 8  84481483.71148  20631219.760    20631221.680          50.250
        48.500
 117131962.833 7  91271668.41646  22289473.740    22289473.500          45.250
        40.000
 128409275.422 6 100059185.63346  24435469.680    24435471.360          37.000
        37.750
 105596456.882 8  82282972.53948  20094324.960    20094324.600          50.750
        51.500
 116979922.486 7  91153227.94447  22260522.800    22260521.560          47.500
        43.000
 14  1  8  1  4  0.0000000  0  8G02G31G24G25G14G21G29G12
 122805506.633 7  95692591.23646  23369109.320    23369107.460          44.250
        38.750
 118047110.443 7  91984764.57047  22463618.020    22463616.460          47.250
        44.000
 127172853.698 6  99095769.06045  24200179.840    24200182.560          39.500
        34.000
 108425750.573 8  84487645.90448  20632724.600    20632726.540          50.000
        48.500
 117189205.542 7  91316273.11746  22300366.560    22300366.520          45.250
        40.250
 128315951.600 6  99986465.92245  24417710.620    24417712.300          36.500
        34.250
 105584487.290 8  82273645.57748  20092047.220    20092046.840          50.750
        51.500
 117039543.520 7  91199685.88047  22271868.420    22271867.080          47.500
        43.500
 14  1  8  1  4 30.0000000  0  8G02G31G24G25G14G21G29G12
 122841177.270 7  95720386.55046  23375897.320    23375895.260          43.500
        38.750
 117965609.809 7  91921257.59347  22448108.940    22448107.580          47.500
        44.250
 127277465.540 6  99177284.73546  24220086.780    24220089.640          39.250
        37.000
 108433879.096 8  84493979.79848  20634271.340    20634273.420          50.000
        48.750
 117246869.076 7  91361205.72846  22311339.560    22311339.520          45.250
        39.500
 128222624.390 6  99913743.52846  24399950.860    24399952.600          36.500
        36.500
 105573007.912 8  82264700.60748  20089862.760    20089862.380          50.750
        51.500
 117099285.866 7  91246238.36047  22283237.060    22283235.780          46.500
        43.500
 14  1  8  1  5  0.0000000  0  8G02G31G24G25G14G21G29G12
 122877321.989 6  95748551.27746  23382775.380    23382773.360          41.500
        40.000
 117884346.700 7  91857935.69647  22432645.100    22432643.840          47.500
        44.250
 127382226.374 6  99258916.50546  24240022.040    24240025.060          39.000
        37.500
 108442229.831 8  84500486.85848  20635860.460    20635862.540          50.250
        48.500
 117304952.875 7  91406465.81346  22322392.500    22322392.440          45.250
        40.250
 128129297.448 6  99841021.43246  24382191.260    24382192.700          37.000
        36.250
 105562019.820 8  82256138.47548  20087771.740    20087771.440          50.750
        51.750
 117159151.472 7  91292886.86747  22294628.960    22294627.840          46.500
        43.000
 14  1  8  1  5 30.0000000  0  8G02G31G24G25G14G21G29G12
 122913937.692 6  95777082.97746  23389743.020    23389741.180          41.750
        39.250
 117803320.864 7  91794798.69147  22417226.400    22417225.120          47.500
        43.500
 127487132.545 6  99340661.52645  24259984.920    24259988.100          39.250
        35.000
 108450800.904 8  84507165.61648  20637491.500    20637493.520          50.000
        48.500
 117363452.355 7  91452049.81346  22333524.600    22333524.520          45.500
        39.000
 128035971.405 6  99768299.99244  24364431.780    24364432.920          37.250
        29.250
 105551520.096 8  82247956.87848  20085773.660    20085773.420          50.750
        51.500
 117219138.172 7  91339629.73047  22306044.000    22306042.880          47.250
        42.750
 14  1  8  1  6  0.0000000  0  8G02G31G24G25G14G21G29G12
 122951022.130 7  95805979.92446  23396800.100    23396798.260          42.750
        40.000
 117722533.932 7  91731847.83047  22401853.160    22401851.800          47.250
        43.750
 127592181.576 6  99422517.86145  24279975.060    24279978.320          39.250
        34.750
 108459591.286 8  84514015.26248  20639164.300    20639166.160          50.250
        48.500
 117422363.460 7  91497954.55446  22344735.040    22344734.980          45.000
        39.250
 127942647.564 6  99695580.28345  24346672.760    24346673.540          37.000
        30.750
 105541506.481 8  82240154.05848  20083868.060    20083867.880          50.750
        51.750
 117279244.598 7  91386465.89447  22317481.900    22317480.720          47.500
        42.750
 14  1  8  1  6 30.0000000  0  8G02G31G24G25G14G21G29G12
 122988575.794 7  95835242.51046  23403946.720    23403944.580          44.500
        40.000
 117641989.722 7  91669086.09647  22386526.100    22386524.640          47.000
        43.250
 127697372.533 6  99504484.78745  24299992.360    24299995.620          39.000
        34.250
 108468602.547 8  84521037.02048  20640879.120    20640880.840          50.250
        48.500
 117481685.086 7  91544179.18546  22356023.540    22356023.560          45.000
        40.000
 127849329.566 6  99622865.09246  24328914.940    24328915.240          37.250
        37.500
 105531980.108 8  82232730.88948  20082055.220    20082055.080          50.750
        51.750
 117339472.015 7  91433396.33547  22328942.880    22328941.640          47.000
        42.500
 14  1  8  1  7  0.0000000  0  8G02G31G24G25G14G21G29G12
 123026600.744 7  95864872.34846  23411183.120    23411180.480          45.250
        39.000
 117561693.014 7  91606517.21647  22371246.120    22371244.440          47.250
        43.000
 127802706.429 6  99586563.10946  24320036.740    24320040.080          39.500
        37.750
 108477837.633 8  84528233.17948  20642636.500    20642638.280          50.000
        49.000
 117541417.392 7  91590723.82346  22367390.220    22367390.240          45.500
        39.500
 127756022.830 6  99550158.71445  24311159.340    24311159.360          38.750
        33.250
 105522943.005 8  82225689.01048  20080335.580    20080335.400          51.000
        51.500
 117399823.134 7  91480423.16847  22340427.260    22340426.180          46.500
        43.250
 14  1  8  1  7 30.0000000  0  8G02G31G24G25G14G21G29G12
 123065092.000 7  95894865.55146  23418508.100    23418505.140          45.000
        39.750
 117481642.562 7  91544140.24947  22356012.980    22356011.260          47.250
        43.500
 127908178.021 6  99668748.70745  24340107.480    24340110.560          38.750
        34.750
 108487292.977 8  84535600.99348  20644435.740    20644437.620          50.000
        48.750
 117601553.635 7  91637583.21846  22378833.880    22378833.920          45.250
        39.500
 127662725.732 6  99477459.75444  24293405.760    24293405.420          39.000
        29.500
 105514390.735 8  82219024.91548  20078708.220    20078708.000          51.000
        51.750
 117460294.007 7  91527543.32747  22351934.320    22351933.500          46.500
        42.500
 14  1  8  1  8  0.0000000  0  8G02G31G24G25G14G21G29G12
 123104050.353 7  95925222.69246  23425921.840    23425918.860          44.500
        38.750
 117401842.436 7  91481958.33347  22340827.420    22340825.820          47.000
        43.000
 128013786.745 6  99751041.18546  24360204.360    24360206.940          38.750
        36.750
 108496970.330 8  84543141.77948  20646277.220    20646279.200          50.000
        48.750
 117662093.031 7  91684756.75946  22390354.280    22390354.300          45.500
        39.250
 127569441.753 6  99404771.06844  24275654.740    24275653.900          39.500
        29.750
 105506323.982 8  82212739.14448  20077173.240    20077172.940          51.000
        51.750
 117520886.305 7  91574758.10047  22363464.600    22363463.740          46.750
        42.750
 14  1  8  1  8 30.0000000  0  8G02G31G24G25G14G21G29G12
 123143474.979 7  95955943.18546  23433424.260    23433421.260          43.250
        37.750
 117322295.180 7  91419973.46847  22325690.020    22325688.520          47.500
        42.500
 128119531.475 6  99833439.55645  24380326.960    24380329.380          37.750
        35.500
 108506870.378 8  84550856.09048  20648161.140    20648163.140          50.000
        48.750
 117723033.465 7  91732242.78146  22401950.960    22401950.820          45.000
        39.500
 127476174.690 6  99332095.56645  24257906.900    24257905.620          39.250
        30.750
 105498742.324 8  82206831.35048  20075730.520    20075730.180          51.000
        51.750
 117581600.528 7  91622067.87047  22375018.160    22375017.380          47.000
        42.750
 14  1  8  1  9  0.0000000  0  8G02G31G24G25G14G21G29G12
 123183364.220 7  95987025.70146  23441014.840    23441011.740          42.750
        37.000
 117243002.704 7  91358187.13247  22310601.160    22310599.720          47.250
        43.500
 128225409.832 6  99915942.13846  24400475.060    24400477.420          37.500
        37.000
 108516992.798 8  84558743.68048  20650087.320    20650089.420          50.000
        48.750
 117784371.295 7  91780038.48546  22413623.180    22413622.920          45.000
        40.000
 127382926.445 6  99259434.70245  24240162.520    24240160.880          39.000
        33.000
 105491644.498 8  82201300.58048  20074379.880    20074379.460          51.000
        51.750
 117642435.961 7  91669472.07947  22386594.660    22386594.220          46.500
        43.250
 14  1  8  1  9 30.0000000  0  8G02G31G24G25G14G21G29G12
 123223717.939 7  96018470.17446  23448693.900    23448690.660          43.750
        37.750
 117163968.116 7  91296601.74547  22295561.300    22295559.960          47.000
        43.000
 128331420.687 6  99998547.88246  24420648.260    24420650.860          38.500
        37.750
 108527338.528 8  84566805.29048  20652056.000    20652058.160          49.750
        48.750
 117846104.814 7  91828142.52946  22425370.700    22425370.280          45.000
        38.750
 127289700.006 6  99186790.79945  24222422.160    24222420.300          39.250
        35.500
 105485031.275 8  82196147.41348  20073121.400    20073120.980          51.000
        51.750
 117703393.776 7  91716971.65547  22398194.480    22398194.280          46.250
        42.750
 14  1  8  1 10  0.0000000  0  8G02G31G24G25G14G21G29G12
 123264533.652 7  96050274.63746  23456460.880    23456457.460          44.250
        38.500
 117085192.166 7  91235217.88547  22280570.720    22280569.400          47.250
        43.750
 128437560.485 6 100081254.18245  24440845.940    24440848.840          37.750
        34.500
 108537906.299 8  84575039.90748  20654066.980    20654069.120          50.000
        48.500
 117908230.064 7  91876551.77846  22437192.740    22437192.240          44.750
        39.000
 127196495.832 6  99114164.28545  24204686.040    24204684.260          39.750
        31.750
 105478899.442 8  82191369.35248  20071954.560    20071954.140          51.000
        51.750
 117764472.092 7  91764565.14147  22409817.280    22409817.140          46.750
        42.750
 14  1  8  1 10 30.0000000  0  8G02G31G24G25G14G21G29G12
 123305810.755 7  96082438.60546  23464315.680    23464312.080          45.000
        39.000
 117006677.805 7  91174037.87047  22265629.960    22265628.600          47.000
        42.750
 128543828.553 6 100164060.40545  24461068.060    24461071.220          37.750
        33.250
 108548696.873 8  84583448.13848  20656120.440    20656122.440          50.000
        48.500
 117970744.788 7  91925264.53446  22449088.980    22449088.340          44.750
        39.250
 127103317.495 6  99041557.88145  24186954.720    24186953.180          40.000
        35.500
 105473248.878 8  82186966.31348  20070879.280    20070878.860          51.000
        51.500
 117825671.583 7  91812253.05147  22421463.200    22421462.940          46.500
        42.500
 14  1  8  1 11  0.0000000  0  8G02G31G24G25G14G21G29G12
 123347548.367 7  96114961.43046  23472258.120    23472254.600          44.500
        39.250
 116928427.781 7  91113063.82147  22250739.520    22250738.060          47.500
        42.250
 128650223.533 6 100246965.54545  24481314.300    24481317.760          38.000
        33.500
 108559710.808 8  84592030.40848  20658216.400    20658218.320          50.000
        48.750
 118033646.283 7  91974278.66846  22461058.660    22461058.140          44.500
        39.500
 127010167.871 6  98968973.83845  24169228.900    24169227.560          40.250
        33.500
 105468079.132 8  82182937.93148  20069895.480    20069895.100          50.750
        51.750
 117886992.145 7  91860035.28947  22433132.140    22433131.720          46.500
        42.500
 14  1  8  1 11 30.0000000  0  8G02G31G24G25G14G21G29G12
 123389744.828 7  96147841.79546  23480287.700    23480284.440          43.000
        40.000
 116850443.759 7  91052297.06147  22235899.680    22235898.140          47.750
        43.500
 128756742.167 6 100329967.01546  24501584.160    24501587.820          37.750
        36.250
 108570947.681 8  84600786.39948  20660354.760    20660356.660          50.000
        48.500
 118096931.015 7  92023591.43146  22473101.220    22473100.940          44.500
        39.000
 126917048.514 6  98896413.36845  24151508.720    24151507.660          40.000
        31.750
 105463388.598 8  82179282.96948  20069002.840    20069002.520          51.000
        51.750
 117948433.282 7  91907911.48647  22444824.000    22444823.500          46.250
        43.000
 14  1  8  1 12  0.0000000  0  8G02G31G24G25G14G21G29G12
 123432399.967 6  96181079.54346  23488404.500    23488401.540          41.750
        40.000
 116772729.294 7  90991740.33747  22221111.160    22221109.660          47.500
        44.500
 128863383.503 6 100413064.06745  24521877.460    24521881.040          37.500
        35.750
 108582408.567 8  84609716.97448  20662535.640    20662537.580          49.750
        48.750
 118160597.309 7  92073201.52746  22485216.400    22485216.380          44.000
        39.500
 126823962.590 6  98823878.92645  24133794.760    24133794.120          39.000
        33.250
 105459177.640 8  82176001.72448  20068201.460    20068201.180          51.000
        51.750
 118009995.465 7  91955882.00147  22456538.880    22456538.520          46.250
        42.500
 14  1  8  1 12 30.0000000  0  8G02G31G24G25G14G21G29G12
 123475513.092 7  96214674.14546  23496608.260    23496605.620          42.500
        39.500
 116695286.672 7  90931395.45547  22206374.260    22206373.020          47.750
        44.500
 128970146.845 6 100496256.20445  24542194.020    24542197.620          38.000
        35.250
 108594094.139 8  84618822.60348  20664759.240    20664761.240          50.000
        48.750
 118224642.799 7  92123107.09346  22497403.840    22497403.820          44.750
        38.250
 126730913.505 6  98751373.25545  24116087.740    24116087.520          39.250
        33.000
 105455445.485 8  82173093.52348  20067491.260    20067490.980          51.000
        51.750
 118071680.309 7  92003948.10447  22468277.220    22468276.820          47.000
        43.000
 14  1  8  1 13  0.0000000  0  8G02G31G24G25G14G21G29G12
 123519080.610 7  96248622.85646  23504898.620    23504895.900          42.750
        37.250
 116618116.266 8  90871262.66747  22191689.240    22191688.100          48.500
        44.250
 129077028.031 6 100579540.15546  24562533.080    24562536.360          38.250
        36.500
 108606002.604 8  84628101.92248  20667025.320    20667027.380          50.000
        48.750
 118289062.918 7  92173304.55946  22509662.600    22509662.440          44.250
        39.750
 126637900.936 6  98678896.01045  24098387.680    24098387.760          39.750
        32.750
 105452189.263 8  82170556.20948  20066871.660    20066871.320          51.250
        51.750
 118133484.991 7  92052107.57547  22480038.380    22480038.000          46.500
        42.500
 14  1  8  1 13 30.0000000  0  8G02G31G24G25G14G21G29G12
 123563102.484 7  96282925.62146  23513275.720    23513272.740          44.500
        37.500
 116541221.281 8  90811344.48747  22177056.720    22177055.440          48.500
        44.750
 129184025.795 6 100662914.95345  24582894.180    24582897.320          38.000
        34.000
 108618135.107 8  84637555.80848  20669334.100    20669336.140          50.000
        48.750
 118353855.461 7  92223792.23346  22521992.200    22521991.980          44.500
        38.250
 126544928.945 6  98606450.36845  24080695.400    24080695.780          39.750
        34.500
 105449408.942 8  82168389.70948  20066342.600    20066342.240          51.000
        51.750
 118195410.632 7  92100361.30447  22491822.440    22491822.100          46.000
        42.250
 14  1  8  1 14  0.0000000  0  8G02G31G24G25G14G21G29G12
 123607574.914 7  96317579.47246  23521738.660    23521735.500          44.250
        38.000
 116464602.194 8  90751641.30047  22162476.720    22162475.300          48.250
        44.500
 129291136.514 6 100746377.76845  24603276.780    24603279.880          38.500
        31.500
 108630489.574 8  84647182.66948  20671685.100    20671687.220          50.000
        48.750
 118419015.581 7  92274566.33446  22534391.800    22534391.540          44.750
        39.000
 126451997.206 6  98534036.01245  24063010.980    24063011.660          39.750
        32.500
 105447101.587 8  82166591.77248  20065903.560    20065903.180          51.000
        51.750
 118257454.775 7  92148707.37846  22503629.040    22503628.500          46.500
        41.500
 14  1  8  1 14 30.0000000  0  8G02G31G24G25G14G21G29G12
 123652501.836 7  96352587.47646  23530288.140    23530284.700          43.750
        37.250
 116388265.786 8  90692158.38947  22147950.440    22147948.880          48.000
        44.750
 129398362.867 6 100829930.70745  24623681.300    24623684.320          38.250
        34.500
 108643070.983 8  84656986.35248  20674079.340    20674081.480          50.250
        48.750
 118484544.798 7  92325628.04146  22546861.700    22546861.440          45.000
        38.000
 126359112.867 6  98461658.69545  24045335.520    24045336.500          38.750
        35.750
 105445270.712 8  82165165.12848  20065555.160    20065554.820          51.000
        51.750
 118319621.832 7  92197149.22346  22515459.100    22515458.200          46.000
        41.500
 14  1  8  1 15  0.0000000  0  8G02G31G24G25G14G21G29G12
 123697879.658 7  96387946.82846  23538923.440    23538920.000          43.250
        36.750
 116312212.690 8  90632896.24647  22133478.000    22133476.440          48.000
        44.250
 129505701.189 6 100913570.87245  24644107.120    24644110.200          37.500
        34.250
 108655877.644 8  84666965.56048  20676516.520    20676518.520          50.250
        48.500
 118550438.694 7  92376973.92246  22559401.040    22559400.780          44.500
        39.000
 126266275.960 6  98389318.33045  24027668.880    24027670.140          38.500
        32.250
 105443913.520 8  82164107.57448  20065296.920    20065296.580          51.000
        51.750
 118381910.256 7  92245685.61947  22527312.220    22527311.160          46.500
        42.000
 14  1  8  1 15 30.0000000  0  8G02G31G24G25G14G21G29G12
 123743708.365 7  96423657.48546  23547644.240    23547641.200          42.250
        38.250
 116236445.938 8  90573857.22547  22119060.020    22119058.540          48.250
        44.750
 129613149.800 6 100997296.98745  24664553.860    24664557.220          36.750
        33.250
 108668910.284 8  84677120.86048  20678996.580    20678998.480          50.000
        48.250
 118616694.697 7  92428601.93746  22572009.160    22572009.000          44.000
        39.500
 126173490.765 6  98317018.24545  24010012.160    24010013.480          39.750
        34.750
 105443029.137 8  82163418.43248  20065128.660    20065128.300          51.000
        51.750
 118444320.353 7  92294316.84947  22539188.540    22539187.520          46.250
        42.500
 14  1  8  1 16  0.0000000  0  8G02G31G24G25G14G21G29G12
 123789984.822 7  96459717.04346  23556450.260    23556447.500          43.500
        37.750
 116160965.985 7  90515041.67747  22104696.620    22104695.200          47.750
        44.750
 129720705.678 6 101081106.67445  24685021.040    24685024.520          37.250
        35.750
 108682167.793 8  84687451.37648  20681519.340    20681521.240          50.000
        48.500
 118683308.732 7  92480508.96946  22584685.300    22584685.240          44.000
        39.250
 126080757.918 6  98244758.93845  23992365.540    23992366.700          39.750
        35.000
 105442615.737 8  82163096.30048  20065050.040    20065049.600          51.250
        51.750
 118506850.711 7  92343041.79147  22551087.700    22551086.780          46.250
        42.000
 14  1  8  1 16 30.0000000  0  8G02G31G24G25G14G21G29G12
 123836706.470 7  96496123.50046  23565341.140    23565338.600          43.000
        38.500
 116085774.422 7  90456450.86347  22090388.040    22090386.800          47.500
        44.750
 129828365.903 6 101164997.65545  24705508.120    24705511.520          37.750
        34.500
 108695649.429 8  84697956.53948  20684084.780    20684086.640          50.000
        48.250
 118750276.923 7  92532691.95146  22597428.900    22597428.820          44.250
        38.500
 125988078.820 6  98172541.50645  23974729.300    23974730.080          39.750
        34.250
 105442671.127 8  82163139.46548  20065060.620    20065060.120          51.000
        51.750
 118569500.537 7  92391859.82146  22563009.560    22563008.800          46.000
        41.750
 14  1  8  1 17  0.0000000  0  8G02G31G24G25G14G21G29G12
 123883874.405 7  96532877.72846  23574316.960    23574314.520          43.250
        37.750
 116010875.558 7  90398088.12447  22076135.140    22076133.980          47.500
        44.750
 129936130.631 6 101248970.10146  24726015.080    24726018.600          37.500
        37.250
 108709357.565 8  84708638.19148  20686693.280    20686695.160          49.750
        48.500
 118817598.518 7  92585150.31646  22610239.860    22610239.580          44.500
        38.000
 125895457.872 6  98100369.36845  23957104.320    23957104.680          40.750
        31.750
 105443196.389 8  82163548.76548  20065160.560    20065160.060          51.000
        51.750
 118632272.035 7  92440772.66447  22574954.560    22574953.820          46.250
        42.000
 14  1  8  1 17 30.0000000  0  8G02G31G24G25G14G21G29G12
 123931485.938 7  96569977.61846  23583377.180    23583374.680          43.000
        39.500
 115936270.865 7  90339954.60647  22061938.240    22061937.160          47.500
        44.750
 130043996.766 6 101333021.55345  24746541.240    24746545.120          38.500
        33.500
 108723291.228 8  84719495.57948  20689344.740    20689346.700          50.000
        48.750
 118885269.409 7  92637880.85846  22623117.360    22623116.940          44.750
        38.250
 125802896.376 6  98028243.58145  23939490.580    23939490.480          40.000
        34.250
 105444189.136 8  82164322.33048  20065349.480    20065348.980          51.000
        51.750
 118695163.937 7  92489779.33747  22586922.420    22586921.600          45.750
        42.250
 14  1  8  1 18  0.0000000  0  7G02G31G25G14G21G29G12
 123979535.970 7  96607419.21546  23592520.760    23592518.340          43.250
        38.000
 115861958.586 7  90282048.93847  22047797.040    22047796.020          47.500
        44.500
 108737446.628 8  84730525.76848  20692038.400    20692040.440          50.000
        48.500
 118953282.472 7  92690878.02546  22636059.960    22636059.440          44.250
        38.500
 125710392.869 6  97956162.95145  23921887.760    23921887.460          39.000
        34.000
 105445644.571 8  82165456.44748  20065626.400    20065625.980          51.000
        51.750
 118758172.086 7  92538876.58147  22598912.320    22598911.620          45.250
        42.250
 14  1  8  1 18 30.0000000  0  7G02G31G25G14G21G29G12
 124028034.411 7  96645210.19846  23601749.880    23601747.440          44.000
        37.750
 115787952.258 7  90224381.66947  22033714.120    22033713.060          47.750
        43.750
 108751835.312 8  84741737.72648  20694776.480    20694778.540          50.000
        48.500
 119021646.064 7  92744148.34446  22649069.140    22649068.720          44.250
        38.250
 125617960.868 6  97884138.07045  23904298.540    23904298.120          39.750
        35.500
 105447572.788 8  82166958.93548  20065993.280    20065992.940          51.000
        51.750
 118821307.766 7  92588073.18546  22610926.560    22610926.120          46.250
        41.750
 14  1  8  1 19  0.0000000  0  7G02G31G25G14G21G29G12
 124076969.375 7  96683341.34146  23611062.120    23611059.600          43.000
        37.500
 115714244.045 8  90166946.68247  22019688.000    22019686.740          48.000
        44.500
 108766447.266 8  84753123.64648  20697557.140    20697559.120          50.000
        48.750
 119090347.400 7  92797681.83246  22662142.480    22662142.060          43.750
        38.000
 125525592.841 6  97812163.04445  23886721.520    23886721.060          39.750
        33.000
 105449962.368 8  82168820.96048  20066447.960    20066447.680          50.750
        51.750
 118884560.636 7  92637361.12146  22622963.180    22622962.820          46.000
        41.500
 14  1  8  1 19 30.0000000  0  7G02G31G25G14G21G29G12
 124126345.635 7  96721816.35146  23620458.060    23620455.620          42.250
        39.500
 115640842.159 7  90109750.40747  22005720.160    22005718.800          47.750
        44.500
 108781288.687 8  84764688.37148  20700381.440    20700383.400          50.000
        48.500
 119159389.251 7  92851480.66546  22675280.600    22675280.220          43.750
        38.000
 125433297.214 6  97740244.40445  23869158.300    23869157.920          40.000
        35.750
 105452818.049 8  82171046.17248  20066991.340    20066991.140          51.000
        51.750
 118947936.556 7  92686744.93046  22635023.320    22635022.860          45.750
        41.750
 14  1  8  1 20  0.0000000  0  7G02G31G25G14G21G29G12
 124176159.486 7  96760632.31846  23629937.020    23629934.720          42.750
        39.500
 115567746.771 8  90052792.96747  21991810.580    21991809.300          48.000
        45.000
 108796357.743 8  84776430.49348  20703249.060    20703250.980          50.000
        48.500
 119228766.537 7  92905540.85946  22688482.520    22688482.220          43.500
        36.500
 125341074.389 6  97668382.46045  23851608.880    23851608.440          39.750
        32.750
 105456136.657 8  82173632.10048  20067622.800    20067622.640          51.000
        51.750
 119011433.339 7  92736222.93946  22647106.480    22647105.820          46.000
        41.500
 14  1  8  1 20 30.0000000  0  7G02G31G25G14G21G29G12
 124226408.815 7  96799787.64046  23639498.980    23639496.760          42.750
        38.250
 115494959.350 8  89996075.48747  21977959.640    21977958.360          48.250
        45.000
 108811653.693 8  84788349.40748  20706159.800    20706161.760          50.000
        48.250
 119298475.276 7  92959859.35346  22701747.580    22701747.260          43.500
        38.500
 125248924.883 6  97596577.70446  23834073.320    23834073.020          40.250
        36.750
 105459916.336 8  82176577.31748  20068342.040    20068341.840          51.000
        51.750
 119075050.866 7  92785795.02647  22659212.600    22659211.860          46.000
        42.000
 14  1  8  1 21  0.0000000  0  7G02G31G25G14G21G29G12
 124277092.518 7  96839281.42446  23649143.600    23649141.500          42.000
        39.250
 115422482.666 7  89939600.15047  21964167.720    21964166.420          47.750
        45.000
 108827177.312 8  84800445.72148  20709113.760    20709115.840          50.000
        48.500
 119368513.175 7  93014434.31246  22715075.320    22715075.020          44.000
        38.250
 125156852.915 6  97524833.36045  23816552.540    23816552.300          40.000
        34.750
 105464156.011 8  82179880.97948  20069148.840    20069148.580          51.000
        51.750
 119138789.291 7  92835461.32346  22671341.680    22671340.960          46.250
        41.250
 14  1  8  1 21 30.0000000  0  7G02G31G25G14G21G29G12
 124328209.764 7  96879113.03246  23658870.720    23658868.740          42.500
        39.000
 115350319.980 8  89883369.49047  21950435.540    21950434.300          48.250
        44.750
 108842929.623 8  84812720.24248  20712111.260    20712113.380          50.000
        48.250
 119438877.953 7  93069263.99146  22728465.380    22728465.180          43.500
        39.500
 125064861.128 6  97453151.50345  23799046.940    23799046.880          40.000
        34.250
 105468855.800 8  82183543.15348  20070043.220    20070042.840          51.000
        51.750
 119202648.913 7  92885222.04946  22683493.760    22683493.140          46.000
        41.500
 14  1  8  1 22  0.0000000  0  7G02G31G25G14G21G29G12
 124379756.257 7  96919279.12546  23668679.740    23668677.620          42.500
        37.500
 115278470.547 8  89827382.91947  21936763.100    21936761.760          48.750
        44.500
 108858907.892 8  84825170.83548  20715151.780    20715153.780          49.750
        48.250
 119509563.668 7  93124343.73746  22741916.400    22741916.560          43.500
        38.750
 124972948.587 6  97381531.35646  23781556.420    23781556.320          39.250
        36.000
 105474011.284 8  82187560.41848  20071024.340    20071023.840          51.250
        51.750
 119266627.047 7  92935075.13847  22695668.440    22695667.920          46.250
        42.000
 14  1  8  1 22 30.0000000  0  7G02G31G25G14G21G29G12
 124431733.803 6  96959781.10246  23678570.780    23678568.400          41.000
        39.000
 115206940.250 8  89771645.01747  21923151.400    21923149.920          48.250
        45.000
 108875115.858 8  84837800.41648  20718235.980    20718237.980          50.000
        48.250
 119580570.711 7  93179673.87246  22755428.560    22755428.920          43.500
        38.500
 124881121.984 6  97309978.18145  23764082.180    23764082.220          39.500
        35.500
 105479624.818 8  82191934.60248  20072092.600    20072092.040          51.000
        51.750
 119330727.026 7  92985023.16147  22707866.320    22707865.760          46.000
        42.500
 14  1  8  1 23  0.0000000  0  7G02G31G25G14G21G29G12
 124484142.156 6  97000618.76346  23688543.580    23688541.340          40.750
        36.750
 115135732.246 8  89716158.27147  21909600.960    21909599.520          48.250
        45.250
 108891554.933 8  84850610.07948  20721364.220    20721366.200          49.750
        48.500
 119651897.605 7  93235253.25946  22769001.600    22769001.820          43.000
        38.500
 124789384.370 6  97238494.34145  23746624.880    23746625.080          40.000
        35.250
 105485696.073 8  82196665.45548  20073247.940    20073247.400          51.000
        51.750
 119394949.598 7  93035066.69346  22720087.480    22720086.880          46.000
        41.500
 14  1  8  1 23 30.0000000  0  7G02G31G25G14G21G29G12
 124536976.038 7  97041788.02246  23698597.480    23698595.280          42.500
        37.250
 115064845.447 8  89660921.79747  21896111.660    21896110.200          48.500
        44.750
 108908221.457 8  84863596.96848  20724535.760    20724537.700          49.750
        48.250
 119723536.855 7  93291076.03746  22782634.120    22782634.120          44.250
        36.500
 124697734.252 6  97167078.70746  23729184.340    23729184.720          40.000
        38.500
 105492219.601 8  82201748.72948  20074489.340    20074488.820          51.000
        51.750
 119459291.437 7  93085203.18746  22732331.400    22732330.620          46.000
        41.750
 14  1  8  1 24  0.0000000  0  7G02G31G25G14G21G29G12
 124590233.681 7  97083287.46846  23708732.240    23708729.660          43.500
        37.500
 114994281.750 8  89605937.10147  21882683.840    21882682.340          48.750
        44.750
 108925115.589 8  84876761.22548  20727750.700    20727752.540          50.250
        48.250
 119795485.511 7  93347139.88346  22796325.620    22796325.380          43.500
        38.250
 124606174.555 6  97095733.50145  23711760.980    23711761.500          39.250
        35.750
 105499195.038 8  82207184.13448  20075816.720    20075816.260          51.000
        51.750
 119523752.648 7  93135432.69046  22744598.000    22744597.040          46.000
        41.250
 14  1  8  1 24 30.0000000  0  7G02G31G25G14G21G29G12
 124643915.555 7  97125117.47946  23718947.920    23718944.920          43.750
        37.250
 114924045.405 8  89551207.49847  21869318.340    21869316.840          48.750
        45.500
 108942239.553 8  84890104.56548  20731009.400    20731011.200          50.000
        48.750
 119867742.579 7  93403444.05646  22810075.820    22810075.460          43.500
        38.000
 124514709.546 6  97024462.11946  23694355.660    23694356.200          39.000
        37.000
 105506622.754 8  82212971.96848  20077230.160    20077229.740          51.000
        51.750
 119588334.963 7  93185756.55546  22756887.600    22756886.560          45.750
        40.500
 14  1  8  1 25  0.0000000  0  7G02G31G25G14G21G29G12
 124698019.561 7  97167276.44946  23729244.000    23729240.720          43.250
        37.500
 114854138.483 8  89496734.56947  21856015.560    21856014.040          48.750
        45.250
 108959593.273 8  84903626.93648  20734311.780    20734313.640          50.250
        48.750
 119940304.735 7  93459985.98346  22823884.080    22823883.720          43.500
        37.250
 124423341.177 6  96953266.05346  23676968.760    23676969.320          39.500
        37.500
 105514500.957 8  82219110.81848  20078729.280    20078728.920          51.000
        51.750
 119653037.806 7  93236174.32446  22769200.000    22769199.080          45.500
        41.500
 14  1  8  1 25 30.0000000  0  7G02G31G25G14G21G29G12
 124752547.170 7  97209765.50946  23739620.440    23739617.100          43.000
        36.750
 114784566.425 8  89442522.57247  21842776.440    21842774.860          48.750
        45.500
 108977180.229 8  84917331.04748  20737658.500    20737660.440          50.000
        48.750
 120013172.118 7  93516765.74146  22837750.360    22837750.020          43.750
        38.750
 124332075.103 6  96882149.69746  23659601.280    23659601.940          39.750
        36.250
 105522831.678 8  82225602.29748  20080314.520    20080314.220          51.250
        51.750
 119717864.480 7  93286688.59746  22781536.080    22781535.120          45.750
        40.500
 14  1  8  1 26  0.0000000  0  7G02G31G25G14G21G29G12
 124807495.963 7  97252582.74246  23750076.660    23750073.620          42.250
        37.500
 114715330.276 8  89388572.33047  21829601.120    21829599.680          48.250
        46.000
 108994999.400 8  84931216.11248  20741049.360    20741051.340          50.000
        48.750
 120086340.431 7  93573779.99346  22851673.820    22851673.780          43.250
        38.250
 124240912.372 6  96811113.81246  23642253.560    23642254.380          40.250
        38.500
 105531612.435 8  82232444.45048  20081985.380    20081985.140          51.000
        51.750
 119782813.760 7  93337298.41146  22793895.520    22793894.560          45.250
        41.750
 14  1  8  1 26 30.0000000  0  7G02G31G25G14G21G29G12
 124862859.774 7  97295723.35646  23760611.860    23760609.000          42.250
        37.000
 114646427.969 8  89334882.22947  21816489.360    21816488.080          48.750
        45.500
 109013046.629 8  84945278.87348  20744483.580    20744485.680          49.750
        48.500
 120159802.537 7  93631023.15446  22865653.220    22865653.240          43.250
        37.750
 124149851.088 6  96740156.98145  23624925.280    23624926.180          40.250
        35.250
 105540837.271 8  82239632.63848  20083740.800    20083740.580          51.000
        51.750
 119847881.320 7  93388000.39646  22806277.460    22806276.600          45.750
        40.750
 14  1  8  1 27  0.0000000  0  7G02G31G25G14G21G29G12
 124918639.500 7  97339188.06546  23771226.360    23771223.360          42.750
        37.500
 114577864.302 8  89281455.99347  21803442.120    21803440.920          48.250
        45.750
 109031324.704 8  84959521.52348  20747961.680    20747963.960          49.750
        48.500
 120233557.212 7  93688494.31946  22879688.260    22879688.200          43.500
        37.250
 124058896.052 6  96669283.01046  23607617.180    23607618.300          40.000
        37.250
 105550507.261 8  82247167.69448  20085580.920    20085580.760          51.000
        51.750
 119913069.665 7  93438796.48846  22818682.420    22818681.700          45.500
        41.250
 14  1  8  1 27 30.0000000  0  7G02G31G25G14G21G29G12
 124974834.293 7  97382976.19745  23781919.960    23781916.780          42.500
        35.750
 114509642.586 8  89228296.21247  21790459.960    21790458.740          48.000
        45.750
 109049834.823 8  84973944.98648  20751483.960    20751486.320          49.750
        48.750
 120307602.530 7  93746191.93446  22893778.660    22893778.400          43.500
        36.750
 123968050.585 6  96598494.36145  23590329.940    23590331.160          40.750
        35.250
 105560622.364 8  82255049.58748  20087505.780    20087505.600          51.250
        51.750
 119978379.327 7  93489687.12046  22831110.460    22831109.800          45.500
        40.250
 14  1  8  1 28  0.0000000  0  7G02G31G25G14G21G29G12
 125031442.867 7  97427086.77646  23792692.320    23792689.160          42.250
        37.500
 114441765.195 8  89175404.74947  21777543.260    21777542.120          48.250
        45.750
 109068577.519 8  84988549.68248  20755050.580    20755052.860          50.000
        48.250
 120381935.742 7  93804113.90046  22907923.720    22907923.460          42.250
        38.750
 123877317.729 6  96527793.46546  23573064.140    23573065.300          40.750
        37.250
 105571181.262 8  82263277.30048  20089515.140    20089514.820          51.000
        51.750
 120043811.006 7  93540672.82546  22843561.700    22843561.120          45.500
        41.000
 14  1  8  1 28 30.0000000  0  7G02G31G25G14G21G29G12
 125088463.111 7  97471518.14346  23803542.960    23803539.860          42.250
        37.750
 114374234.311 8  89122783.28947  21764692.480    21764691.500          48.500
        46.000
 109087552.814 8  85003335.60748  20758661.540    20758663.680          50.000
        48.250
 120456553.323 7  93862257.42846  22922122.920    22922122.660          42.500
        37.750
 123786699.629 6  96457181.97946  23555820.260    23555821.280          41.250
        36.000
 105582182.455 8  82271849.65148  20091608.660    20091608.260          51.000
        51.750
 120109364.339 7  93591753.33246  22856036.180    22856035.520          45.500
        39.750
 14  1  8  1 29  0.0000000  0  7G02G31G25G14G21G29G12
 125145892.093 7  97516267.99346  23814471.300    23814468.440          42.000
        37.000
 114307050.369 8  89070432.16647  21751907.880    21751906.880          48.750
        46.250
 109106759.264 8  85018301.66348  20762316.480    20762318.500          50.000
        48.500
 120531450.737 7  93920619.02145  22936375.420    22936375.160          43.000
        35.750
 123696197.027 6  96386660.52745  23538598.340    23538599.200          41.250
        35.250
 105593622.865 8  82280764.25348  20093785.760    20093785.300          51.000
        51.750
 120175037.657 7  93642927.33046  22868533.360    22868532.560          44.750
        40.500
 14  1  8  1 29 30.0000000  0  7G02G31G25G14G21G29G12
 125203729.415 7  97561336.00846  23825477.340    23825474.540          42.500
        36.500
 114240217.222 8  89018354.39147  21739190.060    21739188.940          49.000
        46.000
 109126198.739 8  85033449.29948  20766015.800    20766017.680          50.000
        48.000
 120606626.345 7  93979197.38846  22950681.020    22950680.700          42.750
        37.500
 123605813.536 6  96316231.85345  23521399.060    23521399.760          41.500
        35.750
 105605502.771 8  82290021.31548  20096046.480    20096045.940          51.000
        51.750
 120240832.746 7  93694196.21846  22881053.640    22881053.040          44.750
        41.500
 14  1  8  1 30  0.0000000  0  7G02G31G25G14G21G29G12
 125261972.673 7  97606720.35746  23836560.540    23836557.800          42.000
        37.500
 114173736.720 8  88966551.39847  21726539.340    21726538.080          49.000
        46.000
 109145870.869 8  85048778.22448  20769759.300    20769761.120          50.000
        48.250
 120682076.615 7  94037989.78345  22965038.860    22965038.300          43.000
        35.500
 123515551.255 7  96245897.64945  23504222.820    23504223.400          42.000
        35.000
 105617819.873 8  82299619.03848  20098390.320    20098389.800          50.750
        51.750
 120306748.487 7  93745559.11746  22893596.840    22893596.420          45.250
        39.750
 14  1  8  1 30 30.0000000  0  7G02G31G25G14G21G29G12
 125320620.974 7  97652420.31346  23847720.860    23847718.020          42.000
        36.750
 114107611.720 8  88915025.43447  21713956.220    21713954.940          49.000
        46.250
 109165776.731 8  85064289.27848  20773547.300    20773549.080          49.750
        48.250
 120757799.106 7  94096994.29546  22979448.420    22979447.820          42.750
        37.500
 123425413.513 7  96175660.49246  23487070.280    23487070.780          42.250
        36.500
 105630573.736 8  82309557.10348  20100817.220    20100816.800          51.000
        51.500
 120372786.134 7  93797016.99346  22906163.380    22906163.060          45.500
        40.500
 14  1  8  1 31  0.0000000  0  7G02G31G25G14G21G29G12
 125379670.622 7  97698433.03046  23858957.680    23858954.820          42.750
        38.000
 114041842.660 8  88863776.81247  21701440.820    21701439.540          49.250
        46.250
 109185914.560 8  85079981.08548  20777379.320    20777381.260          49.500
        48.250
 120833788.774 7  94156206.99746  22993908.760    22993908.240          43.000
        36.750
 123335400.205 6  96105520.27246  23469941.440    23469941.760          41.750
        37.500
 105643761.003 8  82319832.89148  20103326.600    20103326.220          50.750
        51.500
 120438943.460 7  93848568.13246  22918752.800    22918752.520          45.250
        41.000
 14  1  8  1 31 30.0000000  0  7G02G31G25G14G21G29G12
 125439123.069 7  97744759.59246  23870271.200    23870268.240          42.250
        38.000
 113976434.905 8  88812809.74647  21688994.140    21688992.940          49.000
        46.500
 109206287.799 8  85095856.32648  20781256.000    20781258.180          49.500
        48.500
 120910045.211 7  94215627.56946  23008419.820    23008419.460          42.750
        36.000
 123245517.340 7  96035481.68946  23452837.400    23452837.520          42.250
        37.250
 105657383.634 8  82330447.93948  20105918.860    20105918.500          51.000
        51.500
 120505223.283 7  93900214.73746  22931365.560    22931365.260          45.250
        40.750
 14  1  8  1 32  0.0000000  0  7G02G31G25G14G21G29G12
 125498975.278 6  97791397.67446  23881660.700    23881657.860          41.750
        36.750
 113911389.508 8  88762125.01947  21676616.400    21676615.220          49.250
        46.500
 109226895.744 8  85111914.45348  20785177.440    20785179.820          49.750
        48.500
 120986564.503 7  94275252.96046  23022980.980    23022980.780          42.750
        37.250
 123155766.347 7  95965545.88946  23435758.400    23435758.340          42.000
        36.000
 105671438.634 8  82341399.88148  20108593.360    20108593.060          50.750
        51.500
 120571625.176 7  93951956.46346  22944001.540    22944001.200          45.250
        40.750
 14  1  8  1 32 30.0000000  0  7G02G31G25G14G21G29G12
 125559227.439 7  97838347.39546  23893126.260    23893123.640          42.000
        37.250
 113846710.350 8  88711725.66347  21664308.400    21664307.100          49.250
        46.250
 109247740.284 8  85128156.93748  20789143.940    20789146.460          49.500
        48.250
 121063345.374 7  94335082.16346  23037591.900    23037592.000          42.750
        37.250
 123066151.260 7  95895716.00546  23418705.240    23418705.080          42.250
        36.750
 105685926.546 8  82352689.16548  20111350.260    20111350.020          50.750
        51.500
 120638150.349 7  94003794.22946  22956660.960    22956660.520          44.500
        40.750
 14  1  8  1 33  0.0000000  0  7G02G31G25G14G21G29G12
 125619873.701 7  97885604.23346  23904666.960    23904664.100          42.250
        36.750
 113782396.160 8  88661610.71847  21652069.840    21652068.520          49.250
        46.250
 109268817.671 8  85144580.86548  20793154.860    20793157.380          50.000
        48.250
 121140380.334 7  94395109.40746  23052251.260    23052251.340          43.000
        37.000
 122976670.109 7  95825990.47546  23401677.500    23401677.160          43.000
        36.500
 105700841.771 8  82364311.41448  20114188.460    20114188.300          50.750
        51.500
 120704795.040 7  94055725.12546  22969342.900    22969342.580          44.250
        40.500
 14  1  8  1 33 30.0000000  0  7G02G31G25G14G21G29G12
 125680915.499 7  97933169.25746  23916282.900    23916279.520          42.250
        36.000
 113718451.750 8  88611783.91047  21639901.620    21639900.360          49.250
        46.750
 109290131.475 8  85161189.02248  20797210.820    20797213.320          49.750
        48.250
 121217669.851 7  94455334.95946  23066958.900    23066959.040          42.750
        36.500
 122887328.541 7  95756373.69846  23384676.340    23384675.920          42.500
        37.500
 105716186.170 8  82376268.08448  20117108.420    20117108.280          50.750
        51.500
 120771562.522 7  94107751.71646  22982048.220    22982048.000          44.500
        41.250
 14  1  8  1 34  0.0000000  0  7G02G31G25G14G21G29G12
 125742349.176 6  97981039.63846  23927973.320    23927969.600          41.000
        36.750
 113654877.986 8  88562245.91247  21627803.900    21627802.700          49.250
        46.750
 109311680.216 8  85177980.22848  20801311.580    20801313.840          50.000
        48.250
 121295208.832 7  94515754.93046  23081714.100    23081714.000          42.750
        37.250
 122798127.938 7  95686866.75646  23367702.040    23367701.420          43.000
        36.250
 105731956.237 8  82388556.45248  20120109.340    20120109.200          50.750
        51.500
 120838451.018 7  94159872.60146  22994776.660    22994776.420          44.500
        39.250
 14  1  8  1 34 30.0000000  0  7G02G31G25G14G21G29G12
 125804175.722 6  98029216.15346  23939738.260    23939734.680          40.250
        36.750
 113591679.813 8  88513000.60147  21615777.660    21615776.500          49.500
        46.500
 109333466.967 8  85194956.89948  20805457.640    20805459.640          50.000
        48.000
 121372996.828 7  94576368.91845  23096516.640    23096516.400          42.750
        35.500
 122709073.061 7  95617473.37946  23350755.460    23350754.800          43.000
        38.500
 105748153.654 8  82401177.81648  20123191.620    20123191.440          50.750
        51.500
 120905463.086 7  94212089.76846  23007528.640    23007528.500          44.250
        41.000
 14  1  8  1 35  0.0000000  0  7G02G31G25G14G21G29G12
 125866390.570 6  98077695.21646  23951576.940    23951573.840          40.500
        36.500
 113528856.629 8  88464047.46247  21603822.900    21603821.520          49.500
        46.250
 109355489.181 8  85212117.06048  20809648.460    20809650.320          50.000
        48.000
 121451028.022 7  94637172.43046  23111365.460    23111365.220          42.250
        36.500
 122620163.434 7  95548193.16646  23333836.560    23333835.820          42.750
        36.750
 105764774.146 8  82414128.84548  20126354.460    20126354.240          50.750
        51.500
 120972596.243 7  94264401.30346  23020303.740    23020303.520          45.000
        39.750
 14  1  8  1 35 30.0000000  0  7G02G31G25G14G21G29G12
 125928992.268 6  98126475.75846  23963489.380    23963486.820          41.250
        36.750
 113466410.969 8  88415388.50647  21591939.860    21591938.400          49.000
        46.500
 109377747.470 8  85229461.16848  20813884.180    20813885.960          50.000
        48.000
 121529299.574 7  94698163.19846  23126260.020    23126259.800          42.250
        37.500
 122531401.523 7  95479028.04545  23316945.760    23316944.860          43.250
        35.750
 105781816.148 8  82427408.32948  20129597.500    20129597.240          50.750
        51.500
 121039850.623 7  94316807.29346  23033101.900    23033101.540          44.750
        40.000
 14  1  8  1 36  0.0000000  0  7G02G31G25G14G21G29G12
 125991976.766 6  98175554.58446  23975475.040    23975472.720          41.500
        36.250
 113404343.117 8  88367023.96847  21580128.600    21580127.280          49.250
        46.500
 109400240.189 8  85246987.95247  20818164.400    20818166.060          49.750
        47.750
 121607806.278 7  94759337.22845  23141199.320    23141199.240          42.000
        35.750
 122442788.404 7  95409978.89046  23300083.200    23300082.240          43.000
        37.000
 105799276.187 8  82441013.55648  20132920.120    20132919.780          50.750
        51.750
 121107224.313 7  94369306.24446  23045922.760    23045922.200          44.500
        40.250
 14  1  8  1 36 30.0000000  0  7G02G31G25G14G21G29G12
 126055346.157 7  98224933.31746  23987534.020    23987531.720          42.000
        38.000
 113342659.072 8  88318958.46847  21568390.520    21568389.140          49.500
        46.250
 109422971.278 8  85264700.47747  20822489.900    20822491.540          49.750
        47.750
 121686548.877 7  94820695.07246  23156183.540    23156183.640          42.000
        37.250
 122354329.835 7  95341050.15145  23283250.100    23283249.020          43.500
        35.500
 105817156.850 8  82454946.53048  20136322.760    20136322.380          50.750
        51.500
 121174720.433 7  94421900.60246  23058766.800    23058766.260          44.250
        39.750
 14  1  8  1 37  0.0000000  0  7G02G31G25G14G21G29G12
 126119097.914 6  98274609.99346  23999665.640    23999663.360          41.250
        37.750
 113281360.147 8  88271193.07747  21556725.700    21556724.360          49.500
        46.500
 109445940.665 8  85282598.69248  20826860.700    20826862.540          49.750
        48.000
 121765523.539 7  94882233.71846  23171211.960    23171212.140          42.500
        36.250
 122266027.829 7  95272243.41846  23266446.760    23266445.620          43.250
        38.000
 105835455.924 8  82469205.53648  20139805.040    20139804.600          51.000
        51.500
 121242339.788 7  94474590.97246  23071634.300    23071633.800          44.750
        40.250
 14  1  8  1 37 30.0000000  0  7G02G31G25G14G21G29G12
 126183227.426 6  98324581.02546  24011869.220    24011866.900          41.500
        36.250
 113220446.259 8  88223727.71547  21545134.240    21545132.980          49.500
        46.750
 109469145.719 8  85300680.55548  20831276.320    20831278.420          49.500
        48.250
 121844724.231 7  94943948.51446  23186283.340    23186283.540          42.000
        36.750
 122177881.897 7  95203558.28746  23249673.080    23249671.900          43.000
        37.250
 105854168.834 8  82483787.02948  20143366.060    20143365.580          50.750
        51.500
 121310079.040 7  94527374.78646  23084524.700    23084524.260          44.750
        39.750
 14  1  8  1 38  0.0000000  0  7G02G31G25G14G21G29G12
 126247735.083 7  98374846.72846  24024144.900    24024142.400          42.000
        36.750
 113159921.388 8  88176565.47447  21533616.720    21533615.400          49.000
        46.000
 109492588.858 8  85318947.93148  20835737.220    20835739.560          49.500
        48.250
 121924150.077 6  95005838.75946  23201397.600    23201397.820          40.750
        38.750
 122089896.466 7  95134998.22646  23232929.920    23232928.780          42.750
        37.500
 105873296.759 8  82498691.90848  20147005.960    20147005.500          50.750
        51.500
 121377939.996 7  94580253.42446  23097438.260    23097437.760          44.250
        38.500
 14  1  8  1 38 30.0000000  0  7G02G31G25G14G21G29G12
 126312621.140 6  98425407.27545  24036492.600    24036489.780          41.750
        35.500
 113099790.059 8  88129709.88347  21522174.080    21522172.740          49.250
        46.500
 109516272.688 8  85337402.84848  20840244.120    20840246.440          49.750
        48.000
 122003799.896 6  95067903.54946  23216554.380    23216554.840          40.750
        36.250
 122002076.191 7  95066566.84846  23216218.060    23216216.940          42.500
        38.000
 105892840.062 8  82513920.46248  20150724.900    20150724.460          50.750
        51.500
 121445924.826 7  94633228.59046  23110375.320    23110374.920          44.000
        39.500
 14  1  8  1 39  0.0000000  0  7G02G31G25G14G21G29G12
 126377880.611 7  98476258.80145  24048911.280    24048908.080          42.000
        35.250
 113040051.727 8  88083160.53847  21510806.180    21510804.960          49.000
        46.500
 109540194.668 8  85356043.34648  20844796.400    20844798.640          49.750
        48.000
 122083667.961 6  95130138.37846  23231752.820    23231753.160          41.750
        38.000
 121914420.560 7  94998263.78746  23199537.460    23199536.600          42.750
        38.250
 105912794.120 8  82529469.08948  20154521.960    20154521.580          50.750
        51.250
 121514031.202 7  94686298.47546  23123335.540    23123335.040          44.500
        40.000
 14  1  8  1 39 30.0000000  0  7G02G31G25G14G21G29G12
 126443512.113 6  98527400.23146  24061400.660    24061397.260          41.250
        36.750
 112980708.656 8  88036919.18547  21499513.540    21499512.400          49.500
        46.500
 109564355.298 8  85374869.80448  20849394.120    20849396.280          49.750
        48.250
 122163751.217 7  95192540.85945  23246992.380    23246992.520          42.250
        35.250
 121826932.841 7  94930091.55546  23182888.900    23182888.280          42.750
        37.250
 105933157.667 8  82545336.79148  20158396.940    20158396.620          50.750
        51.250
 121582259.057 7  94739463.05746  23136318.880    23136318.260          45.000
        39.750
 14  1  8  1 40  0.0000000  0  7G02G31G25G14G21G29G12
 126509514.326 6  98578830.52446  24073960.360    24073957.240          40.750
        36.000
 112921763.814 8  87990988.14447  21488296.760    21488295.660          49.250
        47.000
 109588755.763 8  85393883.14148  20854037.520    20854039.580          50.000
        48.500
 122244047.634 7  95255109.45446  23262272.560    23262272.380          42.250
        36.750
 121739615.810 7  94862052.34346  23166272.880    23166272.360          43.000
        37.500
 105953930.073 8  82561523.08848  20162349.740    20162349.440          50.750
        51.250
 121650609.343 7  94792723.01346  23149325.580    23149325.020          44.500
        40.500
 14  1  8  1 40 30.0000000  0  7G02G31G25G14G21G29G12
 126575887.970 6  98630550.21246  24086590.600    24086588.080          40.750
        37.500
 112863222.143 8  87945371.26247  21477156.620    21477155.560          49.500
        46.500
 109613398.923 8  85413085.59148  20858727.080    20858729.080          49.750
        48.250
 122324556.309 7  95317843.43545  23277593.080    23277592.760          42.500
        35.500
 121652474.250 7  94794149.83046  23149690.320    23149689.760          42.750
        38.000
 105975112.041 8  82578028.50848  20166380.480    20166380.220          50.750
        51.250
 121719084.536 7  94846080.27946  23162355.900    23162355.540          44.000
        39.750
 14  1  8  1 41  0.0000000  0  7G02G31G25G14G21G29G12
 126642626.403 6  98682554.16346  24099290.340    24099288.180          41.250
        37.500
 112805080.670 8  87900066.21347  21466092.680    21466091.560          49.250
        47.000
 109638280.237 8  85432473.62248  20863461.920    20863463.820          50.000
        48.000
 122405269.282 7  95380736.63645  23292952.320    23292951.920          42.000
        34.750
 121565505.982 7  94726382.38046  23133140.760    23133140.060          43.500
        37.000
 105996697.454 8  82594848.30248  20170488.020    20170487.760          50.750
        51.250
 121787680.169 7  94899531.40246  23175409.140    23175408.860          43.750
        40.000
 14  1  8  1 41 30.0000000  0  7G02G31G25G14G21G29G12
 126709730.512 6  98734843.05546  24112059.760    24112057.720          41.500
        37.000
 112747344.783 8  87855077.22547  21455105.820    21455104.820          49.500
        47.000
 109663402.793 8  85452049.63348  20868242.560    20868244.460          49.750
        48.000
 122486185.892 6  95443788.51846  23308350.180    23308349.860          40.500
        38.000
 121478716.160 7  94658753.97046  23116625.160    23116624.320          43.000
        36.250
 106018687.502 8  82611983.40648  20174672.600    20174672.280          50.750
        49.500
 121856398.607 7  94953078.22246  23188485.800    23188485.760          44.500
        39.750
 14  1  8  1 42  0.0000000  0  7G02G31G25G14G21G29G12
 126777197.214 7  98787414.49346  24124898.280    24124896.360          42.000
        36.250
 112690015.439 8  87810404.99447  21444196.460    21444195.280          49.500
        46.750
 109688766.087 8  85471813.23348  20873068.980    20873070.980          49.750
        48.000
 122567302.470 7  95506996.19845  23323786.000    23323785.860          42.000
        35.750
 121392105.779 7  94591265.39446  23100143.760    23100142.840          43.500
        36.750
 106041079.594 8  82629431.79448  20178933.700    20178933.320          50.750
        51.250
 121925238.792 7  95006719.89646  23201585.720    23201585.700          44.000
        40.500
 14  1  8  1 42 30.0000000  0  7G02G31G25G14G21G29G12
 126845021.797 6  98840264.80946  24137805.080    24137803.180          41.750
        36.750
 112633092.075 8  87766049.13847  21433364.300    21433363.100          49.500
        47.000
 109714367.488 8  85491762.37247  20877940.680    20877942.740          49.750
        47.750
 122648612.688 6  95570354.80545  23339258.880    23339258.780          41.500
        35.500
 121305674.979 7  94523916.73946  23083696.600    23083695.640          43.750
        38.000
 106063869.608 8  82647190.24448  20183270.520    20183270.120          50.500
        51.250
 121994198.646 7  95060454.83146  23214708.500    23214708.320          44.750
        41.000
 14  1  8  1 43  0.0000000  0  7G02G31G25G14G21G29G12
 126913208.289 6  98893397.15145  24150780.740    24150778.600          41.750
        35.000
 112576582.634 8  87722015.81447  21422610.960    21422609.800          49.750
        47.000
 109740213.457 8  85511902.08547  20882858.920    20882861.060          49.500
        47.750
 122730119.686 6  95633866.67846  23354769.120    23354768.960          40.750
        36.000
 121219432.453 7  94456714.77346  23067285.320    23067284.220          43.500
        37.750
 106087061.412 8  82665261.77648  20187683.800    20187683.420          50.750
        51.250
 122063283.978 7  95114287.53446  23227855.040    23227854.840          44.250
        39.250
 14  1  8  1 43 30.0000000  0  7G02G31G25G14G21G29G12
 126981752.626 6  98946808.28945  24163824.360    24163821.820          41.000
        34.750
 112520487.432 8  87678305.26947  21411936.440    21411935.260          49.750
        46.750
 109766301.895 8  85532230.72747  20887823.300    20887825.480          49.750
        47.750
 122811817.652 7  95697527.37546  23370315.680    23370315.520          42.250
        36.000
 121133377.797 7  94389659.19146  23050909.760    23050908.560          43.250
        38.750
 106110651.427 8  82683643.59748  20192172.880    20192172.500          50.750
        51.250
 122132492.030 7  95168215.86946  23241024.860    23241024.620          44.500
        40.000
 14  1  8  1 44  0.0000000  0  7G02G31G25G14G21G29G12
 127050651.530 6  99000495.72446  24176935.280    24176932.480          41.000
        37.500
 112464806.873 8  87634917.80747  21401340.880    21401339.580          49.750
        47.500
 109792632.250 8  85552747.88547  20892833.820    20892835.920          49.750
        47.750
 122893702.962 6  95761334.08645  23385898.000    23385897.760          41.250
        35.750
 121047512.270 7  94322751.01046  23034570.220    23034569.100          43.750
        37.500
 106134637.017 8  82702333.66148  20196737.260    20196736.840          50.750
        51.250
 122201822.016 7  95222239.21746  23254217.940    23254217.660          44.250
        39.000
 14  1  8  1 44 30.0000000  0  7G02G31G25G14G21G29G12
 127119905.172 6  99054459.57345  24190113.700    24190110.640          40.500
        35.500
 112409545.816 8  87591857.24747  21390825.060    21390823.800          49.750
        47.500
 109819207.043 8  85573455.51047  20897890.880    20897892.860          49.750
        47.750
 122975774.351 6  95825285.77146  23401515.660    23401515.580          41.250
        37.250
 120961840.738 7  94255993.97246  23018267.560    23018266.400          43.500
        38.500
 106159018.684 8  82721332.35648  20201377.000    20201376.540          50.750
        51.250
 122271276.784 7  95276359.79646  23267434.740    23267434.440          44.750
        39.750
 14  1  8  1 45  0.0000000  0  7G02G31G25G14G21G29G12
 127189509.281 6  99108696.52346  24203358.580    24203355.620          39.250
        36.250
 112354703.370 8  87549122.86547  21380388.880    21380387.600          49.750
        47.500
 109846023.838 8  85594351.70848  20902994.020    20902995.980          49.750
        48.000
 123058025.861 6  95889377.81446  23417167.560    23417167.680          41.000
        36.500
 120876362.481 7  94189387.56146  23002001.740    23002000.520          44.250
        38.000
 106183791.646 8  82740635.96348  20206091.120    20206090.700          50.500
        51.250
 122340853.083 7  95330575.08546  23280674.800    23280674.340          44.250
        38.500
 14  1  8  1 45 30.0000000  0  7G02G31G25G14G21G29G12
 127259464.198 6  99163206.80046  24216670.080    24216667.520          40.000
        36.500
 112300284.062 8  87506718.20547  21370033.200    21370031.940          49.750
        47.750
 109873085.363 8  85615438.59447  20908143.720    20908145.660          49.750
        47.750
 123140456.553 6  95953609.49746  23432853.520    23432853.780          41.000
        36.500
 120791082.383 7  94122935.55346  22985773.580    22985772.340          44.000
        37.750
 106208957.302 8  82760245.57148  20210879.980    20210879.600          50.750
        51.250
 122410553.635 7  95384887.18346  23293938.420    23293938.140          43.750
        38.500
 14  1  8  1 46  0.0000000  0  7G02G31G25G14G21G29G12
 127329763.251 6  99217985.28945  24230047.480    24230045.100          41.250
        33.500
 112246285.640 8  87464641.51947  21359757.600    21359756.440          49.750
        47.500
 109900387.496 8  85636712.97547  20913339.240    20913341.100          50.000
        47.750
 123223059.220 6  96017975.17346  23448572.220    23448572.640          41.250
        36.750
 120705998.829 7  94056636.72546  22969582.740    22969581.540          44.000
        38.250
 106234509.588 8  82780156.44248  20215742.420    20215742.080          50.750
        51.250
 122480373.481 7  95439292.24646  23307224.680    23307224.480          43.500
        38.250
 14  1  8  1 46 30.0000000  0  7G02G31G25G14G21G29G12
 127400406.616 6  99273032.04545  24243490.660    24243488.220          41.000
        34.750
 112192712.798 8  87422896.45347  21349563.040    21349561.860          50.000
        47.500
 109927932.910 8  85658176.92747  20918581.040    20918582.820          49.750
        47.750
 123305832.800 6  96082474.00745  23464323.500    23464323.880          41.000
        35.500
 120621116.167 7  93990494.39946  22953430.080    22953428.860          44.000
        38.250
 106260449.058 8  82800369.01848  20220678.520    20220678.280          50.500
        51.250
 122550315.526 7  95493792.55146  23320534.120    23320534.080          43.500
        39.250
 14  1  8  1 47  0.0000000  0  7G02G31G25G14G21G29G12
 127471392.923 6  99328346.05445  24256999.220    24256996.580          41.000
        34.750
 112139567.938 8  87381484.86847  21339449.920    21339448.640          49.750
        47.500
 109955722.551 8  85679831.18147  20923869.240    20923871.100          49.750
        47.750
 123388774.657 6  96147103.99245  23480106.900    23480107.220          41.000
        35.500
 120536437.267 7  93924510.86646  22937316.140    22937314.920          44.250
        38.000
 106286774.673 8  82820882.48648  20225688.100    20225687.900          50.500
        51.250
 122620380.412 7  95548388.55546  23333866.940    23333866.980          43.500
        38.500
 14  1  8  1 47 30.0000000  0  7G02G31G25G14G21G29G12
 127542720.675 6  99383926.09245  24270572.720    24270569.700          41.500
        35.500
 112086853.143 8  87340408.39847  21329418.620    21329417.280          49.750
        47.250
 109983756.965 8  85701676.16948  20929204.040    20929205.980          49.750
        48.000
 123471882.091 6  96211862.98346  23495921.820    23495922.120          40.750
        36.500
 120451964.881 7  93858688.24546  22921241.480    22921240.340          44.250
        38.500
 106313484.629 8  82841695.44748  20230770.820    20230770.600          50.500
        51.000
 122690567.885 7  95603080.06846  23347223.220    23347223.280          44.000
        39.250
 14  1  8  1 48  0.0000000  0  7G02G31G25G14G21G29G12
 127614387.438 6  99439770.31945  24284210.700    24284207.280          40.750
        34.500
 112034570.653 8  87299668.79447  21319469.560    21319468.180          49.500
        47.750
 110012036.434 8  85723712.10848  20934585.440    20934587.480          49.750
        48.250
 123555151.725 6  96276748.35945  23511767.660    23511767.780          41.500
        34.250
 120367701.081 7  93793028.16346  22905206.440    22905205.440          44.000
        39.250
 106340576.996 8  82862806.37848  20235926.300    20235926.040          50.500
        51.000
 122760878.160 7  95657867.26146  23360602.960    23360602.960          44.250
        39.750
 14  1  8  1 48 30.0000000  0  7G02G31G25G14G21G29G12
 127686393.290 6  99495878.73446  24297913.000    24297909.280          40.500
        36.500
 111982724.437 8  87259269.15047  21309603.500    21309602.220          49.750
        47.500
 110040563.215 8  85745940.75748  20940013.860    20940016.020          49.500
        48.000
 123638582.397 6  96341759.22346  23527644.100    23527644.140          40.500
        37.750
 120283650.593 7  93727534.27546  22889212.060    22889211.140          44.250
        38.750
 106368052.851 8  82884216.13848  20241154.760    20241154.420          50.500
        51.000
 122831312.998 7  95712751.52646  23374006.360    23374006.280          43.250
        41.000
 14  1  8  1 49  0.0000000  0  7G02G31G25G14G21G29G12
 127758734.663 6  99552248.62545  24311679.040    24311675.020          40.000
        33.500
 111931315.089 8  87219209.91547  21299820.620    21299819.380          49.750
        47.500
 110069336.187 8  85768361.25447  20945489.100    20945491.300          49.750
        47.750
 123722169.578 6  96406892.01945  23543550.080    23543550.220          40.500
        34.250
 120199814.015 7  93662207.07946  22873258.380    22873257.680          44.000
        39.250
 106395908.670 8  82905921.96848  20246455.520    20246455.180          50.500
        51.000
 122901871.361 7  95767732.03146  23387433.200    23387433.120          43.500
        40.750
 14  1  8  1 49 30.0000000  0  7G02G31G25G14G21G29G12
 127831408.897 6  99608877.88046  24325508.300    24325504.240          38.500
        37.750
 111880344.151 8  87179492.30347  21290121.220    21290120.020          49.750
        47.750
 110098355.018 8  85790973.32347  20951011.120    20951013.340          49.500
        47.750
 123805909.230 6  96472143.64945  23559485.160    23559485.280          40.750
        34.000
 120116192.942 7  93597047.81446  22857345.780    22857345.200          44.500
        38.750
 106424142.239 8  82927922.14348  20251828.180    20251827.800          50.750
        50.750
 122972552.662 7  95822808.36446  23400883.340    23400883.300          43.750
        39.500
 14  1  8  1 50  0.0000000  0  7G02G31G25G14G21G29G12
 127904414.514 6  99665765.33946  24339400.560    24339396.900          38.750
        36.750
 111829814.006 8  87140118.16147  21280505.700    21280504.520          49.750
        47.500
 110127620.718 8  85813777.74847  20956580.160    20956582.340          49.750
        47.500
 123889798.927 6  96537512.21145  23575448.880    23575448.900          40.500
        35.500
 120032790.413 7  93532058.85346  22841474.740    22841474.260          44.250
        38.500
 106452752.060 8  82950215.51148  20257272.480    20257272.020          50.500
        50.750
 123043357.066 7  95877980.61846  23414356.980    23414356.920          43.500
        40.000
 14  1  8  1 50 30.0000000  0  7G02G31G25G14G21G29G12
 127977748.468 6  99722908.65745  24353355.360    24353352.560          39.750
        31.750
 111779725.701 8  87101088.31747  21270974.260    21270973.060          49.750
        47.500
 110157132.695 8  85836774.08147  20962196.120    20962198.200          49.500
        47.750
 123973834.790 6  96602994.62445  23591440.400    23591440.440          40.250
        35.500
 119949608.184 7  93467241.55246  22825645.640    22825645.220          44.250
        38.000
 106481735.759 8  82972800.20748  20262787.840    20262787.440          50.500
        50.750
 123114284.177 7  95933248.48146  23427853.820    23427853.920          43.500
        40.500
 14  1  8  1 51  0.0000000  0  7G02G31G25G14G21G29G12
 128051406.317 6  99780304.36745  24367372.020    24367369.960          41.000
        34.750
 111730078.877 8  87062402.47647  21261526.780    21261525.500          49.750
        47.500
 110186888.837 8  85859960.68947  20967858.500    20967860.560          49.500
        47.500
 124058010.786 6  96668586.25045  23607458.680    23607458.660          40.500
        31.750
 119866646.032 7  93402595.71946  22809858.380    22809857.980          44.000
        39.000
 106511089.622 8  82995673.36048  20268373.660    20268373.340          50.500
        50.750
 123185331.453 7  95988609.97846  23441373.700    23441373.760          43.500
        40.000
 14  1  8  1 51 30.0000000  0  7G02G31G25G14G21G29G12
 128125390.823 6  99837954.60146  24381451.000    24381449.280          40.500
        37.500
 111680880.570 8  87024066.13547  21252164.620    21252163.300          49.750
        47.500
 110216894.359 8  85883341.60748  20973568.360    20973570.420          49.500
        48.000
 124142328.939 6  96734288.67445  23623503.900    23623503.980          39.500
        35.000
 119783910.975 7  93338126.85746  22794114.260    22794114.020          43.500
        39.500
 106540816.475 8  83018837.14548  20274030.500    20274030.200          50.500
        50.750
 123256503.627 7  96044068.77246  23454917.340    23454917.320          43.000
        38.750
 14  1  8  1 52  0.0000000  0  7G02G31G25G14G21G29G12
 128199699.831 6  99895857.70145  24395591.680    24395590.020          41.250
        35.500
 111632133.058 8  86986081.04947  21242888.280    21242886.860          49.750
        47.500
 110247149.656 8  85906917.15147  20979325.740    20979327.860          49.500
        47.500
 124226786.014 6  96800099.34345  23639575.420    23639575.800          40.750
        34.000
 119701405.236 7  93273836.65946  22778413.820    22778413.620          43.500
        39.500
 106570914.904 8  83042290.46448  20279758.060    20279757.800          50.250
        51.000
 123327800.861 7  96099625.04246  23468484.760    23468484.760          43.500
        39.500
 14  1  8  1 52 30.0000000  0  7G02G31G25G14G21G29G12
 128274327.478 6  99954009.08646  24409793.000    24409790.980          41.000
        37.250
 111583833.775 8  86948445.25047  21233697.180    21233695.820          49.750
        47.750
 110277651.203 8  85930684.57447  20985130.080    20985132.120          49.750
        47.750
 124311375.093 6  96866012.82945  23655672.180    23655672.700          40.750
        34.750
 119619127.753 7  93209724.36346  22762756.800    22762756.660          43.750
        40.500
 106601379.203 8  83066028.87148  20285555.220    20285554.920          50.500
        50.750
 123399219.584 7  96155275.97246  23482075.400    23482075.360          44.500
        39.750
 14  1  8  1 53  0.0000000  0  7G02G31G25G14G21G29G12
 128349272.376 6 100012407.71045  24424054.700    24424052.080          40.500
        34.750
 111535985.424 8  86911160.82547  21224591.860    21224590.600          49.750
        47.750
 110308399.863 8  85954644.56347  20990981.420    20990983.380          49.750
        47.500
 124396093.700 6  96932027.28745  23671793.780    23671794.040          40.250
        35.500
 119537080.910 7  93145791.76946  22747143.720    22747143.600          44.000
        39.750
 106632208.090 8  83090051.38048  20291421.780    20291421.460          50.500
        51.000
 123470759.766 7  96211021.54846  23495689.220    23495689.180          44.750
        39.500
 14  1  8  1 53 30.0000000  0  7G02G31G25G14G21G29G12
 128424535.218 6 100071054.10745  24438376.740    24438373.620          39.000
        35.250
 111488593.023 8  86874231.67547  21215573.340    21215572.120          49.750
        47.750
 110339398.805 8  85978799.56247  20996880.420    20996882.300          49.750
        47.750
 124480941.435 6  96998142.36445  23687940.120    23687939.900          40.500
        34.500
 119455270.145 7  93082043.12546  22731575.700    22731575.560          44.750
        39.750
 106663402.382 8  83114358.62148  20297357.860    20297357.540          50.500
        50.750
 123542424.531 7  96266864.19846  23509326.560    23509326.560          43.500
        40.500
 14  1  8  1 54  0.0000000  0  7G02G31G25G14G21G29G12
 128500113.795 6 100129946.46745  24452758.700    24452755.460          38.000
        35.000
 111441658.691 8  86837659.46847  21206642.040    21206640.840          49.750
        47.750
 110370648.276 8  86003149.78647  21002827.020    21002828.900          49.500
        47.750
 124565914.809 6  97064355.32645  23704110.240    23704109.900          40.500
        35.750
 119373697.270 7  93018479.86046  22716053.000    22716052.760          44.000
        40.250
 106694960.497 8  83138949.37048  20303363.220    20303362.860          50.500
        50.750
 123614213.899 7  96322803.95546  23522987.560    23522987.700          44.250
        38.750
 14  1  8  1 54 30.0000000  0  7G02G31G25G14G21G29G12
 128576004.983 6 100189082.40946  24467200.200    24467197.360          39.000
        37.250
 111395182.952 8  86801444.60747  21197798.020    21197796.860          49.750
        47.750
 110402147.862 8  86027694.91547  21008821.160    21008823.140          49.750
        47.750
 124651010.087 6  97130663.26545  23720303.340    23720303.020          39.000
        34.500
 119292364.387 7  92955103.62046  22700576.000    22700575.620          44.750
        39.250
 106726879.979 8  83163821.69048  20309437.320    20309436.980          50.500
        50.750
 123686127.270 7  96378840.33446  23536672.160    23536672.340          43.500
        37.750
 14  1  8  1 55  0.0000000  0  7G02G31G25G14G21G29G12
 128652205.743 6 100248459.61546  24481700.880    24481698.540          40.750
        37.000
 111349166.814 8  86765587.87148  21189041.460    21189040.340          50.000
        48.000
 110433896.648 8  86052434.22247  21014862.680    21014864.780          49.500
        47.750
 124736223.270 6  97197063.04945  23736518.640    23736518.700          40.750
        32.500
 119211272.130 7  92891914.85446  22685144.880    22685144.300          45.250
        39.250
 106759158.180 8  83188973.54148  20315579.660    20315579.360          50.500
        50.750
 123758162.834 7  96434971.92146  23550379.960    23550380.220          43.250
        38.500
 14  1  8  1 55 30.0000000  0  7G02G31G25G14G21G29G12
 128728710.554 6 100308073.73146  24496259.500    24496257.740          40.750
        36.250
 111303608.828 8  86730088.14448  21180372.100    21180370.960          50.000
        48.000
 110465891.892 8  86077365.57547  21020951.120    21020953.280          49.500
        47.750
 124821547.565 6  97263549.47845  23752755.400    23752755.520          41.500
        34.250
 119130419.207 7  92828912.60046  22669759.260    22669758.460          45.250
        38.750
 106791790.151 8  83214401.04848  20321789.280    20321789.020          50.250
        50.750
 123830318.100 7  96491196.80246  23564110.740    23564110.900          43.500
        38.750
 14  1  8  1 56  0.0000000  0  7G02G31G25G14G21G29G12
 128805523.382 6 100367927.85746  24510876.520    24510875.360          40.000
        38.000
 111258517.286 8  86694951.87448  21171791.560    21171790.280          50.000
        48.000
 110498139.955 8  86102493.92847  21027087.680    21027089.900          49.500
        47.500
 124906986.126 6  97330124.91945  23769014.080    23769014.020          40.750
        34.250
 119049815.001 7  92766104.13846  22654420.880    22654419.980          45.000
        39.750
 106824779.910 8  83240107.36348  20328066.960    20328066.760          50.250
        50.500
 123902599.153 7  96547519.67546  23577865.540    23577865.580          42.750
        37.250
 14  1  8  1 56 30.0000000  0  7G02G31G25G14G21G29G12
 128882639.926 6 100428018.65345  24525551.160    24525550.440          40.500
        32.750
 111213891.564 8  86660178.58648  21163299.600    21163298.320          50.000
        48.000
 110530638.902 8  86127817.77747  21033271.980    21033274.180          49.500
        47.250
 124992533.620 6  97396785.21845  23785293.560    23785293.140          40.500
        35.750
 118969459.147 7  92703489.19546  22639129.660    22639128.780          45.000
        40.000
 106858123.497 8  83266089.37448  20334412.040    20334411.820          50.250
        50.500
 123975003.465 6  96603938.57546  23591643.600    23591643.660          41.750
        36.750
 14  1  8  1 57  0.0000000  0  7G02G31G25G14G21G29G12
 128960058.893 6 100488345.10445  24540283.400    24540282.680          41.250
        35.250
 111169734.970 8  86625770.84747  21154896.880    21154895.620          50.000
        47.750
 110563390.078 8  86153338.17147  21039504.300    21039506.540          49.250
        47.500
 125078187.932 6  97463528.75146  23801593.240    23801592.440          40.250
        36.750
 118889354.829 7  92641070.26046  22623886.240    22623885.560          44.750
        40.500
 106891820.358 8  83292346.67248  20340824.340    20340824.040          50.250
        50.500
 124047532.172 7  96660454.43846  23605445.340    23605445.160          42.750
        36.750
 14  1  8  1 57 30.0000000  0  7G02G31G25G14G21G29G12
 129037776.598 6 100548904.34245  24555072.680    24555071.520          41.250
        35.500
 111126047.154 8  86591728.38448  21146583.380    21146582.060          50.000
        48.000
 110596392.161 8  86179054.06547  21045784.380    21045786.660          49.500
        47.500
 125163943.960 6  97530351.55046  23817912.160    23817911.320          38.750
        36.000
 118809502.642 7  92578847.78846  22608690.720    22608690.240          44.500
        40.750
 106925866.387 8  83318876.04648  20347303.060    20347302.720          50.000
        50.500
 124120183.410 6  96717065.80346  23619270.340    23619270.040          41.000
        37.250
 14  1  8  1 58  0.0000000  0  7G02G31G25G14G21G29G12
 129115794.914 6 100609697.83145  24569919.220    24569917.400          41.000
        35.000
 111082833.710 8  86558055.57548  21138360.140    21138358.780          50.250
        48.250
 110629649.175 8  86204968.61647  21052113.000    21052115.260          49.250
        47.500
 125249802.566 6  97597254.32445  23834250.380    23834249.920          39.500
        35.250
 118729908.658 7  92516826.51346  22593544.380    22593544.100          44.750
        41.000
 106960264.523 8  83345679.78448  20353848.780    20353848.440          50.250
        50.500
 124192961.292 6  96773775.82246  23633119.000    23633119.260          40.000
        38.750
 14  1  8  1 58 30.0000000  0  7G02G31G25G14G21G29G12
 129194106.559 6 100670719.92345  24584821.640    24584819.260          41.250
        33.500
 111040092.121 8  86524750.43848  21130226.720    21130225.320          50.250
        48.000
 110663156.811 8  86231078.45447  21058489.300    21058491.560          49.250
        47.500
 125335755.870 6  97664230.84545  23850606.420    23850606.380          38.750
        34.000
 118650570.437 7  92455004.52646  22578446.760    22578446.580          44.500
        40.500
 106995008.397 8  83372752.94348  20360460.320    20360459.980          50.250
        50.500
 124265860.855 6  96830580.62546  23646991.040    23646991.740          40.750
        38.000
 14  1  8  1 59  0.0000000  0  7G02G31G25G14G21G29G12
 129272709.235 6 100731968.73745  24599779.460    24599776.540          40.000
        34.750
 110997823.629 8  86491813.95548  21122183.320    21122181.900          50.250
        48.250
 110696914.988 8  86257383.51447  21064913.260    21064915.580          49.250
        47.500
 125421800.373 6  97731278.43345  23866979.880    23866980.180          39.750
        32.750
 118571489.673 7  92393383.15246  22563398.200    22563397.980          44.750
        40.500
 107030095.302 8  83400093.38648  20367137.160    20367136.860          50.250
        50.500
 124338881.661 7  96887479.95946  23660886.580    23660887.220          42.000
        36.750
 14  1  8  1 59 30.0000000  0  7G02G31G25G14G21G29G12
 129351601.325 6 100793443.10545  24614792.260    24614789.200          40.000
        35.000
 110956030.705 8  86459248.03248  21114230.380    21114228.940          50.250
        48.000
 110730924.834 8  86283884.68147  21071385.060    21071387.520          49.250
        47.250
 125507933.797 6  97798395.32545  23883370.580    23883370.940          40.000
        34.500
 118492669.530 7  92331964.87146  22548399.280    22548398.960          45.500
        40.250
 107065524.473 8  83427700.52448  20373879.100    20373878.840          50.250
        50.250
 124412024.661 6  96944474.45746  23674805.560    23674805.760          41.250
        37.500
 14  1  8  2  0  0.0000000  0  7G02G31G25G14G21G29G12
 129430785.085 6 100855144.72245  24629860.480    24629857.460          38.750
        34.500
 110914719.636 8  86427057.58148  21106369.080    21106367.740          50.000
        48.250
 110765190.936 8  86310585.52447  21077905.680    21077908.080          49.500
        47.500
 125594157.016 6  97865582.17645  23899778.320    23899778.980          39.500
        33.000
 118414116.440 7  92270754.69346  22533451.200    22533450.660          45.500
        40.500
 107101298.142 8  83455576.11348  20380686.660    20380686.300          50.500
        50.250
 124485294.091 7  97001567.48545  23688748.520    23688748.440          42.000
        35.750
 14  1  8  2  0 30.0000000  0  7G02G31G25G14G21G29G12
 129510253.739 6 100917068.32645  24644982.860    24644980.120          38.000
        31.000
 110873887.672 8  86395240.47048  21098599.000    21098597.660          50.500
        48.250
 110799709.036 8  86337482.73647  21084474.340    21084476.640          49.500
        47.500
 125680462.720 6  97932833.28445  23916201.840    23916202.900          40.000
        35.750
 118335828.025 7  92209750.74446  22518553.380    22518552.720          45.500
        40.000
 107137410.465 8  83483715.58548  20387558.660    20387558.220          50.250
        50.250
 124558685.465 7  97058755.56445  23702714.760    23702714.400          42.500
        35.500
 14  1  8  2  1  0.0000000  0  7G02G31G25G14G21G29G12
 129590008.818 6 100979215.12745  24660159.720    24660157.160          39.250
        33.500
 110833540.608 8  86363801.19148  21090921.240    21090919.880          50.000
        48.250
 110834483.553 8  86364579.74847  21091091.840    21091094.020          49.500
        47.250
 125766851.812 6  98000149.35445  23932641.040    23932642.460          39.000
        34.500
 118257810.846 7  92148958.14546  22503707.200    22503706.340          45.500
        40.000
 107173863.532 8  83512120.56448  20394495.480    20394494.980          50.250
        50.250
 124632202.352 6  97116041.45446  23716704.580    23716704.200          41.000
        36.000
 14  1  8  2  1 30.0000000  0  7G02G31G25G14G21G29G12
 129670045.363 6 101041581.22045  24675390.240    24675387.620          39.750
        34.750
 110793676.792 8  86332738.47548  21083335.420    21083334.000          50.250
        48.250
 110869511.441 8  86391874.20047  21097757.520    21097759.620          49.250
        47.250
 125853317.724 6  98067525.31445  23949094.940    23949096.580          39.500
        34.750
 118180063.345 7  92088375.67946  22488912.380    22488911.360          45.500
        39.500
 107210651.789 8  83540786.73448  20401496.040    20401495.500          50.000
        50.250
 124705841.868 6  97173422.90246  23730717.540    23730717.260          41.000
        37.000
 14  1  8  2  2  0.0000000  0  7G02G31G25G14G21G29G12
 129750360.382 6 101104164.36845  24690673.680    24690671.060          40.250
        31.000
 110754297.032 8  86302052.95548  21075841.680    21075840.300          50.250
        48.250
 110904792.330 8  86419365.80047  21104471.260    21104473.400          49.250
        47.500
 125939856.817 6  98134958.31144  23965562.840    23965564.480          40.000
        28.500
 118102587.143 7  92028004.62346  22474169.120    22474168.020          45.750
        40.750
 107247773.422 8  83569712.68048  20408559.960    20408559.540          50.000
        50.250
 124779603.601 6  97230899.54446  23744753.880    23744753.660          41.750
        37.750
 14  1  8  2  2 30.0000000  0  7G02G31G25G14G21G29G12
 129830954.102 6 101166964.65145  24706009.940    24706007.440          39.250
        34.250
 110715405.710 8  86271748.02048  21068440.900    21068439.540          50.000
        48.250
 110940329.030 8  86447056.72647  21111233.660    21111235.860          49.250
        47.500
 126026468.478 6  98202447.79444  23982044.700    23982045.900          39.500
        27.500
 118025387.099 7  91967848.75246  22459478.360    22459477.240          45.750
        40.750
 107285228.619 8  83598898.54248  20415687.440    20415687.060          50.250
        50.000
 124853489.547 6  97288472.97946  23758813.960    23758813.840          41.750
        36.750
 14  1  8  2  3  0.0000000  0  7G02G31G25G14G21G29G12
 129911824.053 6 101229980.19846  24721398.540    24721396.580          39.000
        36.250
 110677004.520 8  86241825.01548  21061133.320    21061132.000          50.000
        48.250
 110976121.712 8  86474947.11447  21118044.820    21118047.080          49.500
        47.000
 126113149.284 6  98269991.23045  23998539.820    23998540.280          39.000
        31.500
 117948465.164 7  91907909.58846  22444840.520    22444839.460          45.750
        40.500
 107323015.964 8  83628343.22848  20422878.180    20422877.820          50.250
        50.250
 124927499.769 6  97346143.25646  23772897.640    23772897.660          41.500
        37.250
 14  1  8  2  3 30.0000000  0  7G02G31G25G14G21G29G12
 129992967.353 6 101293208.75145  24736839.280    24736837.620          39.750
        34.000
 110639094.610 8  86212284.81148  21053919.320    21053917.920          50.000
        48.500
 111012170.162 8  86503036.81147  21124904.640    21124906.940          49.500
        47.250
 126199895.760 6  98337585.76444  24015047.240    24015047.280          39.750
        28.750
 117871823.128 7  91848188.53246  22430255.980    22430255.080          45.500
        41.000
 107361132.486 8  83658044.41448  20430131.540    20430131.200          50.250
        50.000
 125001633.374 7  97403909.67946  23787004.820    23787004.680          42.500
        37.000
 14  1  8  2  4  0.0000000  0  7G02G31G25G14G21G29G12
 130074379.773 6 101356646.99245  24752331.460    24752329.880          40.000
        32.500
 110601675.103 8  86183126.75148  21046798.580    21046797.200          50.000
        48.500
 111048472.431 8  86531324.28547  21131812.760    21131814.980          49.500
        47.500
 126286702.577 6  98405227.35144  24031566.180    24031566.260          40.000
        29.500
 117795460.679 7  91788685.33546  22415724.740    22415723.900          46.000
        41.000
 107399574.944 8  83687999.57648  20437446.880    20437446.580          50.000
        50.250
 125075888.378 7  97461770.71945  23801135.300    23801134.600          42.250
        35.750
 14  1  8  2  4 30.0000000  0  6G31G25G14G21G29G12
 110564744.083 8  86154349.32948  21039770.780    21039769.480          50.000
        48.750
 111085024.902 8  86559806.72047  21138768.460    21138770.720          49.500
        47.250
 126373562.538 6  98472910.30945  24048095.160    24048095.520          38.750
        33.750
 117719375.905 7  91729398.52346  22401246.360    22401245.500          46.250
        40.750
 107438336.873 8  83718203.67348  20444823.000    20444822.720          50.000
        50.250
 125150260.759 7  97519723.19346  23815288.120    23815287.120          42.250
        37.750
 14  1  8  2  5  0.0000000  0  6G31G25G14G21G29G12
 110528322.848 8  86125969.15648  21032839.960    21032838.860          50.000
        48.750
 111121847.868 8  86588499.93047  21145775.600    21145777.920          49.250
        47.250
 126460493.195 6  98540648.38945  24064637.540    24064638.220          39.250
        33.250
 117643591.283 7  91670345.57946  22386825.100    22386824.160          46.000
        41.000
 107477437.099 8  83748671.37948  20452263.520    20452263.180          50.250
        50.000
 125224770.336 6  97577782.56845  23829466.820    23829465.760          41.750
        35.500
 14  1  8  2  5 30.0000000  0  6G31G25G14G21G29G12
 110492392.358 8  86097971.36748  21026002.620    21026001.560          50.000
        48.500
 111158920.701 8  86617387.84947  21152830.280    21152832.620          49.250
        47.000
 126547469.718 6  98608422.20646  24081188.760    24081189.600          38.000
        36.000
 117568088.092 7  91611511.92646  22372457.320    22372456.380          46.000
        40.750
 107516853.026 8  83779385.09748  20459764.100    20459763.720          50.250
        50.000
 125299396.440 6  97635932.78645  23843667.680    23843666.480          41.750
        34.500
 14  1  8  2  6  0.0000000  0  6G31G25G14G21G29G12
 110456962.916 8  86070364.01248  21019260.620    21019259.560          50.000
        48.750
 111196252.405 8  86646477.47647  21159934.220    21159936.560          49.250
        46.750
 126634497.964 6  98676236.33445  24097749.600    24097750.640          38.500
        31.500
 117492876.990 7  91552905.89646  22358145.080    22358144.200          46.000
        41.250
 107556591.089 8  83810349.81948  20467326.020    20467325.560          50.000
        50.250
 125374147.580 6  97694180.40745  23857892.320    23857891.100          41.500
        35.750
 14  1  8  2  6 30.0000000  0  6G31G25G14G21G29G12
 110422032.265 8  86043145.31948  21012613.500    21012612.480          49.750
        48.500
 111233839.506 8  86675766.12447  21167086.780    21167089.080          49.250
        46.750
 126721571.292 6  98744085.54845  24114319.040    24114319.800          38.750
        32.500
 117417956.406 7  91494526.22946  22343888.120    22343887.260          46.000
        41.250
 107596645.658 8  83841561.16948  20474948.200    20474947.740          50.250
        50.000
 125449019.951 6  97752522.50846  23872140.060    23872139.080          41.750
        37.500
 14  1  8  2  7  0.0000000  0  6G31G25G14G21G29G12
 110387604.339 8  86016318.36548  21006062.040    21006061.060          49.750
        48.750
 111271684.763 8  86705255.92947  21174288.480    21174290.760          49.500
        47.000
 126808689.068 6  98811969.44145  24130897.100    24130897.540          39.500
        33.000
 117343330.530 7  91436376.19446  22329687.300    22329686.400          46.250
        41.250
 107637017.394 8  83873019.66348  20482630.740    20482630.340          50.250
        50.000
 125524015.981 6  97810960.94646  23886411.260    23886410.720          41.250
        37.750
 14  1  8  2  7 30.0000000  0  6G31G25G14G21G29G12
 110353678.965 8  85989883.00748  20999606.240    20999605.280          50.000
        48.750
 111309786.642 8  86734945.70147  21181539.080    21181541.240          49.500
        47.000
 126895846.480 6  98879884.19245  24147482.780    24147482.900          38.500
        32.750
 117269000.019 7  91378456.32746  22315542.640    22315541.760          46.000
        41.750
 107677703.258 8  83904722.92448  20490373.100    20490372.700          50.250
        49.750
 125599133.912 6  97869494.37746  23900705.660    23900705.480          40.750
        37.500
 14  1  8  2  8  0.0000000  0  6G31G25G14G21G29G12
 110320258.626 8  85963841.18548  20993246.580    20993245.680          50.000
        48.750
 111348146.246 8  86764836.29447  21188838.760    21188840.800          49.500
        46.750
 126983041.100 6  98947827.97645  24164075.540    24164075.820          38.750
        32.000
 117194967.739 7  91320768.84846  22301454.800    22301453.860          46.750
        41.750
 107718702.041 8  83936670.02548  20498174.980    20498174.480          50.500
        49.750
 125674374.396 7  97928123.28445  23915023.480    23915023.300          42.250
        35.500
 14  1  8  2  8 30.0000000  0  6G31G25G14G21G29G12
 110287345.958 8  85938194.94448  20986983.580    20986982.600          50.000
        48.500
 111386765.032 8  86794928.83747  21196187.740    21196189.800          49.250
        47.000
 127070271.013 6  99015799.18646  24180674.940    24180675.840          38.500
        36.000
 117121236.588 7  91263316.02047  22287424.200    22287423.280          46.000
        42.000
 107760012.674 8  83968860.12648  20506036.160    20506035.540          50.000
        49.750
 125749738.455 6  97986848.50045  23929364.940    23929364.560          41.750
        35.500
 14  1  8  2  9  0.0000000  0  6G31G25G14G21G29G12
 110254943.286 8  85912946.10448  20980817.620    20980816.540          50.000
        48.750
 111425644.259 8  86825224.33147  21203586.220    21203588.300          49.250
        47.000
 127157572.381 6  99083833.51945  24197280.220    24197282.740          37.750
        34.000
 117047810.024 7  91206100.53447  22273451.560    22273450.600          46.500
        42.000
 107801634.754 8  84001292.91048  20513956.500    20513955.820          50.000
        49.750
 125825227.018 6  98045670.73346  23943730.040    23943729.520          41.500
        36.500
 14  1  8  2  9 30.0000000  0  6G31G25G14G21G29G12
 110223047.178 8  85888091.99848  20974748.020    20974746.820          50.000
        48.750
 111464779.147 8  86855719.04447  21211033.340    21211035.440          49.250
        47.000
 127244860.882 6  99151850.37344  24213891.140    24213892.880          39.000
        29.250
 116974685.134 7  91149120.11246  22259536.320    22259535.380          46.500
        41.500
 107843561.022 8  84033962.72548  20521934.700    20521934.120          50.000
        49.750
 125900835.207 6  98104586.20946  23958117.820    23958117.280          41.000
        37.000
 14  1  8  2 10  0.0000000  0  6G31G25G14G21G29G12
 110191664.511 8  85863637.97048  20968776.140    20968774.920          50.000
        48.750
 111504175.357 8  86886417.38447  21218530.180    21218532.320          49.250
        47.000
 127332176.810 6  99219888.68845  24230507.300    24230506.760          40.000
        31.750
 116901869.302 7  91092380.51747  22245679.860    22245678.980          46.500
        42.250
 107885795.587 8  84066872.76348  20529971.580    20529971.080          50.000
        49.750
 125976568.222 6  98163598.95046  23972529.220    23972528.820          40.250
        36.250
 14  1  8  2 10 30.0000000  0  6G31G25G14G21G29G12
 110160797.859 8  85839586.02948  20962902.460    20962901.220          50.250
        49.000
 111543834.411 8  86917320.53647  21226077.020    21226079.300          49.500
        47.000
 127419518.752 6  99287947.22645  24247128.160    24247127.700          39.000
        31.750
 116829365.672 7  91035884.19146  22231882.860    22231882.020          46.500
        41.500
 107928337.713 8  84100022.47448  20538067.040    20538066.580          50.000
        49.750
 126052427.126 6  98222709.76646  23986964.480    23986964.220          40.000
        36.000
 14  1  8  2 11  0.0000000  0  6G31G25G14G21G29G12
 110130444.630 8  85815934.16048  20957126.480    20957125.200          50.250
        48.750
 111583752.438 8  86948425.48247  21233673.200    21233675.520          49.250
        47.000
 127506879.268 6  99356020.21645  24263752.440    24263751.880          39.000
        30.750
 116757172.155 7  90979629.49846  22218144.880    22218144.140          46.750
        41.750
 107971181.605 8  84133407.31948  20546219.900    20546219.580          49.750
        50.000
 126128407.724 6  98281915.42246  24001422.920    24001423.080          39.500
        36.250
 14  1  8  2 11 30.0000000  0  6G31G25G14G21G29G12
 110100607.087 8  85792684.12748  20951448.600    20951447.320          50.000
        48.750
 111623930.418 8  86979732.98847  21241318.820    21241321.100          49.250
        46.750
 127594255.944 6  99424105.74145  24280379.640    24280379.140          38.500
        31.000
 116685291.681 7  90923618.75147  22204466.520    22204465.840          46.500
        42.250
 108014325.725 8  84167026.10348  20554429.940    20554429.760          49.750
        49.750
 126204511.024 6  98341216.66645  24015904.920    24015905.140          39.500
        34.750
 14  1  8  2 12  0.0000000  0  6G31G25G14G21G29G12
 110071286.239 8  85769836.70048  20945869.000    20945867.740          50.000
        48.750
 111664368.676 8  87011243.30647  21249013.980    21249016.160          49.250
        46.500
 127681646.298 6  99492202.01645  24297009.500    24297009.320          39.250
        30.750
 116613726.196 7  90867853.43847  22190848.120    22190847.500          46.750
        42.000
 108057767.960 8  84200877.19648  20562696.700    20562696.600          49.750
        49.750
 126280736.430 6  98400613.06845  24030410.300    24030410.340          40.750
        34.750
 14  1  8  2 12 30.0000000  0  6G31G25G14G21G29G12
 110042482.648 8  85747392.34448  20940387.860    20940386.580          50.250
        49.000
 111705066.290 8  87042955.73447  21256758.460    21256760.560          49.250
        46.250
 127769045.838 6  99560305.45045  24313641.240    24313641.340          39.500
        31.000
 116542476.583 7  90812334.26747  22177289.880    22177289.180          47.000
        42.000
 108101506.821 8  84234959.42348  20571019.960    20571019.840          50.000
        49.500
 126357083.267 6  98460104.08546  24044938.840    24044938.680          38.750
        36.750
 14  1  8  2 13  0.0000000  0  6G31G25G14G21G29G12
 110014198.883 8  85725353.03948  20935005.660    20935004.360          50.500
        49.000
 111746024.683 8  87074871.35547  21264552.580    21264554.640          49.250
        47.000
 127856452.594 6  99628414.42345  24330274.460    24330274.720          39.500
        33.250
 116471545.814 7  90757063.54746  22163792.320    22163791.500          47.250
        41.500
 108145540.742 8  84269271.56948  20579399.420    20579399.240          50.000
        49.750
 126433552.260 6  98519690.29946  24059490.660    24059490.020          40.000
        36.250
 14  1  8  2 13 30.0000000  0  6G31G25G14G21G29G12
 109986437.918 8  85703721.12048  20929722.960    20929721.720          50.250
        49.250
 111787245.772 8  87106991.67047  21272396.720    21272398.720          49.000
        46.750
 127943865.439 6  99696528.18245  24346908.840    24346909.300          38.750
        32.250
 116400937.689 7  90702044.24247  22150356.140    22150355.180          47.000
        42.000
 108189869.451 8  84303813.42348  20587834.960    20587834.760          50.000
        49.750
 126510145.311 6  98579373.16545  24074066.000    24074064.980          39.750
        35.750
 14  1  8  2 14  0.0000000  0  6G31G25G14G21G29G12
 109959201.472 8  85682497.90948  20924540.080    20924538.820          50.250
        48.750
 111828730.249 8  87139317.23247  21280290.960    21280292.920          49.250
        46.500
 128031281.701 6  99764644.60645  24363543.740    24363544.240          38.750
        34.500
 116330654.808 7  90647278.37047  22136981.740    22136980.700          47.000
        42.250
 108234491.847 8  84338584.11848  20596326.380    20596326.160          50.000
        49.750
 126586862.355 6  98639152.69646  24088664.740    24088663.880          39.000
        36.250
 14  1  8  2 14 30.0000000  0  6G31G25G14G21G29G12
 109932488.694 8  85661682.75548  20919456.800    20919455.540          50.250
        49.000
 111870476.156 8  87171846.50547  21288234.960    21288236.920          49.250
        46.750
 128118696.155 6  99832759.62845  24380178.380    24380178.780          38.500
        33.250
 116260696.757 7  90592765.60947  22123669.140    22123668.020          47.000
        42.250
 108279404.202 8  84373580.76748  20604872.920    20604872.700          50.000
        49.750
 126663700.989 6  98699026.92045  24103286.480    24103285.920          38.750
        33.750
 14  1  8  2 15  0.0000000  0  6G31G25G14G21G29G12
 109906303.504 8  85641278.70748  20914473.900    20914472.580          50.500
        49.000
 111912486.455 8  87204581.78847  21296229.280    21296231.280          49.250
        46.750
 128206108.625 6  99900873.06944  24396812.360    24396813.000          38.500
        28.250
 116191068.186 7  90538509.57747  22110419.160    22110418.040          46.750
        42.250
 108324606.924 8  84408803.65948  20613474.740    20613474.540          50.000
        49.750
 126740664.184 6  98758998.25546  24117931.820    24117931.680          38.000
        37.500
 14  1  8  2 15 30.0000000  0  6G31G25G14G21G29G12
 109880644.435 8  85621284.62348  20909591.160    20909589.780          50.500
        49.250
 111954758.601 8  87237521.11747  21304273.420    21304275.460          49.000
        46.750
 128293513.397 6  99968980.51345  24413444.760    24413445.980          37.750
        30.750
 116121767.981 7  90484509.41647  22097231.680    22097230.600          47.000
        43.000
 108370095.712 8  84444249.45848  20622131.000    20622130.800          50.000
        49.500
 126817749.351 6  98819064.57045  24132600.400    24132600.760          38.000
        33.500
 14  1  8  2 16  0.0000000  0  6G31G25G14G21G29G12
 109855512.162 8  85601701.03848  20904808.680    20904807.320          50.500
        49.000
 111997292.357 8  87270664.30247  21312367.300    21312369.340          49.250
        46.000
 128380906.946 6 100037079.23645  24430075.120    24430076.580          37.500
        34.250
 116052797.845 7  90430766.46547  22084107.120    22084106.020          47.250
        42.750
 108415868.403 8  84479916.48348  20630841.340    20630841.020          50.000
        49.500
 126894955.347 6  98879225.11145  24147292.140    24147292.520          38.500
        34.250
 14  1  8  2 16 30.0000000  0  6G31G25G14G21G29G12
 109830910.306 8  85582530.75548  20900127.120    20900125.760          50.250
        49.000
 112040090.372 8  87304013.39547  21320511.480    21320513.480          49.000
        46.500
 128468288.396 6 100105168.53445  24446703.160    24446705.080          37.750
        31.750
 115984162.274 7  90377284.21547  22071046.280    22071045.100          47.500
        42.500
 108461924.853 8  84515804.62248  20639605.600    20639605.200          49.750
        49.500
 126972284.568 6  98939481.62045  24162007.460    24162007.660          38.250
        32.000
 14  1  8  2 17  0.0000000  0  6G31G25G14G21G29G12
 109806838.108 8  85563773.19448  20895546.300    20895544.900          50.500
        49.000
 112083150.647 8  87337566.84647  21328705.560    21328707.600          49.250
        46.250
 128555652.940 6 100173244.64445  24463328.000    24463330.020          37.500
        32.500
 115915860.993 7  90324062.45947  22058049.020    22058047.840          47.500
        42.250
 108508261.648 8  84551911.22248  20648423.140    20648422.760          50.000
        49.250
 127049734.896 6  98999832.52545  24176745.940    24176745.740          38.750
        33.250
 14  1  8  2 17 30.0000000  0  5G31G25G14G21G29
 109783299.617 8  85545431.50448  20891067.100    20891065.680          50.500
        49.000
 112126476.174 8  87371326.99047  21336950.060    21336952.220          49.000
        46.500
 128643000.508 6 100241307.50244  24479949.640    24479951.840          36.750
        25.500
 115847898.502 7  90271104.68847  22045116.200    22045115.100          47.250
        43.250
 108554880.053 8  84588237.25048  20657294.180    20657293.880          49.750
        49.000
 14  1  8  2 18  0.0000000  0  5G31G25G21G29G12
 109760273.920 8  85527489.39648  20886685.460    20886684.040          50.250
        49.250
 112170045.412 8  87405277.03047  21345240.960    21345243.180          48.750
        46.250
 115780254.651 7  90218395.20047  22032243.960    22032242.960          47.500
        43.000
 108601756.210 8  84624764.13348  20666214.320    20666214.040          49.750
        49.250
 127204904.659 6  99120707.33345  24206289.220    24206288.620          39.250
        34.000
 14  1  8  2 18 30.0000000  0  5G31G25G21G29G12
 109737823.864 8  85509995.84448  20882413.360    20882411.960          50.500
        49.250
 112213920.024 8  87439465.03747  21353589.980    21353592.200          48.750
        46.500
 115712993.476 7  90165983.89647  22019444.500    22019443.620          47.250
        43.000
 108648949.873 8  84661538.41248  20675194.920    20675194.680          49.750
        49.250
 127282743.408 6  99181360.88546  24221100.980    24221101.320          37.750
        37.000
 14  1  8  2 19  0.0000000  0  5G31G25G21G29G12
 109715859.926 8  85492881.08348  20878233.760    20878232.380          50.500
        49.250
 112258009.722 8  87473820.63447  21361979.920    21361982.160          48.750
        46.250
 115646025.973 7  90113801.43747  22006700.860    22006700.100          47.500
        42.750
 108696368.205 8  84698487.75848  20684218.300    20684218.100          49.500
        49.500
 127360666.685 6  99242063.97346  24235926.760    24235927.000          37.500
        39.250
 14  1  8  2 19 30.0000000  0  5G31G25G21G29G12
 109694497.458 8  85476235.00848  20874168.600    20874167.220          50.250
        49.250
 112302429.078 8  87508433.11147  21370432.660    21370434.900          49.000
        46.250
 115579468.387 7  90061938.38747  21994035.280    21994034.520          47.250
        43.250
 108744124.853 8  84735700.74248  20693306.100    20693305.940          49.750
        49.000
 127438764.605 6  99302919.44846  24250787.840    24250789.380          38.000
        37.000
 14  1  8  2 20  0.0000000  0  5G31G25G21G29G12
 109673616.012 8  85459963.74148  20870195.040    20870193.600          50.500
        49.250
 112347056.503 8  87543207.72547  21378925.040    21378927.200          49.000
        46.250
 115513200.296 7  90010300.91847  21981424.800    21981424.020          47.500
        43.250
 108792095.347 8  84773080.34448  20702434.560    20702434.420          49.750
        49.000
 127516927.322 6  99363825.45745  24265662.120    24265663.380          38.250
        35.750
 14  1  8  2 20 30.0000000  0  5G31G25G21G29G12
 109653289.264 8  85444124.70548  20866327.060    20866325.560          50.500
        49.250
 112391964.567 8  87578201.01647  21387470.800    21387472.920          48.750
        46.250
 115447296.457 7  89958947.29847  21968883.700    21968882.860          47.500
        43.250
 108840350.577 8  84810681.82648  20711617.260    20711617.020          49.750
        49.000
 127595227.077 6  99424838.24145  24280562.300    24280563.400          38.250
        34.000
 14  1  8  2 21  0.0000000  0  5G31G25G21G29G12
 109633499.473 8  85428704.09248  20862561.180    20862559.660          50.250
        49.250
 112437135.212 8  87613398.91847  21396066.480    21396068.660          48.750
        46.500
 115381740.174 7  89907864.48747  21956408.800    21956407.820          47.500
        43.250
 108888870.533 8  84848489.58048  20720850.380    20720850.040          50.000
        49.000
 127673645.354 6  99485943.39645  24295485.200    24295485.980          40.250
        33.750
 14  1  8  2 21 30.0000000  0  5G31G25G21G29G12
 109614254.603 8  85413708.08448  20858898.920    20858897.520          50.250
        49.250
 112482575.352 8  87648806.80647  21404713.480    21404715.680          49.000
        46.250
 115316540.113 7  89857059.25347  21944001.680    21944000.540          47.750
        43.250
 108937659.887 8  84886507.25048  20730134.780    20730134.400          50.000
        49.250
 127752188.515 6  99547145.85745  24310431.720    24310432.120          40.000
        35.000
 14  1  8  2 22  0.0000000  0  5G31G25G21G29G12
 109595553.472 8  85399135.77348  20855340.160    20855338.820          50.500
        49.250
 112528282.762 8  87684422.96847  21413411.360    21413413.560          49.000
        46.250
 115251695.816 7  89806531.24647  21931662.220    21931661.100          47.750
        43.000
 108986714.624 8  84924731.72148  20739469.680    20739469.300          50.000
        49.250
 127830854.509 6  99608444.00445  24325401.460    24325401.720          40.000
        33.000
 14  1  8  2 22 30.0000000  0  5G31G25G21G29G12
 109577394.163 8  85384985.65748  20851884.540    20851883.220          50.250
        49.250
 112574254.821 8  87720245.35247  21422159.600    21422161.780          48.750
        46.000
 115187206.288 7  89756279.68347  21919390.240    21919389.200          47.500
        43.250
 109036030.523 8  84963159.70048  20748854.200    20748853.860          50.000
        49.000
 127909640.155 6  99669835.40645  24340393.860    24340394.060          39.500
        35.500
 14  1  8  2 23  0.0000000  0  5G31G25G21G29G12
 109559778.880 8  85371259.45648  20848532.500    20848531.120          50.500
        49.250
 112620493.116 8  87756275.18247  21430958.480    21430960.720          49.000
        46.250
 115123074.527 7  89706306.88547  21907186.320    21907185.380          47.500
        44.000
 109085606.821 8  85001790.58248  20758288.240    20758288.000          49.750
        49.000
 127988546.599 6  99731320.95946  24355409.180    24355409.300          38.750
        37.000
 14  1  8  2 23 30.0000000  0  5G31G25G21G29G12
 109542709.114 8  85357958.34148  20845284.200    20845282.840          50.000
        49.000
 112666998.338 8  87792513.00347  21439808.240    21439810.460          49.000
        46.500
 115059302.535 7  89656614.43747  21895050.840    21895050.000          47.750
        43.500
 109135442.370 8  85040623.47348  20767771.560    20767771.380          49.750
        48.750
 128067574.227 6  99792900.86945  24370447.560    24370447.560          38.500
        34.000
 14  1  8  2 24  0.0000000  0  5G31G25G21G29G12
 109526185.461 8  85345082.75848  20842139.820    20842138.420          50.250
        49.000
 112713770.353 8  87828958.72147  21448708.740    21448710.960          49.000
        46.250
 114995892.279 7  89607203.84647  21882984.200    21882983.420          47.500
        44.000
 109185534.755 8  85079656.50848  20777303.720    20777303.480          49.500
        48.750
 128146722.660 6  99854574.97145  24385508.940    24385508.920          38.250
        34.750
 14  1  8  2 24 30.0000000  0  5G31G25G21G29G12
 109510204.586 8  85332630.12748  20839098.720    20839097.380          50.250
        49.000
 112760804.694 8  87865608.84447  21457659.060    21457661.340          48.750
        46.000
 114932840.277 7  89558072.42647  21870985.760    21870985.000          47.750
        44.000
 109235878.108 8  85118885.09548  20786883.640    20786883.380          49.750
        48.750
 128225987.027 6  99916339.36145  24400592.500    24400592.540          39.250
        31.250
 14  1  8  2 25  0.0000000  0  5G31G25G21G29G12
 109494771.146 8  85320604.06848  20836161.880    20836160.540          50.250
        49.250
 112808105.400 8  87902466.52947  21466660.040    21466662.300          48.750
        45.750
 114870152.817 8  89509225.05847  21859056.780    21859055.900          48.000
        43.750
 109286474.291 8  85158310.69048  20796511.740    20796511.540          49.750
        48.750
 128305371.053 6  99978197.07145  24415698.860    24415698.840          38.000
        31.250
 14  1  8  2 25 30.0000000  0  5G31G25G21G29G12
 109479889.059 8  85309007.63548  20833329.920    20833328.620          50.250
        49.250
 112855676.046 8  87939534.56947  21475712.400    21475714.660          48.750
        46.000
 114807834.941 7  89460665.68747  21847198.120    21847197.200          47.500
        44.000
 109337325.333 8  85197934.87848  20806188.420    20806188.180          49.750
        48.500
 128384878.082 6 100040150.57144  24430828.660    24430828.480          37.750
        29.750
 14  1  8  2 26  0.0000000  0  5G31G25G21G29G12
 109465558.114 8  85297840.66548  20830602.800    20830601.520          50.000
        49.000
 112903515.438 8  87976812.00647  21484815.920    21484818.200          48.750
        46.000
 114745886.305 7  89412394.02647  21835409.720    21835408.800          47.750
        44.000
 109388427.310 8  85237754.59548  20815912.860    20815912.600          49.750
        48.500
 128464506.400 6 100102198.59444  24445981.400    24445981.020          37.000
        28.500
 14  1  8  2 26 30.0000000  0  5G31G25G21G29G12
 109451778.996 8  85287103.68848  20827980.620    20827979.500          50.000
        49.000
 112951623.693 8  88014298.93647  21493970.620    21493972.940          48.750
        46.000
 114684309.108 8  89364411.80547  21823692.000    21823691.140          48.250
        44.000
 109439778.784 8  85277768.72648  20825684.760    20825684.460          49.750
        48.500
 128544255.599 6 100164340.79545  24461157.100    24461156.500          37.000
        35.250
 14  1  8  2 27  0.0000000  0  5G31G25G21G29G12
 109438549.710 8  85276795.13948  20825463.140    20825462.020          50.250
        49.250
 112999997.905 8  88051993.11747  21503175.940    21503178.240          48.750
        45.750
 114623101.907 8  89316717.89147  21812044.720    21812043.800          48.000
        43.750
 109491375.560 8  85317974.00448  20835503.340    20835502.940          49.750
        48.750
 128624122.876 5 100226575.06345  24476355.240    24476354.800          35.750
        33.250
 14  1  8  2 27 30.0000000  0  5G31G25G21G29G12
 109425868.686 8  85266913.82248  20823050.020    20823048.920          50.250
        49.000
 113048636.138 8  88089893.03247  21512431.460    21512433.680          48.500
        45.750
 114562264.606 8  89269312.21247  21800467.840    21800466.800          48.250
        43.750
 109543213.678 8  85358367.33348  20845367.800    20845367.400          49.750
        48.500
 128704105.643 6 100288899.25244  24491575.480    24491575.080          36.500
        28.250
 14  1  8  2 28  0.0000000  0  5G31G25G21G29G12
 109413739.920 8  85257462.82548  20820742.040    20820740.880          50.000
        49.000
 113097541.779 8  88128001.32447  21521737.880    21521740.100          48.500
        45.750
 114501801.432 8  89222198.05647  21788962.080    21788961.020          48.000
        44.500
 109595294.025 8  85398949.41848  20855278.440    20855277.940          50.000
        48.250
 128784207.042 6 100351315.89244  24506818.400    24506817.960          36.500
        29.250
 14  1  8  2 28 30.0000000  0  4G31G25G21G29
 109402053.381 8  85248356.43548  20818518.180    20818517.040          50.000
        49.250
 113146604.006 8  88166231.63347  21531074.100    21531076.340          48.750
        45.500
 114441603.238 8  89175290.37847  21777506.720    21777505.680          48.000
        44.500
 109647504.101 8  85439632.59148  20865213.800    20865213.180          49.750
        48.750
 14  1  8  2 29  0.0000000  0  4G31G25G21G29
 109391021.422 8  85239760.09548  20816418.900    20816417.740          50.000
        49.000
 113196034.667 8  88204749.01747  21540480.460    21540482.680          48.750
        46.000
 114381883.632 8  89128755.62547  21766142.400    21766141.380          48.000
        44.000
 109700054.143 8  85480580.66448  20875213.740    20875213.240          49.750
        48.500
 14  1  8  2 29 30.0000000  0  4G31G25G21G29
 109380546.583 8  85231597.88348  20814425.620    20814424.440          50.000
        49.000
 113245735.747 8  88243477.12147  21549938.260    21549940.480          48.500
        45.750
 114322546.334 8  89082518.76547  21754850.860    21754849.860          48.000
        44.500
 109752844.293 8  85521715.83548  20885259.320    20885259.020          49.750
        48.750
 14  1  8  2 30  0.0000000  0  4G31G25G21G29
 109370633.308 8  85223873.24548  20812539.200    20812537.940          50.000
        49.000
 113295710.995 8  88282418.85447  21559448.240    21559450.360          48.500
        45.750
 114263596.194 8  89036583.60247  21743632.960    21743632.060          48.000
        44.000
 109805876.100 8  85563039.32248  20895350.900    20895350.640          49.750
        48.500
 14  1  8  2 30 30.0000000  0  5G31G25G21G29G12
 109361428.049 8  85216700.30848  20810787.480    20810786.180          50.000
        48.750
 113346106.609 8  88321688.15647  21569038.220    21569040.340          48.500
        45.750
 114205180.818 8  88991065.13347  21732516.880    21732516.020          48.250
        44.250
 109859294.238 8  85604663.84248  20905516.020    20905515.680          49.750
        48.500
 129186507.946 6 100664808.06544  24583374.560    24583374.140          38.250
        27.750
 14  1  8  2 31  0.0000000  0  5G31G25G21G29G12
 109352625.184 8  85209840.92648  20809112.380    20809111.020          50.250
        49.000
 113396616.047 8  88361046.15347  21578649.880    21578652.020          48.500
        45.750
 114146995.342 8  88945725.80947  21721444.580    21721443.680          48.250
        44.500
 109912790.217 8  85646349.01748  20915696.000    20915695.600          49.500
        48.500
 129267313.575 6 100727773.48545  24598751.580    24598750.820          36.750
        30.500
 14  1  8  2 31 30.0000000  0  4G31G25G21G29
 109344390.124 8  85203423.99048  20807545.340    20807543.960          50.250
        49.250
 113447404.478 8  88400621.54347  21588314.560    21588316.820          48.250
        45.500
 114089206.200 8  88900695.32347  21710447.720    21710446.700          48.250
        44.250
 109966527.506 8  85688222.22348  20925921.780    20925921.540          49.250
        48.500
 14  1  8  2 32  0.0000000  0  4G31G25G21G29
 109336582.491 8  85197340.11848  20806059.640    20806058.260          50.250
        49.250
 113498330.882 8  88440304.44447  21598005.460    21598007.840          48.250
        45.500
 114031674.232 8  88855865.22247  21699499.740    21699498.640          48.000
        44.750
 110020363.072 8  85730172.02248  20936166.180    20936166.140          49.250
        48.500
 14  1  8  2 32 30.0000000  0  4G31G25G21G29
 109329457.388 8  85191788.08448  20804703.820    20804702.500          50.250
        49.250
 113549650.066 8  88480293.40247  21607771.200    21607773.540          48.250
        45.500
 113974655.022 8  88811434.67147  21688649.340    21688648.240          48.250
        44.750
 110074550.010 8  85772395.60948  20946477.560    20946477.600          49.500
        48.500
 14  1  8  2 33  0.0000000  0  4G31G25G21G29
 109322906.235 8  85186683.27948  20803457.180    20803455.840          50.250
        48.750
 113601252.620 8  88520503.18447  21617590.860    21617593.180          48.250
        45.250
 113918040.914 8  88767319.78647  21677876.020    21677874.940          48.250
        44.750
 110128977.510 8  85814806.63448  20956834.740    20956834.840          49.500
        48.250
 14  1  8  2 33 30.0000000  0  4G31G25G21G29
 109316936.497 8  85182031.53348  20802321.160    20802319.860          50.250
        49.000
 113653145.856 8  88560939.45347  21627465.820    21627468.080          48.250
        45.500
 113861840.824 8  88723527.51447  21667181.520    21667180.460          48.250
        44.500
 110183650.713 8  85857409.12348  20967238.740    20967238.820          49.500
        48.250
 14  1  8  2 34  0.0000000  0  4G31G25G21G29
 109311506.442 8  85177800.31348  20801287.860    20801286.560          50.000
        49.000
 113705287.939 8  88601569.62347  21637388.160    21637390.420          48.250
        45.500
 113806014.386 8  88680026.40147  21656558.160    21656557.060          48.250
        44.750
 110238525.885 8  85900168.99148  20977681.140    20977681.280          49.500
        48.250
 14  1  8  2 34 30.0000000  0  4G31G25G21G29
 109306657.671 8  85174022.05248  20800365.160    20800363.900          50.250
        49.250
 113757719.606 8  88642425.45447  21647365.600    21647367.840          48.250
        45.250
 113750603.290 8  88636848.93647  21646013.800    21646012.720          48.500
        44.500
 110293642.405 8  85943116.93948  20988169.520    20988169.580          49.500
        48.250
 14  1  8  2 35  0.0000000  0  4G31G25G21G29
 109302355.675 8  85170669.84148  20799546.480    20799545.220          50.250
        49.000
 113810405.995 8  88683479.77547  21657391.460    21657393.620          48.000
        45.000
 113695574.581 8  88593969.42547  21635542.200    21635541.060          48.500
        44.750
 110348963.196 8  85986224.03447  20998696.800    20998696.680          49.750
        47.750
 14  1  8  2 35 30.0000000  0  5G31G25G21G29G12
 109298659.562 8  85167789.75348  20798843.140    20798841.900          50.250
        49.000
 113863405.443 8  88724778.03547  21667476.900    21667479.120          48.250
        45.250
 113640987.435 8  88551433.99747  21625154.620    21625153.400          48.500
        45.000
 110404544.799 8  86029534.36947  21009273.820    21009273.440          49.750
        47.750
 129999927.132 5 101298630.82743  24738163.880    24738164.360          34.000
        23.500
 14  1  8  2 36  0.0000000  0  4G31G25G21G29
 109295447.498 8  85165286.83848  20798231.920    20798230.660          50.250
        49.000
 113916596.449 8  88766225.55447  21677598.840    21677601.140          48.250
        45.000
 113586722.031 8  88509149.27347  21614828.260    21614826.960          48.500
        44.750
 110460264.850 8  86072952.59648  21019877.160    21019876.580          49.750
        48.000
 14  1  8  2 36 30.0000000  0  4G31G25G21G29
 109292795.182 8  85163220.08848  20797727.260    20797725.940          50.000
        49.000
 113970054.438 8  88807881.11347  21687771.640    21687773.940          48.250
        45.250
 113532855.177 8  88467175.10347  21604577.720    21604576.340          48.250
        44.500
 110516196.596 8  86116535.76548  21030520.620    21030520.060          49.500
        48.000
 14  1  8  2 37  0.0000000  0  4G31G25G21G29
 109290697.374 8  85161585.43248  20797328.060    20797326.760          50.000
        49.000
 114023773.578 8  88849740.16147  21697994.120    21697996.360          48.250
        44.750
 113479382.488 8  88425508.08747  21594402.140    21594400.800          48.250
        45.250
 110572332.083 8  86160277.70347  21041202.740    21041202.260          49.500
        47.750
 14  1  8  2 37 30.0000000  0  4G31G25G21G29
 109289199.618 8  85160418.34448  20797043.020    20797041.760          50.250
        49.000
 114077799.129 8  88891837.98547  21708274.900    21708277.000          48.250
        45.000
 113426350.454 8  88384184.43047  21584310.460    21584309.200          48.500
        45.250
 110628714.972 8  86204212.41547  21051931.940    21051931.480          49.500
        47.750
 14  1  8  2 38  0.0000000  0  4G31G25G21G29
 109288260.514 8  85159686.57248  20796864.320    20796863.080          50.250
        49.000
 114132089.218 7  88934141.93047  21718605.960    21718608.100          47.750
        45.250
 113373718.594 8  88343172.58947  21574294.900    21574293.780          48.250
        45.250
 110685302.295 8  86248306.43147  21062700.080    21062699.680          49.250
        47.750
 14  1  8  2 38 30.0000000  0  4G31G25G21G29
 109287895.704 8  85159402.29748  20796794.940    20796793.620          50.250
        49.000
 114186659.588 8  88976664.27147  21728990.280    21728992.580          48.000
        45.000
 113321503.739 8  88302485.69147  21564358.640    21564357.680          48.250
        45.750
 110742107.988 8  86292570.60947  21073509.780    21073509.500          49.500
        47.750
 14  1  8  2 39  0.0000000  0  4G31G25G21G29
 109288102.007 8  85159563.04448  20796834.180    20796832.880          50.000
        49.000
 114241506.737 7  89019402.28747  21739427.260    21739429.700          47.750
        45.000
 113269703.927 8  88262122.20347  21554501.400    21554500.460          48.500
        45.000
 110799126.237 8  86337000.41647  21084359.980    21084359.780          49.500
        47.750
 14  1  8  2 39 30.0000000  0  4G31G25G21G29
 109288881.567 8  85160170.48348  20796982.460    20796981.260          50.000
        49.000
 114296632.219 7  89062357.20747  21749917.220    21749919.760          47.750
        45.000
 113218322.058 8  88222084.38547  21544723.740    21544722.740          48.750
        45.250
 110856357.507 8  86381596.20248  21095250.760    21095250.520          49.500
        48.000
 14  1  8  2 40  0.0000000  0  4G31G25G21G29
 109290218.724 8  85161212.42048  20797236.860    20797235.740          50.000
        49.250
 114352020.096 7  89105516.58147  21760457.120    21760459.720          47.750
        45.000
 113167343.600 8  88182360.93247  21535022.860    21535021.860          48.250
        45.500
 110913784.211 8  86426344.27747  21106178.760    21106178.480          49.500
        47.750
 14  1  8  2 40 30.0000000  0  4G31G25G21G29
 109292086.033 8  85162667.45748  20797592.220    20797591.140          50.000
        49.000
 114407643.251 7  89148859.29547  21771041.960    21771044.460          47.750
        44.500
 113116742.596 8  88142931.57847  21525393.800    21525392.800          48.500
        45.500
 110971377.282 8  86471221.98747  21117138.420    21117138.140          49.500
        47.500
 14  1  8  2 41  0.0000000  0  4G31G25G21G29
 109294541.764 8  85164581.00748  20798059.580    20798058.440          50.250
        49.000
 114463559.659 7  89192430.52647  21781682.520    21781685.000          47.500
        44.500
 113066578.150 8  88103842.40047  21515847.800    21515846.840          48.250
        45.500
 111029193.477 8  86516273.55547  21128140.520    21128140.280          49.500
        47.750
 14  1  8  2 41 30.0000000  0  4G31G25G21G29
 109297571.538 8  85166941.86548  20798636.160    20798634.980          50.000
        49.000
 114519754.711 7  89236218.85847  21792376.000    21792378.620          47.500
        44.750
 113016837.030 8  88065083.09847  21506382.380    21506381.440          48.500
        45.500
 111087216.399 8  86561486.21947  21139181.900    21139181.680          49.250
        47.750
 14  1  8  2 42  0.0000000  0  4G31G25G21G29
 109301167.940 8  85169744.24348  20799320.540    20799319.320          50.000
        49.250
 114576220.695 7  89280218.32047  21803121.060    21803123.800          47.750
        44.750
 112967513.123 8  88026648.88847  21496996.380    21496995.440          48.500
        45.500
 111145436.511 8  86606852.54347  21150260.780    21150260.540          49.250
        47.750
 14  1  8  2 42 30.0000000  0  4G31G25G21G29
 109305327.038 8  85172985.09948  20800111.960    20800110.780          50.250
        49.000
 114632953.825 7  89324425.94347  21813917.040    21813919.800          47.750
        44.500
 112918603.667 8  87988537.63247  21487689.280    21487688.280          48.750
        45.750
 111203848.740 8  86652368.55347  21161376.280    21161375.980          49.500
        47.750
 14  1  8  2 43  0.0000000  0  4G31G25G21G29
 109310033.553 8  85176652.50548  20801007.620    20801006.400          50.250
        49.000
 114689938.186 7  89368829.32547  21824760.920    21824763.500          47.750
        44.250
 112870093.993 8  87950737.90047  21478458.260    21478457.200          48.500
        45.500
 111262435.194 8  86698020.32747  21172524.920    21172524.600          49.250
        47.750
 14  1  8  2 43 30.0000000  0  4G31G25G21G29
 109315320.881 8  85180772.49448  20802013.800    20802012.520          50.250
        49.000
 114747207.376 7  89413454.66247  21835658.940    21835661.420          47.750
        44.500
 112822019.228 8  87913277.05547  21469309.960    21469308.900          48.750
        45.750
 111321228.877 8  86743833.58747  21183712.980    21183712.720          49.500
        47.750
 14  1  8  2 44  0.0000000  0  4G31G25G21G29
 109321178.934 8  85185337.20548  20803128.560    20803127.220          50.250
        48.750
 114804751.292 7  89458294.06447  21846609.220    21846611.680          47.250
        44.750
 112774369.998 8  87876147.78747  21460242.620    21460241.600          48.750
        45.750
 111380217.420 8  86789798.67747  21194938.120    21194937.960          49.500
        47.500
 14  1  8  2 44 30.0000000  0  4G31G25G21G29
 109327599.762 8  85190340.43848  20804350.380    20804349.000          50.250
        49.000
 114862562.126 7  89503341.45947  21857610.300    21857612.800          47.500
        44.750
 112727139.949 8  87839345.16047  21451255.080    21451254.060          48.750
        45.750
 111439391.408 8  86835908.27647  21206198.500    21206198.400          49.250
        47.250
 14  1  8  2 45  0.0000000  0  4G31G25G21G29
 109334588.056 8  85195785.85748  20805680.180    20805678.880          50.000
        49.000
 114920644.336 7  89548600.31047  21868663.040    21868665.440          47.500
        44.750
 112680334.347 8  87802873.26247  21442348.300    21442347.280          48.500
        46.000
 111498753.850 8  86882164.72047  21217494.880    21217494.720          49.500
        47.500
 14  1  8  2 45 30.0000000  0  4G31G25G21G29
 109342144.960 8  85201674.34348  20807118.240    20807116.940          50.250
        49.000
 114978999.077 7  89594071.53247  21879767.620    21879769.920          47.500
        44.000
 112633956.000 8  87766734.29847  21433522.800    21433521.780          48.500
        46.000
 111558304.695 8  86928567.96947  21228827.140    21228826.860          49.500
        47.250
 14  1  8  2 46  0.0000000  0  4G31G25G21G29
 109350254.068 8  85207993.12148  20808661.420    20808660.060          50.250
        49.000
 115037609.846 7  89639742.23947  21890920.880    21890923.100          47.750
        44.250
 112587989.758 8  87730916.45147  21424775.680    21424774.700          48.750
        46.250
 111618025.238 8  86975103.44747  21240191.600    21240191.260          49.250
        47.000
 14  1  8  2 46 30.0000000  0  4G31G25G21G29
 109358935.523 8  85214757.88148  20810313.480    20810312.140          50.000
        49.000
 115096496.974 7  89685628.30547  21902126.760    21902128.920          47.250
        44.000
 112542456.935 8  87695436.33447  21416111.060    21416110.100          48.750
        46.500
 111677935.070 8  87021786.43147  21251592.000    21251591.640          49.250
        47.000
 14  1  8  2 47  0.0000000  0  4G31G25G21G29
 109368190.329 8  85221969.41248  20812074.600    20812073.340          50.000
        49.000
 115155661.538 7  89731730.54247  21913385.440    21913387.580          47.500
        43.750
 112497359.679 8  87660295.61347  21407529.360    21407528.340          48.750
        46.250
 111738033.497 8  87068616.37347  21263028.300    21263027.880          49.250
        47.000
 14  1  8  2 47 30.0000000  0  5G06G31G25G21G29
 128207213.024 6  99901715.87245  24397022.240    24397024.920          38.000
        35.000
 109378011.911 8  85229622.58148  20813943.540    20813942.380          50.000
        49.000
 115215096.793 7  89778043.71347  21924695.620    21924697.800          47.250
        44.250
 112452692.141 8  87625489.74347  21399029.420    21399028.340          48.750
        46.250
 111798312.052 8  87115586.66947  21274498.920    21274498.480          49.250
        47.000
 14  1  8  2 48  0.0000000  0  5G06G31G25G21G29
 128123509.639 6  99836492.50444  24381094.260    24381095.880          38.750
        29.000
 109388406.708 8  85237722.42048  20815921.580    20815920.480          50.000
        49.250
 115274809.296 7  89824572.92047  21936058.600    21936060.740          47.500
        44.250
 112408462.483 8  87591025.08547  21390612.840    21390611.680          48.750
        46.250
 111858776.101 8  87162701.50847  21286004.860    21286004.360          49.250
        46.750
 14  1  8  2 48 30.0000000  0  5G06G31G25G21G29
 128039930.055 6  99771365.58244  24365189.800    24365190.240          38.250
        28.500
 109399349.379 8  85246249.17048  20818003.940    20818002.820          50.250
        49.000
 115334773.591 7  89871298.32647  21947469.440    21947471.620          47.500
        44.750
 112364646.688 8  87556882.91347  21382274.980    21382273.800          48.750
        46.000
 111919399.244 8  87209940.32747  21297541.060    21297540.520          49.000
        47.000
 14  1  8  2 49  0.0000000  0  5G06G31G25G21G29
 127956496.755 6  99706352.67545  24349313.200    24349313.040          39.500
        32.750
 109410861.706 8  85255219.80048  20820194.700    20820193.540          50.000
        49.000
 115395011.858 7  89918237.21147  21958932.420    21958934.640          47.500
        44.250
 112321267.516 8  87523080.96947  21374020.140    21374019.080          48.500
        46.750
 111980201.636 8  87257318.80247  21309111.300    21309110.880          49.000
        47.250
 14  1  8  2 49 30.0000000  0  5G06G31G25G21G29
 127873204.233 6  99641449.45645  24333463.420    24333463.200          38.750
        31.500
 109422937.412 8  85264629.44248  20822492.620    20822491.460          50.000
        49.000
 115455517.960 7  89965384.80747  21970446.420    21970448.560          47.500
        44.000
 112278320.287 8  87489615.60047  21365847.480    21365846.480          48.750
        46.500
 112041175.946 8  87304831.25447  21320714.320    21320713.940          49.250
        47.000
 14  1  8  2 50  0.0000000  0  5G06G31G25G21G29
 127790058.168 6  99576660.35745  24317641.440    24317641.200          39.000
        35.500
 109435581.792 8  85274482.19348  20824898.760    20824897.580          50.000
        48.750
 115516297.254 7  90012745.28747  21982012.380    21982014.360          47.500
        43.750
 112235811.112 8  87456491.57547  21357758.180    21357757.220          48.500
        46.500
 112102325.907 8  87352480.57147  21332350.860    21332350.460          49.250
        47.000
 14  1  8  2 50 30.0000000  0  5G06G31G25G21G29
 127707057.558 6  99511984.59445  24301846.960    24301847.120          39.000
        31.500
 109448793.371 8  85284776.92648  20827412.840    20827411.580          50.000
        48.750
 115577348.375 7  90060317.56447  21993630.000    21993631.880          47.250
        44.000
 112193739.936 8  87423708.85247  21349752.260    21349751.320          48.500
        46.750
 112163648.455 8  87400264.36547  21344020.260    21344019.860          49.500
        47.000
 14  1  8  2 51  0.0000000  0  5G06G31G25G21G29
 127624202.491 6  99447422.23145  24286079.920    24286080.420          37.250
        35.000
 109462571.709 8  85295513.28348  20830034.820    20830033.460          50.250
        48.750
 115638670.863 7  90108101.30347  22005299.300    22005301.220          47.250
        43.500
 112152107.354 8  87391267.87247  21341829.820    21341828.880          48.500
        46.750
 112225142.757 8  87448182.00147  21355722.320    21355721.820          49.250
        47.000
 14  1  8  2 51 30.0000000  0  5G06G31G25G21G29
 127541490.816 6  99382971.62645  24270340.180    24270341.100          38.500
        30.250
 109476913.797 8  85306688.92748  20832764.080    20832762.640          50.000
        49.000
 115700262.199 7  90156094.53547  22017019.720    22017021.800          47.500
        43.250
 112110911.841 8  87359167.47247  21333990.500    21333989.600          48.500
        46.500
 112286804.465 8  87496230.08347  21367456.060    21367455.660          48.750
        47.000
 14  1  8  2 52  0.0000000  0  5G06G31G25G21G29
 127458921.788 6  99318632.19145  24254627.700    24254628.960          38.250
        33.750
 109491818.220 8  85318302.75248  20835600.280    20835598.900          49.750
        49.000
 115762121.215 7  90204296.36547  22028791.060    22028793.240          47.250
        44.250
 112070153.623 8  87327407.83447  21326234.420    21326233.540          48.750
        46.500
 112348630.523 8  87544406.22247  21379221.060    21379220.860          49.000
        47.000
 14  1  8  2 52 30.0000000  0  5G06G31G25G21G29
 127376500.900 6  99254408.17045  24238943.540    24238944.860          39.500
        32.000
 109507290.222 8  85330358.85548  20838544.440    20838543.140          50.000
        49.000
 115824253.047 7  90252710.77747  22040614.260    22040616.620          46.750
        43.500
 112029838.722 8  87295993.62647  21318562.780    21318561.840          48.750
        46.250
 112410625.548 8  87592714.04147  21391018.300    21391018.180          49.250
        47.000
 14  1  8  2 53  0.0000000  0  5G06G31G25G21G29
 127294214.796 6  99190289.16945  24223285.280    24223286.140          39.750
        34.000
 109523315.447 8  85342846.03548  20841593.920    20841592.700          50.250
        48.750
 115886643.769 7  90301326.90747  22052486.800    22052489.180          47.250
        44.000
 111989954.301 8  87264914.86247  21310973.060    21310972.020          48.500
        46.250
 112472774.035 8  87641141.42447  21402844.840    21402844.700          49.250
        47.000
 14  1  8  2 53 30.0000000  0  5G06G31G25G21G29
 127212079.608 6  99126287.76745  24207655.720    24207656.140          40.000
        30.500
 109539909.493 8  85355776.45348  20844751.680    20844750.500          50.000
        48.750
 115949309.050 7  90350156.97647  22064411.640    22064414.020          47.500
        43.250
 111950517.081 8  87234184.56547  21303468.400    21303467.300          48.500
        46.750
 112535090.482 8  87689699.68647  21414703.300    21414703.200          48.750
        46.750
 14  1  8  2 54  0.0000000  0  6G06G31G16G25G21G29
 127130097.713 6  99062405.80145  24192055.160    24192055.260          39.750
        35.750
 109557073.905 8  85369151.31148  20848017.960    20848016.820          50.000
        49.000
 129071750.583 6 100575397.44244  24561537.500    24561537.420          37.000
        27.750
 116012250.867 7  90399202.52947  22076389.120    22076391.440          47.000
        43.250
 111911530.073 8  87203805.08447  21296049.400    21296048.320          48.500
        46.750
 112597575.242 8  87738389.10147  21426593.680    21426593.700          48.750
        46.750
 14  1  8  2 54 30.0000000  0  6G06G31G16G25G21G29
 127048252.041 6  98998630.00846  24176480.500    24176480.520          40.500
        36.250
 109574790.803 8  85382956.67948  20851389.320    20851388.300          50.000
        48.750
 128983455.238 6 100506595.90945  24544735.660    24544734.820          36.750
        31.750
 116075451.717 7  90448449.92747  22088415.840    22088418.160          46.750
        43.500
 111872976.749 8  87173763.53547  21288712.940    21288711.880          48.750
        46.500
 112660209.434 8  87787194.95747  21438512.500    21438512.580          49.000
        46.750
 14  1  8  2 55  0.0000000  0  6G06G31G16G25G21G29
 126966558.237 6  98934972.52345  24160934.520    24160934.720          40.250
        34.500
 109593075.010 8  85397204.10848  20854868.660    20854867.660          50.000
        48.750
 128895148.511 5 100437785.46045  24527931.300    24527930.500          35.750
        32.000
 116138926.763 7  90497910.99347  22100494.740    22100496.920          46.750
        42.750
 111834873.194 8  87144072.46447  21281462.100    21281461.000          48.750
        46.750
 112723007.342 8  87836128.39247  21450462.580    21450462.620          49.000
        46.250
 14  1  8  2 55 30.0000000  0  6G06G31G16G25G21G29
 126885010.739 6  98871429.07545  24145416.300    24145416.760          40.000
        34.500
 109611920.669 8  85411889.03248  20858454.880    20858453.880          50.000
        49.000
 128806825.585 6 100368962.35145  24511123.920    24511123.180          38.250
        30.500
 116202670.482 7  90547581.40147  22112624.780    22112626.980          47.000
        43.500
 111797214.887 8  87114728.32447  21274296.040    21274294.920          48.750
        46.750
 112785962.249 8  87885184.15847  21462442.460    21462442.460          48.750
        46.250
 14  1  8  2 56  0.0000000  0  6G06G31G16G25G21G29
 126803608.931 6  98807999.11745  24129925.860    24129926.380          39.250
        34.000
 109631325.405 8  85427009.59748  20862147.500    20862146.500          50.000
        49.000
 128718485.501 6 100300125.96145  24494313.520    24494312.400          38.750
        31.500
 116266680.595 7  90597459.37247  22124805.540    22124807.820          46.750
        43.000
 111760000.975 8  87085730.47347  21267214.520    21267213.380          48.750
        46.750
 112849070.367 8  87934359.30247  21474451.420    21474451.520          48.750
        46.500
 14  1  8  2 56 30.0000000  0  6G06G31G16G25G21G29
 126722352.595 6  98744682.53745  24114463.200    24114463.560          40.750
        35.250
 109651289.095 8  85442565.70448  20865946.500    20865945.500          50.000
        48.750
 128630129.450 6 100231277.12745  24477500.080    24477498.980          40.000
        31.000
 116330957.367 7  90647545.16247  22137037.100    22137039.400          47.250
        43.250
 111723232.435 8  87057079.66947  21260217.720    21260216.600          48.750
        47.000
 112912331.030 8  87983653.31947  21486489.540    21486489.600          49.000
        46.250
 14  1  8  2 57  0.0000000  0  6G06G31G16G25G21G29
 126641243.314 6  98681480.52145  24099028.740    24099028.820          41.000
        33.250
 109671812.339 8  85458557.83648  20869851.940    20869850.960          49.750
        49.000
 128541759.559 6 100162417.43944  24460684.140    24460682.920          41.000
        29.000
 116395501.854 7  90697839.55647  22149319.540    22149321.820          47.000
        43.500
 111686911.162 8  87028777.37647  21253306.000    21253304.860          48.500
        47.000
 112975743.804 8  88033065.85847  21498556.680    21498556.560          49.000
        46.000
 14  1  8  2 57 30.0000000  0  6G06G31G16G25G21G29
 126560283.815 6  98618395.23545  24083622.620    24083622.740          40.500
        34.750
 109692897.076 8  85474987.49248  20873864.220    20873863.240          50.000
        48.750
 128453379.196 6 100093549.64245  24443866.100    24443864.880          40.000
        32.250
 116460316.324 7  90748344.33947  22161653.360    22161655.620          46.750
        43.000
 111651040.066 8  87000825.88147  21246479.940    21246478.800          48.500
        47.250
 113039309.719 8  88082597.74047  21510652.960    21510652.620          48.750
        46.000
 14  1  8  2 58  0.0000000  0  6G06G31G16G25G21G29
 126479473.871 6  98555426.47345  24068244.920    24068245.220          40.250
        33.750
 109714541.839 8  85491853.53448  20877983.120    20877982.040          50.000
        48.750
 128364988.490 6 100024673.75345  24427045.920    24427044.820          39.250
        33.750
 116525399.885 7  90799058.78447  22174038.260    22174040.560          46.750
        42.500
 111615620.008 8  86973225.83847  21239739.680    21239738.560          48.750
        47.000
 113103026.953 8  88132247.51847  21522777.980    21522777.560          48.750
        45.750
 14  1  8  2 58 30.0000000  0  6G06G31G16G25G21G29
 126398810.871 6  98492572.22245  24052895.300    24052895.500          41.000
        35.500
 109736743.263 8  85509153.33848  20882207.960    20882206.800          50.000
        48.500
 128276585.367 6  99955788.19245  24410223.400    24410222.180          40.750
        32.250
 116590749.588 7  90849980.60647  22186473.800    22186476.160          46.250
        43.250
 111580648.914 8  86945975.63847  21233084.860    21233083.760          48.750
        46.750
 113166891.328 8  88182011.95447  21534930.960    21534930.500          48.750
        46.000
 14  1  8  2 59  0.0000000  0  6G06G31G16G25G21G29
 126318296.854 6  98429834.07845  24037573.980    24037574.240          41.500
        30.750
 109759502.704 8  85526887.95948  20886538.960    20886537.760          50.000
        48.750
 128188172.375 6  99886894.99145  24393398.940    24393397.640          41.250
        35.000
 116656366.941 7  90901110.98447  22198960.280    22198962.820          46.250
        43.750
 111546129.053 8  86919077.05047  21226515.940    21226514.820          48.750
        46.750
 113230903.083 8  88231891.23647  21547111.980    21547111.580          48.500
        46.250
 14  1  8  2 59 30.0000000  0  6G06G31G16G25G21G29
 126237930.898 6  98367211.27745  24022280.920    24022281.100          40.750
        33.000
 109782818.158 8  85545055.83848  20890975.760    20890974.540          50.000
        48.750
 128099749.818 6  99817994.29545  24376572.580    24376571.460          41.750
        32.500
 116722250.613 7  90952448.88647  22211497.460    22211500.160          46.500
        43.250
 111512059.734 8  86892529.53247  21220032.760    21220031.680          48.500
        47.000
 113295059.996 8  88281883.62747  21559320.600    21559320.160          48.750
        45.500
 14  1  8  3  0  0.0000000  0  6G06G31G16G25G21G29
 126157712.101 6  98304703.14445  24007015.960    24007015.960          40.750
        32.000
 109806688.006 8  85563655.70748  20895518.060    20895516.860          49.750
        48.750
 128011317.141 7  99749085.69745  24359744.400    24359743.460          42.500
        33.250
 116788399.289 7  91003993.29947  22224085.140    22224087.840          46.250
        43.000
 111478440.626 8  86866332.83947  21213635.240    21213634.260          48.500
        47.250
 113359359.312 8  88331986.98447  21571556.360    21571555.880          48.750
        46.250
 14  1  8  3  0 30.0000000  0  6G06G31G16G25G21G29
 126077645.353 6  98242313.49745  23991779.760    23991779.860          40.750
        33.500
 109831115.891 8  85582690.41848  20900166.540    20900165.360          50.000
        48.750
 127922879.461 7  99680173.22145  24342915.340    24342914.320          42.250
        34.250
 116854817.249 7  91055747.52947  22236724.080    22236726.760          46.500
        42.750
 111445277.266 8  86840491.27047  21207324.440    21207323.540          48.750
        47.250
 113423804.284 8  88382203.83347  21583819.880    21583819.480          48.750
        46.250
 14  1  8  3  1  0.0000000  0  6G06G31G16G25G21G29
 125997726.897 6  98180039.38645  23976571.740    23976571.820          40.250
        35.250
 109856097.095 8  85602156.28548  20904920.300    20904919.140          50.000
        48.500
 127834434.242 6  99611254.89145  24326084.780    24326083.820          41.250
        32.000
 116921500.407 7  91107708.41047  22249413.580    22249416.100          46.750
        42.500
 111412566.247 8  86815002.17247  21201099.720    21201098.940          48.750
        47.500
 113488390.176 8  88432530.50247  21596110.260    21596110.020          48.750
        46.500
 14  1  8  3  1 30.0000000  0  6G06G31G16G25G21G29
 125917958.328 6  98117882.11945  23961392.240    23961392.360          41.250
        34.000
 109881632.232 8  85622053.78448  20909779.480    20909778.280          50.000
        48.500
 127745983.592 6  99542332.31545  24309253.040    24309252.380          40.500
        33.250
 116988449.666 7  91159876.64447  22262153.740    22262156.260          46.500
        42.500
 111380309.294 8  86789866.88947  21194961.400    21194960.680          48.750
        47.500
 113553116.059 8  88482966.24947  21608427.200    21608427.140          48.750
        46.250
 14  1  8  3  2  0.0000000  0  6G06G31G16G25G21G29
 125838341.304 6  98055842.86346  23946241.460    23946241.720          40.500
        37.000
 109907722.059 8  85642383.50548  20914744.220    20914742.980          50.000
        48.750
 127657529.650 6  99473407.16445  24292420.640    24292420.180          41.000
        35.500
 117055666.265 7  91212253.21347  22274944.720    22274947.320          46.250
        43.500
 111348508.723 8  86765087.22347  21188909.960    21188909.180          48.500
        47.750
 113617982.619 8  88533511.61847  21620770.920    21620770.860          48.750
        46.250
 14  1  8  3  2 30.0000000  0  6G06G31G16G25G21G29
 125758873.793 6  97993920.18046  23931119.220    23931119.760          41.250
        36.000
 109934363.449 8  85663143.02248  20919813.920    20919812.640          50.000
        48.500
 127569071.121 6  99404478.46245  24275587.480    24275587.100          41.500
        34.750
 117123147.729 7  91264836.15947  22287786.020    22287788.760          46.000
        42.750
 111317162.710 8  86740661.76447  21182945.000    21182944.160          48.500
        47.000
 113682986.612 8  88584164.06847  21633140.700    21633140.700          48.500
        46.000
 14  1  8  3  3  0.0000000  0  6G06G31G16G25G21G29
 125679557.645 6  97932115.39845  23916025.760    23916026.380          41.500
        35.000
 109961557.154 8  85684332.91248  20924988.740    20924987.400          50.000
        48.500
 127480610.804 6  99335548.35945  24258754.000    24258753.700          40.750
        34.750
 117190895.509 7  91317626.61947  22300677.940    22300680.800          46.250
        42.750
 111286273.703 8  86716592.41947  21177067.040    21177066.140          48.750
        47.250
 113748128.081 8  88634923.65647  21645536.680    21645536.680          48.500
        46.000
 14  1  8  3  3 30.0000000  0  6G06G31G16G25G21G29
 125600390.956 6  97870427.10245  23900960.780    23900961.360          41.750
        35.500
 109989299.921 8  85705950.64248  20930268.020    20930266.720          49.750
        48.750
 127392147.148 6  99266615.63846  24241919.980    24241919.620          41.000
        36.000
 117258906.940 7  91370622.52347  22313620.040    22313622.920          46.500
        42.250
 111255839.759 8  86692877.66347  21171275.660    21171274.680          48.750
        47.250
 113813403.176 8  88685787.36247  21657958.120    21657958.140          48.500
        46.250
 14  1  8  3  4  0.0000000  0  6G06G31G16G25G21G29
 125521374.033 7  97808855.48645  23885924.480    23885924.920          42.500
        35.000
 110017591.576 8  85727996.07548  20935651.700    20935650.460          49.750
        48.750
 127303681.532 6  99197681.38046  24225085.580    24225085.120          41.000
        36.000
 117327182.169 7  91423823.98147  22326612.400    22326615.100          46.000
        42.500
 111225861.928 8  86669518.31947  21165571.100    21165570.020          48.500
        47.250
 113878811.312 8  88736754.72747  21670404.840    21670404.920          48.250
        46.000
 14  1  8  3  4 30.0000000  0  6G06G31G16G25G21G29
 125442509.215 7  97747402.40745  23870917.100    23870917.440          43.000
        34.750
 110046432.788 8  85750469.74048  20941139.960    20941138.820          50.000
        48.750
 127215216.988 6  99128747.96545  24208251.420    24208250.740          41.750
        34.500
 117395722.603 7  91477232.09147  22339655.200    22339657.780          46.000
        43.000
 111196342.684 8  86646516.31647  21159953.800    21159952.640          48.750
        47.500
 113944352.545 8  88787825.80847  21682876.940    21682876.920          48.750
        45.500
 14  1  8  3  5  0.0000000  0  6G06G31G16G25G21G29
 125363796.014 7  97686067.47645  23855938.540    23855938.760          42.750
        34.250
 110075822.191 8  85773370.57248  20946732.620    20946731.420          50.000
        48.250
 127126754.128 7  99059815.85045  24191417.680    24191416.660          42.250
        34.250
 117464527.726 7  91530846.45647  22352748.380    22352750.900          46.000
        42.250
 111167281.765 8  86623871.44447  21154423.700    21154422.500          48.500
        47.500
 114010025.935 8  88838999.88047  21695374.260    21695373.960          48.250
        45.500
 14  1  8  3  5 30.0000000  0  6G06G31G16G25G21G29
 125285235.299 7  97624851.36345  23840988.840    23840988.980          42.250
        34.250
 110105759.298 8  85796698.18148  20952429.560    20952428.240          50.000
        48.500
 127038294.272 6  98990886.09845  24174584.420    24174583.240          41.250
        35.250
 117533597.655 7  91584667.16447  22365891.960    22365894.540          45.750
        42.250
 111138680.556 8  86601584.79247  21148981.060    21148979.860          48.500
        47.500
 114075830.298 8  88890275.99347  21707896.460    21707896.000          48.250
        45.500
 14  1  8  3  6  0.0000000  0  6G06G31G16G25G21G29
 125206825.285 7  97563752.68245  23826067.780    23826068.080          43.000
        35.500
 110136241.696 8  85820450.69148  20958230.200    20958228.840          50.000
        48.500
 126949836.483 7  98921957.99245  24157751.420    24157750.080          42.250
        31.500
 117602930.039 7  91638692.38047  22379085.520    22379088.200          46.250
        42.000
 111110537.479 8  86579655.12647  21143625.620    21143624.420          48.500
        47.500
 114141762.459 8  88941651.68647  21720443.040    21720442.400          48.500
        45.750
 14  1  8  3  6 30.0000000  0  6G06G31G16G25G21G29
 125128567.003 7  97502772.23746  23811175.620    23811175.900          42.000
        36.750
 110167268.739 8  85844627.59648  20964134.480    20964133.180          49.750
        48.750
 126861382.423 7  98853032.73145  24140919.300    24140917.600          42.250
        34.250
 117672525.388 7  91692922.49747  22392329.180    22392331.940          46.000
        42.750
 111082853.868 8  86558083.48547  21138357.600    21138356.440          48.750
        47.500
 114207822.301 8  88993126.87947  21733013.900    21733013.180          48.500
        45.500
 14  1  8  3  7  0.0000000  0  6G06G31G16G25G21G29
 125050460.657 7  97441910.16546  23796312.420    23796312.800          42.000
        37.000
 110198839.481 8  85869228.16248  20970142.120    20970140.960          49.750
        48.500
 126772933.013 6  98784111.14045  24124087.960    24124086.340          41.750
        33.500
 117742383.441 7  91747357.33147  22405622.820    22405625.540          45.750
        42.500
 111055630.070 8  86536870.14047  21133177.080    21133175.980          48.500
        47.500
 114274008.291 8  89044700.36947  21745608.760    21745608.040          48.750
        45.250
 14  1  8  3  7 30.0000000  0  6G06G31G16G25G21G29
 124972508.809 6  97381168.50045  23781478.520    23781479.140          41.500
        33.000
 110230955.349 8  85894253.50548  20976253.500    20976252.380          49.750
        48.250
 126684491.970 6  98715196.02746  24107258.060    24107256.740          41.500
        36.250
 117812506.327 7  91801998.52147  22418966.760    22418969.400          45.750
        42.500
 111028869.075 8  86516017.42547  21128084.600    21128083.540          48.500
        47.500
 114340321.812 7  89096373.22947  21758227.740    21758227.180          47.750
        45.500
 14  1  8  3  8  0.0000000  0  6G06G31G16G25G21G29
 124894709.732 6  97320545.87245  23766673.620    23766674.440          41.750
        35.000
 110263613.206 8  85919701.17648  20982468.080    20982466.940          50.000
        48.250
 126596058.635 6  98646286.92545  24090429.640    24090428.700          40.750
        35.750
 117882891.675 7  91856844.22046  22432360.660    22432363.080          46.000
        41.250
 111002569.283 8  86495524.08147  21123079.860    21123078.780          48.500
        47.750
 114406759.268 8  89148142.66947  21770870.160    21770869.840          48.000
        45.500
 14  1  8  3  8 30.0000000  0  6G06G31G16G25G21G29
 124817063.046 6  97260041.97746  23751897.780    23751898.800          40.750
        37.500
 110296811.383 8  85945569.87348  20988785.520    20988784.320          49.750
        48.250
 126507632.984 6  98577383.84945  24073602.540    24073602.080          40.500
        35.500
 117953538.662 7  91911893.79746  22445804.260    22445806.600          46.000
        41.250
 110976730.282 8  86475389.80647  21118162.780    21118161.700          48.250
        47.500
 114473318.964 8  89200007.36147  21783535.960    21783535.780          48.250
        45.250
 14  1  8  3  9  0.0000000  0  6G06G31G16G25G21G29
 124739568.129 6  97199656.32945  23737150.860    23737151.900          40.250
        34.250
 110330548.288 8  85971858.36048  20995205.440    20995204.280          50.000
        48.250
 126419215.567 7  98508487.18145  24056777.260    24056776.860          42.250
        34.750
 118024446.085 7  91967146.31646  22459297.420    22459299.740          45.750
        41.750
 110951352.113 8  86455614.61847  21113333.420    21113332.360          48.500
        47.750
 114539999.228 8  89251966.00447  21796224.740    21796224.620          48.000
        44.750
 14  1  8  3  9 30.0000000  0  6G06G31G16G25G21G29
 124662226.729 6  97139390.33445  23722433.100    23722434.140          40.500
        34.000
 110364824.340 8  85998566.96648  21001727.900    21001726.820          49.750
        48.500
 126330808.765 6  98439598.77245  24039954.120    24039953.560          41.000
        34.500
 118095615.230 7  92022602.77147  22472840.400    22472842.800          45.750
        42.000
 110926436.936 8  86436200.20248  21108592.160    21108591.200          48.500
        48.000
 114606800.635 8  89304019.02847  21808936.540    21808936.500          48.250
        45.500
 14  1  8  3 10  0.0000000  0  6G06G31G16G25G21G29
 124585038.372 6  97079243.58545  23707744.580    23707745.520          40.750
        32.750
 110399637.616 8  86025694.18148  21008352.620    21008351.600          49.750
        48.500
 126242413.054 6  98370719.04045  24023132.820    24023132.300          40.250
        35.000
 118167044.943 7  92078262.27746  22486433.060    22486435.560          45.750
        41.250
 110901983.948 8  86417145.93647  21103938.920    21103938.000          48.750
        47.750
 114673721.005 8  89356164.76147  21821671.040    21821671.060          48.000
        45.000
 14  1  8  3 10 30.0000000  0  6G06G31G16G25G21G29
 124508002.968 6  97019216.03646  23693085.240    23693086.120          40.500
        37.750
 110434986.545 8  86053238.79348  21015079.280    21015078.300          50.000
        48.500
 126154029.199 6  98301848.49345  24006313.660    24006313.380          40.750
        35.750
 118238734.621 7  92134124.34347  22500075.200    22500077.700          45.500
        42.250
 110877992.884 8  86398451.61747  21099373.600    21099372.680          48.500
        47.500
 114740758.783 7  89408401.98847  21834427.900    21834427.940          47.750
        45.000
 14  1  8  3 11  0.0000000  0  6G06G31G16G25G21G29
 124431122.311 6  96959309.05245  23678455.240    23678456.220          40.500
        35.250
 110470871.852 8  86081201.36048  21021908.060    21021907.080          50.000
        48.250
 126065660.349 6  98232989.66145  23989497.600    23989497.320          41.750
        35.000
 118310685.555 7  92190189.97347  22513767.040    22513769.640          45.500
        42.250
 110854466.235 8  86380119.17347  21094896.680    21094895.720          48.500
        47.500
 114807914.623 8  89460731.21747  21847207.260    21847207.220          48.000
        44.750
 14  1  8  3 11 30.0000000  0  6G06G31G16G25G21G29
 124354393.814 6  96899520.64145  23663854.280    23663855.120          40.750
        33.250
 110507289.290 8  86109578.57648  21028838.060    21028837.100          49.750
        48.250
 125977304.636 7  98164141.06445  23972684.180    23972683.640          42.000
        33.000
 118382894.690 7  92246456.81346  22527507.960    22527510.720          45.500
        40.750
 110831401.328 8  86362146.52047  21090507.620    21090506.520          48.500
        47.750
 114875184.369 7  89513149.20047  21860008.340    21860008.240          47.750
        45.000
 14  1  8  3 12  0.0000000  0  6G06G31G16G25G21G29
 124277820.317 6  96839852.98545  23649282.760    23649283.400          39.750
        33.500
 110544240.327 8  86138371.58448  21035869.600    21035868.620          50.000
        48.000
 125888965.756 7  98095305.55345  23955874.020    23955873.240          42.250
        34.500
 118455364.007 7  92302926.39447  22541298.380    22541301.280          45.250
        42.250
 110808801.304 8  86344536.12047  21086207.040    21086205.820          48.500
        47.750
 114942569.883 8  89565657.37147  21872831.480    21872831.400          48.000
        45.250
 14  1  8  3 12 30.0000000  0  6G06G31G16G25G21G29
 124201401.315 6  96780305.74045  23634740.680    23634741.360          40.250
        34.000
 110581723.147 8  86167578.96248  21043002.320    21043001.320          49.750
        48.250
 125800644.296 7  98026483.63245  23939067.140    23939066.240          42.750
        34.500
 118528092.752 7  92359598.14446  22555138.160    22555141.140          44.750
        41.500
 110786665.818 8  86327287.69647  21081994.820    21081993.540          48.500
        47.750
 115010069.432 8  89618254.41147  21885676.380    21885676.280          48.000
        45.000
 14  1  8  3 13  0.0000000  0  6G06G31G16G25G21G29
 124125135.099 6  96720877.57246  23620227.640    23620228.540          39.750
        37.750
 110619734.794 8  86197198.41548  21050235.680    21050234.680          49.750
        48.500
 125712339.292 7  97957674.52445  23922263.600    23922262.340          43.000
        34.750
 118601078.481 7  92416470.12246  22569026.900    22569029.840          45.250
        41.750
 110764993.013 8  86310399.80948  21077870.600    21077869.380          48.500
        48.000
 115077679.807 7  89670937.81847  21898542.280    21898542.200          47.750
        44.750
 14  1  8  3 13 30.0000000  0  6G06G31G16G25G21G29
 124049024.152 6  96661570.35446  23605744.060    23605745.260          39.750
        37.250
 110658276.189 8  86227230.66048  21057569.900    21057568.920          50.000
        48.250
 125624053.869 7  97888880.71245  23905463.660    23905462.140          42.250
        35.000
 118674323.197 7  92473543.90446  22582964.940    22582967.820          45.250
        41.250
 110743785.246 8  86293874.27747  21073834.900    21073833.700          48.500
        47.750
 115145402.250 7  89723708.54947  21911429.340    21911429.340          47.750
        44.750
 14  1  8  3 14  0.0000000  0  6G06G31G16G25G21G29
 123973068.818 6  96602384.39146  23591290.080    23591291.420          40.000
        36.250
 110697346.245 8  86257674.84948  21065004.780    21065003.800          50.000
        48.250
 125535790.204 7  97820103.86745  23888667.660    23888665.980          42.500
        35.750
 118747826.715 7  92530819.34746  22596952.220    22596955.060          45.000
        41.750
 110723043.508 8  86277711.89047  21069887.860    21069886.720          48.500
        47.750
 115213235.774 8  89776565.83947  21924337.720    21924337.560          48.500
        44.500
 14  1  8  3 14 30.0000000  0  7G06G31G16G25G27G21G29
 123897281.304 6  96543329.19546  23576868.220    23576869.600          39.750
        37.500
 110736955.247 8  86288539.00148  21072542.180    21072541.200          50.000
        48.000
 125447561.211 6  97751353.98445  23871878.020    23871876.260          40.750
        31.500
 118821600.490 7  92588305.36847  22610990.880    22610993.800          44.500
        42.500
 129698577.268 6 101063841.40346  24680818.900    24680824.140          38.500
        38.000
 110702779.918 8  86261922.08447  21066031.800    21066030.700          48.500
        47.750
 115281191.087 8  89829518.01047  21937269.320    21937268.940          48.000
        44.500
 14  1  8  3 15  0.0000000  0  7G06G31G16G25G27G21G29
 123821626.534 6  96484377.49246  23562471.520    23562473.100          40.750
        36.250
 110777066.873 8  86319794.79848  21080175.240    21080174.220          49.750
        48.500
 125359332.763 6  97682604.55845  23855088.360    23855087.040          40.500
        34.250
 118895608.734 7  92645974.10947  22625074.140    22625077.240          44.750
        42.000
 129617596.183 6 101000739.27846  24665409.000    24665412.940          39.000
        37.500
 110682959.203 8  86246477.38248  21062260.040    21062258.980          48.500
        48.000
 115349232.004 7  89882536.89447  21950217.080    21950216.660          47.500
        44.500
 14  1  8  3 15 30.0000000  0  7G06G31G16G25G27G21G29
 123746133.803 6  96425552.01045  23548105.720    23548107.300          40.000
        32.500
 110817708.904 8  86351463.90848  21087909.160    21087908.160          49.750
        48.250
 125271134.802 6  97613878.87845  23838304.580    23838303.580          41.750
        35.500
 118969880.339 7  92703848.07646  22639207.640    22639210.700          45.250
        41.500
 129536732.522 6 100937728.70946  24650020.920    24650024.720          38.750
        37.250
 110663610.644 8  86231400.59448  21058578.100    21058577.040          48.500
        48.000
 115417386.756 7  89935644.48847  21963186.360    21963186.160          47.500
        45.000
 14  1  8  3 16  0.0000000  0  7G06G31G16G25G27G21G29
 123670796.180 6  96366847.39545  23533769.360    23533770.880          39.000
        34.000
 110858873.281 8  86383540.03247  21095742.520    21095741.440          50.000
        47.750
 125182962.172 7  97545172.94345  23821525.900    23821524.960          42.000
        34.000
 119044407.948 7  92761921.50946  22653389.860    22653392.880          44.750
        41.750
 129455979.451 6 100874804.28546  24634654.000    24634657.840          38.000
        37.000
 110644727.559 8  86216686.49647  21054984.760    21054983.680          48.250
        47.750
 115485647.173 7  89988834.42247  21976175.760    21976175.800          47.750
        45.000
 14  1  8  3 16 30.0000000  0  8G06G31G16G25G27G21G29G18
 123595615.144 6  96308264.83746  23519462.760    23519464.100          39.750
        36.750
 110900559.536 8  86416022.81148  21103675.120    21103673.980          49.750
        48.000
 125094817.158 6  97476488.50645  23804752.540    23804751.360          41.750
        35.000
 119119192.263 7  92820194.99846  22667620.820    22667623.860          44.750
        41.500
 129375338.494 6 100811967.18346  24619308.560    24619312.340          39.000
        37.750
 110626311.311 8  86202336.19147  21051480.240    21051479.160          48.500
        47.750
 115554013.626 7  90042106.97147  21989185.420    21989185.540          47.500
        44.750
 129262212.675 6 100723803.36646  24597782.020    24597782.180          38.000
        36.750
 14  1  8  3 17  0.0000000  0  8G06G31G16G25G27G21G29G18
 123520591.861 6  96249805.17645  23505186.320    23505187.320          40.250
        33.500
 110942767.174 8  86448911.87848  21111706.880    21111705.780          49.500
        48.000
 125006701.635 6  97407827.07045  23787984.720    23787983.440          41.750
        34.500
 119194233.810 7  92878668.90846  22681900.680    22681903.740          44.500
        41.750
 129294810.640 6 100749218.22546  24603984.720    24603988.460          38.750
        36.750
 110608363.029 8  86188350.52748  21048064.740    21048063.700          48.250
        48.000
 115622485.648 7  90095461.80347  22002215.180    22002215.240          47.500
        44.500
 129187095.159 6 100665270.24745  24583487.700    24583487.580          38.500
        32.750
 14  1  8  3 17 30.0000000  0  8G06G31G16G25G27G21G29G18
 123445718.310 6  96191462.18446  23490938.480    23490939.200          40.500
        36.250
 110985487.042 8  86482200.07648  21119836.180    21119835.120          50.000
        48.250
 124918609.037 6  97339183.49345  23771221.320    23771220.100          41.750
        35.000
 119269524.303 7  92937336.79046  22696227.940    22696230.980          44.750
        41.000
 129214388.347 6 100686551.55846  24588680.900    24588684.540          40.000
        36.750
 110590874.946 8  86174723.45648  21044736.800    21044735.860          48.500
        48.000
 115691054.946 7  90148892.41047  22015263.480    22015263.440          47.250
        44.000
 129111928.230 6 100606698.63545  24569183.880    24569183.880          38.750
        31.000
 14  1  8  3 18  0.0000000  0  8G06G31G16G25G27G21G29G18
 123371002.403 6  96133242.03145  23476720.560    23476721.280          41.000
        34.750
 111028724.893 8  86515891.90248  21128064.100    21128063.020          49.750
        48.000
 124830548.203 7  97270564.70346  23754463.960    23754462.860          42.000
        37.500
 119345070.519 7  92996203.95546  22710604.080    22710606.840          45.000
        40.250
 129134079.082 6 100623972.91646  24573398.620    24573402.100          40.000
        37.500
 110573854.165 8  86161460.51648  21041497.820    21041496.920          48.500
        48.000
 115759727.473 7  90202403.47347  22028331.420    22028331.400          47.000
        45.250
 129036721.707 6 100548096.18644  24554872.380    24554872.200          38.000
        28.000
 14  1  8  3 18 30.0000000  0  8G06G31G16G25G27G21G29G18
 123296442.233 6  96075143.24646  23462532.200    23462533.080          41.000
        37.750
 111072477.572 8  86549984.88648  21136389.980    21136388.860          49.750
        48.000
 124742518.655 7  97201970.25846  23737712.640    23737711.540          42.500
        37.250
 119420870.302 7  93055268.70646  22725028.420    22725030.960          44.500
        40.500
 129053881.248 6 100561481.13245  24558137.560    24558140.800          41.000
        35.750
 110557299.200 8  86148560.54748  21038347.520    21038346.580          48.500
        48.250
 115828500.367 7  90255992.73047  22041418.460    22041418.500          47.500
        44.500
 128961476.276 6 100489463.48144  24540553.420    24540553.080          38.500
        28.000
 14  1  8  3 19  0.0000000  0  8G06G31G16G25G27G21G29G18
 123222037.100 6  96017165.27845  23448373.420    23448374.300          41.750
        32.750
 111116742.814 8  86584477.27348  21144813.420    21144812.220          49.750
        48.000
 124654520.472 7  97133400.27646  23720967.260    23720966.080          42.500
        38.500
 119496922.265 7  93114529.94446  22739500.640    22739503.160          44.750
        40.250
 128973794.205 6 100499075.68146  24542897.600    24542900.700          39.750
        37.250
 110541209.480 8  86136023.11348  21035285.780    21035284.760          48.500
        48.000
 115897371.398 7  90309658.45747  22054524.280    22054524.200          47.250
        44.500
 128886193.736 6 100430801.72445  24526227.640    24526227.300          39.500
        30.500
 14  1  8  3 19 30.0000000  0  8G06G31G16G25G27G21G29G18
 123147789.122 6  95959309.73745  23434244.520    23434245.400          41.000
        35.750
 111161520.801 8  86619369.20048  21153334.360    21153333.220          49.750
        48.000
 124566556.932 7  97064857.27646  23704228.380    23704227.200          42.250
        37.250
 119573227.772 7  93173988.76346  22754021.060    22754023.640          45.000
        41.000
 128893820.006 6 100436758.16246  24527678.940    24527682.140          40.000
        39.250
 110525587.116 8  86123849.84348  21032313.000    21032311.920          48.500
        48.000
 115966342.031 7  90363401.79047  22067649.000    22067648.740          47.250
        43.750
 128810878.625 6 100372114.65045  24511895.700    24511895.700          39.500
        32.000
 14  1  8  3 20  0.0000000  0  8G06G31G16G25G27G21G29G18
 123073698.245 6  95901576.62246  23420145.440    23420146.480          40.750
        36.000
 111206809.732 8  86654659.26848  21161952.520    21161951.500          49.750
        48.000
 124478629.114 7  96996342.10146  23687496.220    23687495.220          42.250
        36.250
 119649786.218 7  93233644.67746  22768589.600    22768592.300          45.000
        39.750
 128813958.683 6 100374528.58746  24512481.780    24512484.840          39.000
        38.250
 110510431.746 8  86112040.47248  21029429.080    21029427.940          48.250
        48.000
 116035410.938 7  90417221.71047  22080792.340    22080792.060          47.500
        44.250
 128735533.298 6 100313404.02245  24497558.000    24497558.080          40.500
        34.250
 14  1  8  3 20 30.0000000  0  8G06G31G16G25G27G21G29G18
 122999761.336 7  95843963.45445  23406075.760    23406076.940          42.000
        35.750
 111252605.085 8  86690343.94847  21170667.100    21170666.120          49.750
        47.750
 124390735.298 7  96927853.40646  23670770.480    23670769.620          42.500
        38.000
 119726594.022 7  93293494.89946  22783205.600    22783208.280          44.500
        40.250
 128734207.343 6 100312384.70746  24497305.460    24497308.600          40.250
        37.000
 110495739.965 8  86100592.33548  21026633.360    21026632.140          48.500
        48.000
 116104574.275 7  90471115.21347  22093953.660    22093953.460          47.250
        44.000
 128660156.935 6 100254669.19345  24483214.560    24483214.600          40.250
        33.750
 14  1  8  3 21  0.0000000  0  8G06G31G16G25G27G21G29G18
 122925981.868 6  95786472.99446  23392036.080    23392036.980          41.250
        36.000
 111298908.154 8  86726424.25147  21179478.300    21179477.320          49.750
        47.500
 124302879.642 7  96859394.49045  23654051.920    23654051.320          42.250
        35.750
 119803653.536 7  93353541.25246  22797869.580    22797872.220          45.000
        40.500
 128654569.025 6 100250328.89646  24482150.620    24482154.020          40.750
        36.500
 110481514.957 8  86089507.93147  21023926.460    21023925.180          48.500
        47.750
 116173833.746 7  90525083.63247  22107133.200    22107133.040          46.750
        43.750
 128584755.182 6 100195914.62844  24468866.300    24468866.260          40.000
        28.250
 14  1  8  3 21 30.0000000  0  8G06G31G16G25G27G21G29G18
 122852358.043 6  95729103.82546  23378026.020    23378026.440          41.250
        36.250
 111345715.934 8  86762897.83947  21188385.560    21188384.480          49.750
        47.500
 124215061.967 7  96790965.13845  23637340.720    23637340.040          42.500
        35.500
 119880962.769 7  93413782.19046  22812581.160    22812583.620          45.250
        40.750
 128575042.450 6 100188360.15046  24467016.920    24467020.620          40.500
        37.000
 110467754.902 8  86078785.81248  21021308.000    21021306.700          48.500
        48.250
 116243186.435 7  90579124.68247  22120330.540    22120330.420          47.250
        44.000
 128509329.217 6 100137141.15645  24454513.400    24454513.180          39.750
        32.000
 14  1  8  3 22  0.0000000  0  8G06G31G16G25G27G21G29G18
 122778891.279 7  95671857.02046  23364045.740    23364046.040          42.500
        37.000
 111393027.757 8  86799764.18247  21197388.680    21197387.560          49.750
        47.500
 124127284.807 7  96722567.37945  23620637.120    23620636.500          42.250
        35.250
 119958522.216 7  93474218.11146  22827340.460    22827342.780          45.250
        40.750
 128495628.772 6 100126479.37546  24451904.720    24451908.600          39.750
        36.750
 110454461.110 8  86068427.02748  21018778.280    21018776.980          48.500
        48.250
 116312633.061 7  90633238.91247  22133545.800    22133545.780          47.250
        44.500
 128433882.644 6 100078351.65445  24440156.400    24440156.100          39.000
        34.000
 14  1  8  3 22 30.0000000  0  8G06G31G16G25G27G21G29G18
 122705581.174 7  95614732.30246  23350095.420    23350095.740          42.250
        37.750
 111440841.893 8  86837021.94647  21206487.360    21206486.300          49.500
        47.750
 124039549.029 6  96654201.82946  23603941.380    23603940.760          41.750
        37.250
 120036331.183 7  93534848.46046  22842147.080    22842149.440          44.750
        40.250
 128416327.990 6 100064686.59246  24436814.220    24436818.100          40.250
        37.750
 110441633.513 8  86058431.50648  21016337.240    21016335.980          48.500
        48.000
 116382172.194 7  90687425.22947  22146778.800    22146778.780          47.500
        44.000
 128358417.878 6 100019547.96045  24425795.740    24425795.660          38.500
        35.250
 14  1  8  3 23  0.0000000  0  8G06G31G16G25G27G21G29G18
 122632426.220 7  95557728.47846  23336174.600    23336174.940          42.500
        36.750
 111489154.529 8  86874668.14147  21215680.900    21215679.920          49.750
        47.500
 123951853.885 7  96585867.97346  23587253.540    23587252.980          43.500
        36.750
 120114387.175 7  93595671.28446  22857000.720    22857003.020          44.500
        40.000
 128337138.376 6 100002980.43246  24421744.960    24421748.760          40.000
        37.250
 110429269.825 8  86048797.46648  21013984.500    21013983.240          48.500
        48.250
 116451801.088 7  90741681.51647  22160028.800    22160028.800          47.000
        44.250
 128282935.265 6  99960730.33045  24411431.800    24411431.720          40.250
        32.750
 14  1  8  3 23 30.0000000  0  8G06G31G16G25G27G21G29G18
 122559429.053 7  95500847.60846  23322283.800    23322283.940          43.000
        36.500
 111537966.756 8  86912703.63147  21224969.600    21224968.640          49.750
        47.500
 123864203.809 7  96517569.19645  23570574.400    23570573.680          43.000
        34.750
 120192692.130 7  93656688.10646  22871901.720    22871903.960          44.500
        40.500
 128258062.518 6  99941362.90146  24406697.240    24406701.060          40.000
        36.000
 110417372.541 8  86039526.86248  21011720.500    21011719.220          48.500
        48.000
 116521521.107 7  90796008.78347  22173296.160    22173296.040          47.250
        44.000
 128207439.989 6  99901902.85845  24397065.420    24397065.420          39.750
        30.500
 14  1  8  3 24  0.0000000  0  8G06G31G16G25G27G21G29G18
 122486589.211 7  95444089.32645  23308422.780    23308422.880          42.500
        35.750
 111587276.152 8  86951126.52447  21234352.940    21234351.940          49.750
        47.500
 123776599.073 7  96449305.80246  23553903.780    23553903.000          42.750
        36.500
 120271244.915 7  93717898.05046  22886849.820    22886852.060          43.750
        40.500
 128179100.021 6  99879833.67545  24391670.980    24391674.940          39.750
        34.750
 110405940.839 8  86030619.05148  21009545.080    21009543.800          48.500
        48.000
 116591330.824 7  90850405.96547  22186580.640    22186580.500          47.500
        44.500
 128131934.275 6  99843067.22345  24382697.160    24382697.300          40.750
        31.000
 14  1  8  3 24 30.0000000  0  8G06G31G16G25G27G21G29G18
 122413905.431 7  95387452.62346  23294591.440    23294591.520          43.000
        38.000
 111637079.960 8  86989934.67247  21243830.400    21243829.300          49.750
        47.500
 123689039.997 7  96381077.95346  23537241.940    23537240.920          44.500
        36.250
 120350043.831 7  93779299.77446  22901844.520    22901847.040          43.250
        39.750
 128100249.943 6  99818392.04745  24376666.220    24376670.220          40.000
        33.500
 110394973.556 8  86022073.12548  21007458.040    21007456.800          48.250
        48.500
 116661228.193 7  90904871.42947  22199881.780    22199881.780          47.250
        43.250
 128056419.649 6  99784224.69045  24368327.200    24368327.380          40.000
        32.000
 14  1  8  3 25  0.0000000  0  8G06G31G16G25G27G21G29G18
 122341379.010 7  95330938.56946  23280790.040    23280790.220          43.000
        36.750
 111687377.239 8  87029127.34547  21253401.680    21253400.560          49.500
        47.500
 123601529.079 7  96312887.61945  23520589.240    23520588.040          43.500
        35.750
 120429089.304 7  93840893.63346  22916886.220    22916888.880          44.250
        40.000
 128021513.397 6  99757038.91546  24361683.140    24361687.160          39.250
        39.750
 110384471.381 8  86013889.62248  21005459.520    21005458.300          48.500
        48.000
 116731213.334 7  90959405.30147  22213199.540    22213199.640          47.250
        43.750
 127980899.661 6  99725377.95045  24353956.200    24353956.420          39.750
        33.750
 14  1  8  3 25 30.0000000  0  8G06G31G16G25G27G21G29G18
 122269009.523 7  95274546.80846  23267018.540    23267018.720          43.500
        36.750
 111738165.717 8  87068702.77447  21263066.360    21263065.340          49.500
        47.500
 123514066.991 7  96244735.33446  23503945.800    23503944.520          43.500
        37.500
 120508380.115 7  93902678.65746  22931974.720    22931977.280          44.000
        40.250
 127942889.842 6  99695773.80346  24346721.420    24346725.420          38.750
        36.000
 110374433.701 8  86006068.05748  21003549.380    21003548.220          48.500
        48.250
 116801284.450 7  91014006.16247  22226533.640    22226533.740          47.000
        43.750
 127905375.960 6  99666528.32945  24339584.420    24339584.680          39.250
        30.500
 14  1  8  3 26  0.0000000  0  8G06G31G16G25G27G21G29G18
 122196796.670 7  95218277.08646  23253276.900    23253277.180          43.000
        38.000
 111789443.738 8  87108659.66947  21272824.220    21272823.320          49.750
        47.500
 123426655.364 7  96176622.39146  23487312.020    23487310.700          44.250
        37.250
 120587915.565 7  93964654.31746  22947109.880    22947112.380          44.500
        39.250
 127864379.355 6  99634596.86646  24331781.280    24331785.380          39.250
        38.500
 110364860.429 8  85998608.37348  21001727.640    21001726.520          48.500
        48.250
 116871440.999 7  91068673.59547  22239883.940    22239884.040          47.000
        43.750
 127829851.202 6  99607677.88345  24325212.440    24325212.600          40.250
        32.000
 14  1  8  3 26 30.0000000  0  8G06G31G16G25G27G21G29G18
 122124740.719 7  95162129.62046  23239565.080    23239565.640          43.000
        37.250
 111841209.466 8  87148996.59247  21282674.980    21282674.040          49.750
        47.250
 123339295.195 7  96108549.53846  23470688.060    23470686.720          43.500
        36.500
 120667695.154 7  94026820.20546  22962291.580    22962294.040          44.750
        39.500
 127785982.179 6  99573508.16145  24316862.660    24316866.820          39.000
        34.750
 110355751.167 8  85991510.25548  20999994.240    20999993.120          48.250
        48.250
 116941681.908 7  91123406.76347  22253250.280    22253250.180          46.750
        43.000
 127754328.139 6  99548828.79245  24310840.900    24310840.920          40.500
        32.750
 14  1  8  3 27  0.0000000  0  8G06G31G16G25G27G21G29G18
 122052845.859 7  95106107.68846  23225883.860    23225884.540          42.750
        37.000
 111893464.769 8  87189714.98747  21292618.920    21292617.860          49.750
        47.000
 123251991.357 7  96040520.59746  23454074.700    23454073.460          44.000
        37.750
 120747721.979 7  94089178.76246  22977520.340    22977522.700          44.500
        39.000
 127707702.212 6  99512510.78646  24301966.560    24301970.840          39.500
        37.500
 110347109.377 8  85984776.39848  20998349.760    20998348.640          48.500
        48.500
 117012009.914 7  91178207.79847  22266633.140    22266632.860          46.500
        43.500
 127678813.193 6  99489985.96944  24296470.980    24296470.660          41.000
        29.000
 14  1  8  3 27 30.0000000  0  8G06G31G16G25G27G21G29G18
 121981103.734 7  95050204.74446  23212231.600    23212232.480          42.000
        39.000
 111946199.856 8  87230807.25347  21302654.100    21302652.980          49.750
        47.250
 123164737.886 7  95972530.88846  23437470.880    23437469.880          43.250
        38.500
 120827987.512 7  94151723.29846  22992794.440    22992796.780          44.500
        39.000
 127629531.602 6  99451598.66546  24287091.360    24287095.600          38.750
        38.000
 110338927.250 8  85978400.71748  20996792.760    20996791.640          48.250
        48.250
 117082416.385 7  91233069.97547  22280030.840    22280030.480          46.500
        42.750
 127603300.856 6  99431145.19045  24282101.660    24282100.860          40.000
        35.000
 14  1  8  3 28  0.0000000  0  8G06G31G16G25G27G21G29G18
 121909522.045 7  94994426.81246  23198609.820    23198611.020          42.000
        37.000
 111999420.226 8  87272277.66247  21312781.580    21312780.440          49.750
        47.250
 123077543.570 7  95904587.28446  23420878.260    23420877.380          43.000
        36.500
 120908498.408 7  94214459.04746  23008115.140    23008117.580          44.000
        39.250
 127551477.785 6  99390777.55046  24272238.300    24272242.580          38.500
        37.750
 110331211.812 8  85972388.69248  20995324.560    20995323.460          48.250
        48.500
 117152907.150 7  91287997.82947  22293444.580    22293444.360          46.000
        43.500
 127527800.981 6  99372314.12945  24267734.580    24267733.620          41.000
        32.750
 14  1  8  3 28 30.0000000  0  8G06G31G16G25G27G21G29G18
 121838095.193 6  94938769.54446  23185017.640    23185019.120          41.750
        38.000
 112053118.183 8  87314120.21847  21322999.920    21322998.780          49.500
        47.250
 122990403.892 7  95836686.25245  23404295.980    23404295.200          43.000
        35.750
 120989248.449 7  94277381.16146  23023481.260    23023483.840          44.000
        39.500
 127473535.298 6  99330043.15646  24257406.440    24257410.540          40.250
        37.250
 110323956.862 8  85966735.49048  20993943.980    20993942.860          48.500
        48.500
 117223476.669 7  91342987.04947  22306873.420    22306873.460          46.750
        43.000
 127452310.943 6  99313490.72145  24253369.420    24253368.340          40.250
        32.250
 14  1  8  3 29  0.0000000  0  8G06G31G16G25G27G21G29G18
 121766826.573 6  94883235.56446  23171455.660    23171457.260          41.750
        37.500
 112107295.528 8  87356336.32547  21333309.480    21333308.400          49.750
        47.250
 122903323.965 7  95768831.77046  23387725.120    23387724.480          43.500
        36.250
 121070240.396 7  94340491.74746  23038893.420    23038896.120          43.500
        39.500
 127395707.606 6  99269398.22946  24242596.640    24242600.260          41.000
        38.250
 110317165.549 8  85961443.56448  20992651.600    20992650.460          48.250
        48.250
 117294127.357 7  91398039.52747  22320317.840    22320317.840          46.750
        42.500
 127376836.258 6  99254679.31145  24239006.960    24239006.040          41.000
        35.000
 14  1  8  3 29 30.0000000  0  8G06G31G16G25G27G21G29G18
 121695715.674 6  94827824.50946  23157923.700    23157925.320          41.750
        38.500
 112161949.581 8  87398923.88147  21343709.820    21343708.700          49.750
        47.000
 122816304.180 7  95701024.16845  23371165.760    23371165.240          43.250
        35.750
 121151472.795 7  94403789.68346  23054351.360    23054354.100          44.000
        40.250
 127317994.126 6  99208842.30146  24227808.500    24227811.760          41.500
        38.000
 110310836.555 8  85956511.88848  20991447.180    20991446.040          48.500
        48.000
 117364857.213 7  91453153.69047  22333777.340    22333777.060          46.000
        42.250
 127301379.214 6  99195881.64145  24224647.780    24224647.200          40.250
        33.250
 14  1  8  3 30  0.0000000  0  8G06G31G16G25G27G21G29G18
 121624762.059 7  94772536.00946  23144421.700    23144423.200          42.000
        37.750
 112217078.077 8  87441881.14047  21354200.460    21354199.380          49.750
        47.000
 122729345.514 7  95633264.17046  23354617.940    23354617.400          42.750
        36.000
 121232944.668 7  94467274.24346  23069855.000    23069857.640          44.500
        39.500
 127240394.565 6  99148375.17245  24213042.080    24213044.920          40.750
        35.750
 110304969.910 8  85951940.47848  20990330.780    20990329.580          48.250
        48.250
 117435665.221 7  91508328.74547  22347251.680    22347251.120          46.000
        42.500
 127225942.245 6  99137099.57144  24210292.460    24210291.980          40.500
        28.250
 14  1  8  3 30 30.0000000  0  8G06G31G16G25G27G21G29G18
 121553965.712 7  94717370.06746  23130949.580    23130950.920          42.500
        38.500
 112272678.441 8  87485206.09147  21364780.900    21364779.820          49.500
        47.000
 122642449.637 7  95565553.09846  23338082.200    23338081.580          43.500
        36.000
 121314655.091 7  94530944.67646  23085404.120    23085406.680          44.000
        39.500
 127162908.846 6  99087996.71546  24198296.980    24198299.680          40.250
        38.750
 110299564.753 8  85947728.67948  20989302.220    20989301.000          48.250
        48.250
 117506550.150 7  91563563.74147  22360740.800    22360740.040          46.750
        42.750
 127150527.373 6  99078334.70545  24195941.600    24195940.880          41.250
        30.500
 14  1  8  3 31  0.0000000  0  8G06G31G16G25G27G21G29G18
 121483328.027 7  94662327.73546  23117507.760    23117508.980          43.000
        38.000
 112328750.348 8  87528898.46747  21375451.020    21375449.960          49.500
        47.000
 122555618.852 7  95497892.73146  23321558.860    23321558.080          43.750
        36.750
 121396604.697 7  94594801.50146  23100998.660    23101001.260          44.000
        39.250
 127085538.325 6  99027708.03246  24183573.680    24183576.580          40.500
        36.250
 110294621.691 8  85943876.94448  20988361.600    20988360.360          48.250
        48.000
 117577512.431 7  91618859.00847  22374244.720    22374243.880          46.750
        43.750
 127075138.618 6  99019590.28645  24181595.640    24181594.780          40.750
        30.500
 14  1  8  3 31 30.0000000  0  8G06G31G16G25G27G21G29G18
 121412847.244 7  94607407.67846  23104095.900    23104096.960          43.500
        38.250
 112385290.102 8  87572955.41747  21386210.180    21386209.160          49.750
        47.250
 122468853.603 7  95430283.45246  23305047.980    23305047.180          44.000
        37.000
 121478791.137 7  94658842.86546  23116638.260    23116640.900          43.750
        39.750
 127008281.492 6  98967507.93146  24168872.200    24168875.020          41.500
        38.500
 110290138.615 8  85940383.65047  20987508.560    20987507.260          48.500
        47.750
 117648549.218 7  91674212.31547  22387762.660    22387761.980          46.000
        42.250
 126999777.079 6  98960866.98545  24167254.760    24167253.800          40.250
        31.750
 14  1  8  3 32  0.0000000  0  8G06G31G16G25G27G21G29G18
 121342525.862 7  94552611.82446  23090714.340    23090715.320          43.500
        37.750
 112442297.917 8  87617377.07247  21397058.420    21397057.360          49.500
        47.000
 122382157.289 7  95362727.87946  23288550.260    23288549.440          44.250
        36.500
 121561215.937 7  94723069.98246  23132323.180    23132325.920          43.750
        39.250
 126931140.614 6  98907398.18146  24154192.800    24154195.620          41.000
        38.000
 110286118.374 8  85937250.99948  20986743.540    20986742.280          48.250
        48.500
 117719662.817 7  91729625.49547  22401295.060    22401294.580          46.000
        42.250
 126924447.347 6  98902168.54145  24152919.800    24152919.120          40.750
        34.000
 14  1  8  3 32 30.0000000  0  8G06G31G16G25G27G21G29G18
 121272361.669 7  94497938.46646  23077362.560    23077363.360          43.500
        38.000
 112499769.917 8  87662160.43347  21407994.980    21407993.940          49.750
        47.000
 122295529.109 7  95295225.40946  23272065.560    23272064.600          44.750
        37.500
 121643876.418 7  94787480.71846  23148052.880    23148055.800          43.250
        40.000
 126854113.913 7  98847377.42946  24139535.140    24139537.820          42.250
        36.750
 110282557.643 8  85934476.41248  20986065.940    20986064.740          48.250
        48.500
 117790850.171 7  91785096.16447  22414841.600    22414841.020          46.500
        42.500
 126849150.282 6  98843495.48745  24138591.100    24138590.780          40.750
        35.000
 14  1  8  3 33  0.0000000  0  8G06G31G16G25G27G21G29G18
 121202353.575 7  94443386.73746  23064040.440    23064041.000          43.500
        38.000
 112557702.792 8  87707302.92847  21419019.240    21419018.240          49.750
        46.750
 122208969.610 7  95227776.44546  23255593.900    23255592.780          43.750
        39.000
 121726770.590 7  94852073.56146  23163827.040    23163830.100          43.000
        39.750
 126777200.070 6  98787444.59246  24124898.940    24124901.380          40.750
        37.750
 110279454.416 8  85932058.31248  20985475.400    20985474.200          48.250
        48.000
 117862108.980 7  91840622.50947  22428401.720    22428401.180          46.500
        43.000
 126773887.307 6  98784849.02945  24124269.080    24124268.880          41.500
        33.750
 14  1  8  3 33 30.0000000  0  8G06G31G16G25G27G21G29G18
 121132505.364 7  94388959.58046  23050748.620    23050749.140          43.250
        37.250
 112616097.828 8  87752805.54247  21430131.400    21430130.440          49.500
        46.750
 122122483.839 7  95160384.97646  23239136.160    23239135.120          44.000
        39.000
 121809901.231 7  94916850.66546  23179646.260    23179649.240          44.000
        39.750
 126700402.780 6  98727602.57246  24110284.940    24110287.260          41.750
        39.000
 110276812.802 8  85929999.91848  20984972.700    20984971.480          48.250
        48.250
 117933442.095 7  91896206.72047  22441976.080    22441975.560          46.750
        42.750
 126698664.509 6  98726233.89044  24109954.620    24109954.560          40.500
        27.750
 14  1  8  3 34  0.0000000  0  8G06G31G16G25G27G21G29G18
 121062813.738 7  94334654.44246  23037486.680    23037487.200          43.250
        39.250
 112674950.282 8  87798664.58047  21441330.680    21441329.700          49.500
        46.750
 122036070.170 7  95093049.65146  23222692.220    23222691.260          44.000
        39.250
 121893264.523 7  94981809.04446  23195509.840    23195512.680          43.750
        38.750
 126623719.022 7  98667849.04746  24095692.700    24095694.800          42.750
        37.500
 110274629.200 8  85928298.41948  20984557.200    20984555.920          48.250
        48.500
 118004845.523 7  91951845.71647  22455563.840    22455563.260          46.500
        42.750
 126623481.575 6  98667649.78745  24095647.860    24095647.680          41.750
        33.250
 14  1  8  3 34 30.0000000  0  8G06G31G16G25G27G21G29G18
 120993280.181 7  94280472.47146  23024254.760    23024255.320          43.000
        36.750
 112734258.877 8  87844879.05847  21452616.740    21452615.680          49.500
        46.500
 121949731.282 7  95025772.61646  23206262.500    23206261.640          44.000
        38.500
 121976861.141 7  95046949.24146  23211417.780    23211420.560          43.250
        39.500
 126547150.233 7  98608185.10746  24081122.360    24081124.180          42.000
        36.500
 110272904.135 8  85926954.21648  20984228.940    20984227.580          48.250
        48.250
 118076319.998 7  92007540.09447  22469165.040    22469164.520          46.250
        42.500
 126548342.385 6  98609099.76845  24081349.440    24081349.240          41.500
        33.750
 14  1  8  3 35  0.0000000  0  8G06G31G16G25G27G21G29G18
 120923905.720 7  94226414.45646  23011053.040    23011053.740          43.250
        38.500
 112794022.790 8  87891448.33347  21463989.420    21463988.360          49.500
        46.750
 121863470.014 7  94958556.05446  23189847.520    23189846.740          44.250
        37.750
 122060691.162 7  95112271.32146  23227370.060    23227372.840          42.750
        38.500
 126470697.357 6  98548611.45746  24066573.920    24066575.780          41.000
        37.000
 110271637.806 8  85925967.47248  20983988.000    20983986.620          48.500
        48.250
 118147865.349 7  92063289.71147  22482779.620    22482779.240          45.750
        43.250
 126473250.443 6  98550586.57145  24067060.180    24067059.520          41.750
        32.500
 14  1  8  3 35 30.0000000  0  8G06G31G16G25G27G21G29G18
 120854689.995 7  94172480.16446  22997881.680    22997882.420          43.750
        38.750
 112854239.280 8  87938370.26247  21475448.220    21475447.220          49.500
        46.500
 121777287.194 7  94891400.60346  23173447.500    23173446.720          43.750
        38.500
 122144753.473 7  95177774.41246  23243366.640    23243369.460          43.750
        39.000
 126394360.163 6  98489127.95546  24052047.340    24052049.280          41.250
        36.750
 110270829.565 8  85925337.67648  20983834.220    20983832.840          48.500
        48.250
 118219480.410 7  92119093.65547  22496407.260    22496407.220          45.500
        42.750
 126398208.000 6  98492111.96745  24052780.160    24052779.540          41.250
        34.750
 14  1  8  3 36  0.0000000  0  8G06G31G16G25G27G21G29G18
 120785631.997 7  94118668.74346  22984740.360    22984741.300          44.000
        37.750
 112914905.323 8  87985642.49347  21486992.600    21486991.680          49.250
        46.750
 121691183.579 7  94824306.90046  23157062.480    23157061.640          43.750
        36.250
 122229046.273 7  95243457.08946  23259407.120    23259409.940          43.250
        38.500
 126318137.598 6  98429733.76745  24037542.600    24037544.380          40.750
        35.750
 110270477.155 8  85925063.07948  20983767.180    20983765.820          48.250
        48.500
 118291163.371 7  92174950.49447  22510047.800    22510048.180          45.750
        42.500
 126323216.768 6  98433677.24445  24038509.820    24038509.080          41.000
        31.750
 14  1  8  3 36 30.0000000  0  8G06G31G16G25G27G21G29G18
 120716733.579 7  94064981.68346  22971629.500    22971630.540          43.750
        38.750
 112976020.492 8  88033264.69047  21498622.440    21498621.540          49.500
        46.500
 121605162.348 7  94757277.39445  23140693.060    23140692.180          43.000
        35.750
 122313570.702 7  95309320.27046  23275491.640    23275494.480          44.250
        39.000
 126242031.730 6  98370430.53746  24023059.860    24023061.760          40.750
        36.500
 110270583.385 8  85925145.86248  20983787.380    20983786.040          48.250
        48.250
 118362916.085 7  92230861.67747  22523701.820    22523702.380          46.500
        42.500
 126248281.379 6  98375286.04845  24024249.960    24024249.120          40.750
        33.000
 14  1  8  3 37  0.0000000  0  8G06G31G16G25G27G21G29G18
 120647992.988 7  94011417.58846  22958548.600    22958549.780          44.500
        38.750
 113037580.888 8  88081233.82347  21510337.020    21510336.080          49.250
        46.500
 121519222.975 7  94690311.66145  23124339.160    23124338.260          43.500
        35.750
 122398324.067 7  95375361.83446  23291619.700    23291622.540          43.750
        37.000
 126166040.638 6  98311216.73346  24008598.920    24008601.060          40.750
        38.500
 110271144.973 8  85925583.46548  20983894.220    20983892.900          48.250
        48.250
 118434735.297 7  92286824.69147  22537368.580    22537369.300          45.750
        43.500
 126173402.397 6  98316938.78545  24010000.880    24010000.180          40.750
        35.000
 14  1  8  3 37 30.0000000  0  8G06G31G16G25G27G21G29G18
 120579408.672 7  93957975.27846  22945497.540    22945498.640          43.750
        39.750
 113099582.819 8  88129547.00047  21522135.640    21522134.660          49.250
        46.750
 121433365.638 7  94623409.85446  23108000.960    23108000.080          44.000
        37.000
 122483303.978 7  95441579.92346  23307790.860    23307793.600          43.750
        38.500
 126090162.855 6  98252091.21146  23994159.720    23994161.940          40.750
        37.750
 110272159.257 8  85926373.81848  20984087.240    20984085.880          48.500
        48.250
 118506618.517 7  92342837.56747  22551047.500    22551048.320          46.000
        42.250
 126098581.028 6  98258636.42445  23995762.860    23995762.160          41.000
        32.750
 14  1  8  3 38  0.0000000  0  8G06G31G16G25G27G21G29G18
 120510983.735 7  93904657.15346  22932476.700    22932477.700          43.750
        39.500
 113162026.949 8  88178204.74647  21534018.280    21534017.400          49.000
        46.500
 121347595.553 7  94556576.02046  23091679.540    23091678.580          45.250
        36.750
 122568512.644 7  95507976.26946  23324005.460    23324008.180          43.250
        38.500
 126014401.448 6  98193056.38346  23979742.600    23979744.920          41.250
        37.500
 110273628.883 8  85927518.99048  20984366.900    20984365.480          48.250
        48.000
 118578568.384 7  92398902.38047  22564739.240    22564739.920          46.000
        43.000
 126023822.925 6  98200383.35545  23981536.860    23981536.280          40.500
        31.500
 14  1  8  3 38 30.0000000  0  8G06G31G16G25G27G21G29G18
 120442715.354 7  93851461.03546  22919485.660    22919486.660          44.250
        38.500
 113224908.586 8  88227203.41847  21545984.160    21545983.400          49.000
        46.250
 121261911.057 7  94489808.85946  23075374.540    23075373.420          45.500
        37.250
 122653946.704 7  95574548.25246  23340262.920    23340265.700          43.250
        37.000
 125938753.843 6  98134110.23446  23965347.440    23965349.580          41.500
        38.000
 110275551.175 8  85929016.88648  20984732.720    20984731.240          48.250
        48.500
 118650581.611 7  92455016.57547  22578443.060    22578443.580          46.000
        42.500
 125949128.145 6  98142179.63545  23967322.880    23967322.240          40.750
        34.250
 14  1  8  3 39  0.0000000  0  8G06G31G16G25G27G21G29G18
 120374605.433 7  93798388.37946  22906524.700    22906525.740          44.000
        38.000
 113288227.154 8  88276542.55047  21558033.220    21558032.540          49.250
        46.500
 121176315.717 7  94423111.20546  23059086.540    23059085.140          46.000
        37.000
 122739606.953 7  95641296.48446  23356563.540    23356566.240          43.250
        37.750
 125863221.766 7  98075254.10446  23950974.340    23950976.260          42.500
        38.750
 110277927.074 8  85930868.23948  20985184.820    20985183.340          48.250
        48.500
 118722658.968 7  92511180.73147  22592159.180    22592159.500          46.250
        42.750
 125874501.087 6  98084028.68845  23953121.700    23953121.360          40.500
        32.750
 14  1  8  3 39 30.0000000  0  8G06G31G16G25G27G21G29G18
 120306653.379 7  93745438.75746  22893593.800    22893594.860          43.750
        38.000
 113351979.639 8  88326219.79747  21570164.940    21570164.200          49.250
        46.250
 121090810.415 7  94356483.69246  23042815.580    23042813.920          45.250
        36.000
 122825491.864 7  95708219.75846  23372907.040    23372909.580          43.500
        36.750
 125787804.560 7  98016487.49046  23936623.220    23936624.940          42.500
        38.250
 110280755.150 8  85933071.94548  20985722.940    20985721.500          48.250
        48.250
 118794799.002 7  92567393.73447  22605887.240    22605887.360          46.500
        42.500
 125799943.374 6  98025931.79645  23938933.740    23938933.600          40.750
        34.000
