     2.11           OBSERVATION DATA    G (GPS)             RINEX VERSION / TYPE
teqc  2015Nov6      RinexTools-CRAAG    20161009 22:22:45UTCPGM / RUN BY / DATE
Linux2.4.20-8|i386|gcc|Win32-MinGW32|=                      COMMENT
BIT 2 OF LLI FLAGS DATA COLLECTED UNDER A/S CONDITION       COMMENT
ABZH                                                        MARKER NAME
ABZH                                                        MARKER NUMBER
-Unknown-           C.R.A.A.G.                              OBSERVER / AGENCY
462405              LEICA GRX1200PRO    8.20/2.127          REC # / TYPE / VERS
                    LEIAT504        NONE                    ANT # / TYPE
  5106717.8077   270605.9299  3799529.1809                  APPROX POSITION XYZ
        0.0770        0.0000        0.0000                  ANTENNA: DELTA H/E/N
     1     1                                                WAVELENGTH FACT L1/2
     4    C1    L1    P2    L2                              # / TYPES OF OBSERV
    30.0000                                                 INTERVAL
SPIDER                                                      COMMENT
Made by Spider v4.0.0                                       COMMENT
Project creator:                                            COMMENT
                                                            COMMENT
 SNR is mapped to RINEX snr flag value [0-9]                COMMENT
  L1 & L2: min(max(int(snr_dBHz/6), 0), 9)                  COMMENT
teqc edited: all GLONASS satellites excluded                COMMENT
  2014     1     8     0     0    0.0000000     GPS         TIME OF FIRST OBS
                                                            END OF HEADER
 14  1  8  0  0  0.0000000  0  6G02G24G25G14G29G12
  23263402.680   122250006.508 7  23263400.700    95259733.03446
  21993799.060   115578254.842 7  21993801.960    90061018.95047
  20779212.380   109195550.130 8  20779214.420    85087489.78448
  21691936.800   113991890.603 7  21691936.020    88824860.31947
  21147033.060   111128470.703 8  21147033.060    86593631.36647
  21022882.640   110476087.031 8  21022881.980    86085305.63647
 14  1  8  0  0 30.0000000  0  6G02G24G25G14G29G12
  23258531.800   122224409.062 7  23258529.540    95239787.00546
  22007699.340   115651301.138 7  22007702.180    90117938.13447
  20775369.140   109175353.647 8  20775371.200    85071752.25948
  21689877.980   113981071.299 7  21689877.200    88816429.68147
  21133086.620   111055181.083 8  21133086.580    86536522.59547
  21030849.960   110517955.512 8  21030849.200    86117930.42647
 14  1  8  0  1  0.0000000  0  6G02G24G25G14G29G12
  23253745.100   122199254.192 7  23253742.560    95220185.81846
  22021663.200   115724681.389 7  22021665.900    90175117.51947
  20771572.300   109155400.755 8  20771574.280    85056204.56348
  21687933.060   113970850.852 7  21687932.380    88808465.70247
  21119223.560   110982329.822 8  21119223.420    86479755.39147
  21038852.280   110560008.016 8  21038851.520    86150698.60147
 14  1  8  0  1 30.0000000  0  7G02G31G24G25G14G29G12
  23249040.580   122174531.053 7  23249037.920    95200921.04246
  24619490.100   129376292.414 6  24619490.840   100812697.53945
  22035688.140   115798382.276 7  22035690.680    90232546.78047
  20767819.420   109135678.841 8  20767821.320    85040836.84648
  21686099.820   113961217.347 7  21686099.160    88800959.06747
  21105441.840   110909906.092 8  21105441.580    86423321.33747
  21046887.220   110602231.577 8  21046886.400    86183600.05447
 14  1  8  0  2  0.0000000  0  7G02G31G24G25G14G29G12
  23244423.780   122150269.408 7  23244421.120    95182015.88146
  24601491.400   129281709.143 6  24601491.620   100738996.29845
  22049779.400   115872431.738 7  22049781.880    90290247.64947
  20764115.760   109116215.877 8  20764117.680    85025670.89848
  21684383.780   113952199.388 7  21684383.160    88793932.07847
  21091747.180   110837939.934 8  21091746.820    86367243.82747
  21054960.020   110644653.857 8  21054959.020    86216656.36247
 14  1  8  0  2 30.0000000  0  7G02G31G24G25G14G29G12
  23239883.600   122126411.321 7  23239881.180    95163425.16046
  24583485.800   129187088.714 6  24583485.300   100665266.14045
  22063925.340   115946769.015 7  22063927.860    90348172.78447
  20760449.960   109096951.946 8  20760451.860    85010660.05748
  21682773.460   113943737.367 7  21682772.860    88787338.28747
  21078128.460   110766373.128 8  21078128.040    86311477.50347
  21063059.120   110687214.282 8  21063057.840    86249820.30947
 14  1  8  0  3  0.0000000  0  7G02G31G24G25G14G29G12
  23235426.760   122102991.446 7  23235424.500    95145175.92346
  24565479.740   129092466.101 6  24565478.460   100591534.27145
  22078132.180   116021426.511 7  22078134.700    90406347.44347
  20756828.340   109077920.137 8  20756830.120    84995830.08248
  21681275.400   113935865.072 7  21681274.760    88781204.03747
  21064592.340   110695240.720 8  21064591.980    86256049.66447
  21071190.660   110729945.169 8  21071189.220    86283117.10248
 14  1  8  0  3 30.0000000  0  7G02G31G24G25G14G29G12
  23231053.200   122080008.601 7  23231050.960    95127267.22946
  24547473.080   128997839.889 6  24547471.260   100517799.55045
  22092399.260   116096400.811 7  22092401.840    90464768.97047
  20753250.340   109059117.362 8  20753252.000    84981178.58048
  21679888.980   113928579.501 7  21679888.300    88775526.96547
  21051138.600   110624541.499 8  21051138.380    86200959.37347
  21079353.900   110772843.537 8  21079352.640    86316544.39247
 14  1  8  0  4  0.0000000  0  7G02G31G24G25G14G29G12
  23226763.800   122057467.697 7  23226761.440    95109702.90446
  24529466.500   128903214.735 6  24529464.760   100444065.68445
  22106727.100   116171694.565 7  22106729.740    90523439.42547
  20749716.480   109040546.758 8  20749718.200    84966707.98948
  21678614.900   113921884.352 7  21678614.240    88770309.96647
  21037768.200   110554280.369 8  21037768.200    86146210.46147
  21087549.480   110815911.987 8  21087548.360    86350104.20047
 14  1  8  0  4 30.0000000  0  7G02G31G24G25G14G29G12
  23222558.540   122035369.248 7  23222556.180    95092483.34646
  24511460.180   128808591.074 6  24511458.780   100370332.92745
  22121115.340   116247305.915 7  22121118.080    90582357.35647
  20746226.540   109022207.123 8  20746228.360    84952417.37548
  21677453.000   113915778.498 7  21677452.320    88765552.15147
  21024481.320   110484457.832 8  21024481.460    86091803.28048
  21095777.160   110859148.708 8  21095775.980    86383795.14847
 14  1  8  0  5  0.0000000  0  7G02G31G24G25G14G29G12
  23218437.480   122013712.918 7  23218435.120    95075608.30246
  24493454.100   128713969.042 6  24493453.100   100296601.44446
  22135563.660   116323232.396 7  22135566.400    90641520.83447
  20742780.140   109004096.636 8  20742782.080    84938305.32448
  21676403.060   113910261.055 7  21676402.480    88761252.84347
  21011278.100   110415074.164 8  21011278.220    86037738.09247
  21104036.460   110902551.294 8  21104035.260    86417615.32848
 14  1  8  0  5 30.0000000  0  7G02G31G24G25G14G29G12
  23214400.840   121992500.022 7  23214398.480    95059078.78946
  24475448.620   128619349.596 6  24475447.820   100222872.00846
  22150071.780   116399472.661 7  22150074.340    90700928.82847
  20739377.260   108986214.568 8  20739379.240    84924371.24248
  21675465.020   113905331.343 7  21675464.440    88757411.49247
  20998158.600   110346130.151 8  20998158.600    85984015.50947
  21112327.060   110946118.720 8  21112326.020    86451563.96447
 14  1  8  0  6  0.0000000  0  7G02G31G24G25G14G29G12
  23210448.700   121971731.194 7  23210446.460    95042895.30146
  24457443.920   128524733.502 6  24457443.020   100149145.21245
  22164639.420   116476025.419 7  22164641.820    90760580.32847
  20736017.740   108968560.019 8  20736019.720    84910614.45548
  21674638.560   113900988.248 7  21674637.960    88754027.25847
  20985122.880   110277626.546 8  20985122.780    85930636.08547
  21120648.720   110989849.354 8  21120647.820    86485639.77547
 14  1  8  0  6 30.0000000  0  7G02G31G24G25G14G29G12
  23206581.860   121951410.610 7  23206579.660    95027061.08446
  24439440.760   128430124.965 6  24439439.640   100075424.26845
  22179266.740   116552892.100 7  22179269.140    90820476.42747
  20732702.020   108951135.440 8  20732703.880    84897036.86548
  21673924.300   113897235.172 7  21673923.860    88751102.78847
  20972171.720   110209567.476 8  20972171.520    85877603.06147
  21129001.960   111033745.711 8  21129001.080    86519844.72047
 14  1  8  0  7  0.0000000  0  7G02G31G24G25G14G29G12
  23202800.160   121931537.288 7  23202797.800    95011575.39146
  24421438.920   128335523.569 6  24421437.640   100001708.92345
  22193953.200   116630069.987 7  22193955.700    90880615.02547
  20729429.560   108933938.329 8  20729431.340    84883636.52148
  21673321.820   113894069.318 7  21673321.420    88748635.88747
  20959304.960   110141952.269 8  20959304.680    85824915.89448
  21137386.140   111077804.835 8  21137385.120    86554176.49247
 14  1  8  0  7 30.0000000  0  7G02G31G24G25G14G29G12
  23199104.440   121912115.618 7  23199101.840    94996441.65046
  24403439.160   128240934.042 6  24403437.900    99928002.80045
  22208699.200   116707560.879 7  22208701.840    90940997.52947
  20726200.900   108916971.483 8  20726202.580    84870415.59848
  21672831.840   113891494.311 7  21672831.460    88746629.38447
  20946523.500   110074785.483 8  20946523.220    85772578.15448
  21145801.660   111122028.707 8  21145800.600    86588636.64847
 14  1  8  0  8  0.0000000  0  7G02G31G24G25G14G29G12
  23195494.740   121893146.169 7  23195492.060    94981660.27646
  24385441.580   128146356.620 6  24385440.340    99854306.09245
  22223504.380   116785363.059 7  22223507.180    91001622.58947
  20723015.840   108900233.882 8  20723017.480    84857373.31748
  21672454.040   113889508.751 7  21672453.620    88745082.18447
  20933827.560   110008067.996 8  20933827.280    85720590.50748
  21154248.220   111166416.174 8  21154247.380    86623224.26447
 14  1  8  0  8 30.0000000  0  7G02G31G24G25G14G29G12
  23191970.700   121874627.705 7  23191968.200    94967230.32746
  24367446.200   128051790.468 6  24367444.920    99780618.18945
  22238368.240   116863473.548 7  22238371.180    91062487.89647
  20719873.840   108883722.650 8  20719875.520    84844507.41848
  21672188.140   113888110.562 7  21672187.560    88743992.67447
  20921216.860   109941798.315 8  20921216.600    85668951.78248
  21162725.320   111210963.866 8  21162724.560    86657936.74947
 14  1  8  0  9  0.0000000  0  7G02G31G24G25G14G29G12
  23188532.660   121856561.632 7  23188530.480    94953152.88146
  24349453.300   127957237.219 7  24349451.880    99706940.35545
  22253290.580   116941890.796 7  22253293.580    91123592.23647
  20716774.860   108867437.610 8  20716776.620    84831817.77748
  21672033.780   113887298.757 7  21672033.100    88743360.09247
  20908691.620   109875977.814 8  20908691.420    85617663.09248
  21171232.840   111255671.325 8  21171232.000    86692773.73047
 14  1  8  0  9 30.0000000  0  7G02G31G24G25G14G29G12
  23185181.100   121838949.993 7  23185179.160    94939429.53646
  24331463.340   127862699.506 7  24331462.000    99633274.61746
  22268271.480   117020615.439 7  22268274.460    91184936.08547
  20713719.060   108851379.473 8  20713720.880    84819304.96348
  21671991.180   113887074.438 7  21671990.380    88743185.30047
  20896252.220   109810608.764 8  20896252.100    85566726.17248
  21179770.700   111300538.478 8  21179769.800    86727735.14347
 14  1  8  0 10  0.0000000  0  7G02G31G24G25G14G29G12
  23181916.560   121821794.606 7  23181914.520    94926061.71346
  24313476.660   127768179.102 7  24313475.400    99559622.38946
  22283310.680   117099646.516 7  22283313.560    91246518.73947
  20710706.400   108835548.368 8  20710708.340    84806969.04348
  21672060.360   113887438.112 7  21672059.560    88743468.67847
  20883899.140   109745693.553 8  20883899.140    85516142.89948
  21188339.040   111345565.540 8  21188338.100    86762821.17147
 14  1  8  0 10 30.0000000  0  7G02G31G24G25G14G29G12
  23178739.220   121805097.107 7  23178736.900    94913050.69746
  24295493.660   127673678.059 7  24295492.480    99485985.22346
  22298408.060   117178983.763 7  22298410.840    91308339.95647
  20707737.040   108819944.578 8  20707739.000    84794810.24448
  21672241.520   113888389.962 7  21672240.700    88744210.36547
  20871632.720   109681233.399 8  20871632.780    85465914.23448
  21196937.760   111390751.691 8  21196936.720    86798031.15247
 14  1  8  0 11  0.0000000  0  7G02G31G24G25G14G29G12
  23175649.160   121788858.293 7  23175646.580    94900397.08446
  24277514.560   127579197.524 7  24277513.340    99412364.04946
  22313563.360   117258625.423 7  22313566.180    91370398.37847
  20704810.880   108804567.469 8  20704812.780    84782828.09248
  21672534.440   113889929.107 7  21672533.560    88745409.69347
  20859453.140   109617229.363 8  20859453.200    85416040.97848
  21205566.580   111436096.288 8  21205565.480    86833364.59947
 14  1  8  0 11 30.0000000  0  7G02G31G24G25G14G29G12
  23172646.660   121773080.154 7  23172644.060    94888102.43346
  24259539.740   127484739.896 7  24259538.360    99338760.72546
  22328776.480   117338570.924 7  22328779.240    91432693.56147
  20701927.980   108789417.489 8  20701929.880    84771022.93648
  21672939.140   113892056.132 7  21672938.380    88747067.09747
  20847360.760   109553683.275 8  20847360.720    85366524.57248
  21214225.620   111481599.698 8  21214224.320    86868821.80547
 14  1  8  0 12  0.0000000  0  7G02G31G24G25G14G29G12
  23169731.860   121757762.816 7  23169729.380    94876166.86946
  24241569.280   127390305.539 7  24241567.940    99265175.53346
  22344047.120   117418818.878 7  22344049.780    91495224.43347
  20699087.980   108774493.188 8  20699089.900    84759393.60148
  21673455.460   113894769.523 7  21673454.800    88749181.41747
  20835355.560   109490595.416 8  20835355.480    85317365.21348
  21222914.440   111527259.466 8  21222913.040    86904400.83747
 14  1  8  0 12 30.0000000  0  7G02G31G24G25G14G29G12
  23166904.980   121742907.527 7  23166902.680    94864591.34046
  24223603.560   127295896.021 6  24223602.380    99191609.68746
  22359375.060   117499367.952 7  22359377.700    91557989.93847
  20696290.820   108759794.341 8  20696292.720    84747939.95848
  21674083.320   113898068.983 7  21674082.740    88751752.42147
  20823437.740   109427966.993 8  20823437.740    85268563.86548
  21231632.840   111573075.057 8  21231631.580    86940101.27747
 14  1  8  0 13  0.0000000  0  7G02G31G24G25G14G29G12
  23164165.900   121728513.914 7  23164163.780    94853375.52546
  24205642.760   127201512.084 6  24205641.800    99118063.78646
  22374759.920   117580215.918 7  22374762.580    91620988.34747
  20693536.340   108745319.567 8  20693538.160    84736660.91948
  21674822.420   113901953.030 7  21674821.840    88754778.94047
  20811607.340   109365798.113 8  20811607.480    85220120.58448
  21240380.640   111619045.169 8  21240379.560    86975922.13147
 14  1  8  0 13 30.0000000  0  7G02G31G24G25G14G29G12
  23161515.040   121714583.538 7  23161512.860    94842520.69246
  24187687.300   127107155.334 7  24187686.380    99044539.08546
  22390201.520   117661362.168 7  22390204.180    91684219.18047
  20690824.540   108731068.909 8  20690826.360    84725556.51748
  21675672.640   113906421.413 7  21675672.080    88758260.78347
  20799864.620   109304090.071 8  20799864.880    85172036.40048
  21249157.880   111665169.538 8  21249156.840    87011863.20047
 14  1  8  0 14  0.0000000  0  7G02G31G24G25G14G29G12
  23158952.720   121701118.200 7  23158950.400    94832028.24846
  24169737.600   127012828.217 7  24169736.580    98971037.45045
  22405699.800   117742806.138 7  22405702.500    91747682.00247
  20688155.480   108717042.875 8  20688157.320    84714627.13048
  21676634.220   113911474.500 7  21676633.620    88762198.23747
  20788210.020   109242844.990 8  20788210.360    85124312.96248
  21257964.420   111711448.023 8  21257963.460    87047924.36247
 14  1  8  0 14 30.0000000  0  7G02G31G24G25G14G29G12
  23156479.260   121688119.303 7  23156476.760    94821899.25846
  24151793.960   126918532.612 6  24151792.760    98897560.35546
  22421254.580   117824547.226 7  22421257.380    91811376.33947
  20685529.180   108703241.652 8  20685531.080    84703872.94448
  21677707.100   113917112.339 7  21677706.360    88766591.35047
  20776643.980   109182064.813 8  20776644.260    85076951.79348
  21266800.020   111757879.848 8  21266799.180    87084104.98047
 14  1  8  0 15  0.0000000  0  7G02G31G24G25G14G29G12
  23154094.860   121675589.120 7  23154092.380    94812135.48546
  24133856.780   126824271.509 6  24133855.560    98824110.14746
  22436865.940   117906585.803 7  22436868.840    91875302.47847
  20682945.880   108689666.069 8  20682947.760    84693294.57048
  21678891.340   113923335.580 7  21678890.600    88771440.63147
  20765166.840   109121751.405 8  20765166.960    85029954.33948
  21275665.040   111804466.316 8  21275664.220    87120406.11747
 14  1  8  0 15 30.0000000  0  7G02G31G24G25G14G29G12
  23151800.020   121663530.456 7  23151797.660    94802739.14846
  24115926.640   126730048.216 6  24115925.660    98750689.41145
  22452533.900   117988922.024 7  22452536.960    91939460.56847
  20680405.820   108676317.756 8  20680407.640    84682893.29548
  21680187.240   113930145.470 7  21680186.520    88776747.02547
  20753779.100   109061907.768 8  20753779.040    84983322.93748
  21284559.740   111851208.487 8  21284558.880    87156828.59147
 14  1  8  0 16  0.0000000  0  7G02G31G24G25G14G29G12
  23149593.760   121651937.853 7  23149591.720    94793705.95146
  24098002.900   126635858.119 7  24098001.860    98677294.53746
  22468257.220   118071548.883 7  22468260.400    92003845.12847
  20677907.620   108663189.955 8  20677909.460    84672663.85448
  21681593.380   113937534.978 7  21681592.700    88782505.08047
  20742479.680   109002528.589 8  20742479.480    84937053.46448
  21293482.580   111898098.446 8  21293481.700    87193366.21347
 14  1  8  0 16 30.0000000  0  7G02G31G24G25G14G29G12
  23147476.780   121640814.106 7  23147474.980    94785038.09646
  24080086.120   126541704.211 7  24080084.960    98603927.86346
  22484036.020   118154466.614 7  22484039.160    92068456.33647
  20675451.600   108650283.985 8  20675453.520    84662607.26448
  21683110.040   113945505.011 7  21683109.360    88788715.48647
  20731269.080   108943616.601 8  20731268.900    84891148.03148
  21302433.860   111945137.827 8  21302432.980    87230020.26147
 14  1  8  0 17  0.0000000  0  7G02G31G24G25G14G29G12
  23145449.880   121630162.909 7  23145448.060    94776738.47246
  24062177.120   126447591.258 7  24062175.820    98530593.11946
  22499870.500   118237676.890 7  22499873.540    92133295.50647
  20673038.400   108637602.769 8  20673040.380    84652725.80448
  21684737.600   113954058.215 7  21684736.980    88795380.30547
  20720148.100   108885175.730 8  20720147.980    84845609.70248
  21311414.160   111992329.617 8  21311413.220    87266793.06047
 14  1  8  0 17 30.0000000  0  7G02G31G24G25G14G29G12
  23143513.200   121619985.285 7  23143511.140    94768807.85846
  24044276.220   126353521.015 7  24044274.620    98457291.62746
  22515760.460   118321178.815 7  22515763.420    92198361.93747
  20670667.940   108625145.774 8  20670669.900    84643019.06448
  21686475.980   113963193.653 7  21686475.480    88802498.82647
  20709116.940   108827206.972 8  20709116.840    84800439.25348
  21320423.400   112039672.720 8  21320422.320    87303683.77947
 14  1  8  0 18  0.0000000  0  7G02G31G24G25G14G29G12
  23141666.660   121610281.050 7  23141664.400    94761246.15346
  24026383.440   126259493.638 7  24026381.780    98384023.54946
  22531705.360   118404969.499 7  22531708.240    92263653.37547
  20668339.900   108612911.854 8  20668341.860    84633486.14648
  21688324.860   113972909.845 7  21688324.440    88810069.88147
  20698175.660   108769710.407 8  20698175.560    84755636.74748
  21329461.020   112087164.856 8  21329459.800    87340690.63047
 14  1  8  0 18 30.0000000  0  7G02G31G24G25G14G29G12
  23139910.300   121601050.995 7  23139907.940    94754053.91546
  24008499.140   126165511.041 7  24008497.520    98310790.39446
  22547705.220   118489048.884 7  22547708.080    92329169.74647
  20666054.200   108600900.855 8  20666056.280    84624126.92848
  21690284.180   113983206.036 7  21690283.800    88818092.87547
  20687324.460   108712687.039 8  20687324.340    84711202.97548
  21338526.980   112134806.088 8  21338525.680    87377813.66647
 14  1  8  0 19  0.0000000  0  7G02G31G24G25G14G29G12
  23138244.220   121592295.399 7  23138241.840    94747231.38346
  23990623.640   126071574.662 7  23990622.100    98237593.22446
  22563759.560   118573414.456 7  22563762.260    92394909.15147
  20663810.840   108589111.924 8  20663812.960    84614940.75848
  21692353.620   113994080.941 7  21692353.320    88826566.82047
  20676563.420   108656137.408 8  20676563.300    84667138.31948
  21347621.040   112182595.401 8  21347619.720    87415052.07647
 14  1  8  0 19 30.0000000  0  7G02G31G24G25G14G29G12
  23136668.800   121584016.553 7  23136666.440    94740780.32246
  23972757.480   125977687.584 7  23972756.100    98164434.46746
  22579868.420   118658066.550 7  22579870.940    92460871.81846
  20661609.940   108577545.904 8  20661612.000    84605928.28348
  21694533.240   114005535.079 7  21694532.980    88835492.11947
  20665892.960   108600063.778 8  20665892.840    84623444.59648
  21356743.200   112230532.996 8  21356741.880    87452406.04847
 14  1  8  0 20  0.0000000  0  7G02G31G24G25G14G29G12
  23135184.600   121576217.040 7  23135182.260    94734702.79046
  23954901.140   125883852.601 7  23954900.020    98091316.30546
  22596031.760   118743005.709 7  22596034.400    92527058.16147
  20659451.700   108566204.634 8  20659453.820    84597090.93248
  21696823.340   114017569.591 7  21696823.080    88844869.65447
  20655313.620   108544468.737 8  20655313.460    84580123.78548
  21365893.920   112278620.546 8  21365892.680    87489876.84647
 14  1  8  0 20 30.0000000  0  7G02G31G24G25G14G29G12
  23133791.240   121568894.461 7  23133788.800    94728996.90646
  23937054.480   125790068.582 7  23937053.560    98018237.87546
  22612248.860   118828227.405 7  22612251.640    92593464.66346
  20657335.600   108555084.566 8  20657337.760    84588425.94648
  21699223.140   114030180.499 7  21699222.840    88854696.32847
  20644824.940   108489350.113 8  20644824.740    84537174.23448
  21375072.440   112326854.023 8  21375071.240    87527461.37147
 14  1  8  0 21  0.0000000  0  7G02G31G24G25G14G29G12
  23132488.680   121562048.421 7  23132485.980    94723662.34246
  23919217.760   125696335.854 7  23919216.700    97945199.37646
  22628519.280   118913729.239 7  22628522.080    92660089.45647
  20655261.420   108544184.275 8  20655263.500    84579932.21048
  21701732.280   114043365.774 7  21701731.860    88864970.56647
  20634426.840   108434707.545 8  20634426.600    84494595.61848
  21384278.280   112375231.649 8  21384277.240    87565158.21247
 14  1  8  0 21 30.0000000  0  7G02G31G24G25G14G29G12
  23131277.580   121555683.052 7  23131274.700    94718702.32946
  23901391.800   125602659.734 7  23901390.640    97872205.01346
  22644843.440   118999513.294 7  22644846.200    92726934.15847
  20653229.700   108533506.907 8  20653231.620    84571612.17548
  21704351.200   114057127.743 7  21704350.600    88875694.15647
  20624120.120   108380545.481 8  20624119.840    84452391.44148
  21393511.980   112423755.430 8  21393511.040    87602968.94247
 14  1  8  0 22  0.0000000  0  7G02G31G24G25G14G29G12
  23130157.500   121549796.989 7  23130154.620    94714115.79946
  23883576.500   125509039.769 7  23883575.300    97799254.39946
  22661220.760   119085576.537 7  22661223.500    92793996.41547
  20651239.880   108523050.130 8  20651241.720    84563464.04248
  21707079.300   114071463.414 7  21707078.600    88886864.79447
  20613904.520   108326862.556 8  20613904.260    84410560.61748
  21402773.160   112472423.908 8  21402772.360    87640892.43847
 14  1  8  0 22 30.0000000  0  7G02G31G24G25G14G29G12
  23129129.040   121544393.223 7  23129126.240    94709905.07246
  23865772.640   125415480.187 7  23865771.360    97726350.84546
  22677651.460   119171919.846 7  22677654.080    92861276.90446
  20649292.400   108512816.119 8  20649294.260    84555489.48448
  21709916.820   114086374.538 7  21709916.080    88898483.84147
  20603780.740   108273662.272 8  20603780.580    84369105.85248
  21412062.320   112521238.899 8  21412061.520    87678930.08347
 14  1  8  0 23  0.0000000  0  7G02G31G24G25G14G29G12
  23128192.220   121539471.052 7  23128189.520    94706069.62846
  23847980.300   125321980.959 7  23847979.020    97653494.29746
  22694134.860   119258540.498 7  22694137.340    92928773.50547
  20647386.960   108502803.156 8  20647388.920    84547687.16548
  21712863.400   114101858.786 7  21712862.620    88910549.47947
  20593748.640   108220943.511 8  20593748.580    84328026.29848
  21421379.020   112570198.018 8  21421378.080    87717080.03647
 14  1  8  0 23 30.0000000  0  7G02G31G24G25G14G29G12
  23127347.920   121535034.523 7  23127345.260    94702612.60946
  23830200.120   125228547.067 6  23830199.200    97580688.68146
  22710671.380   119345440.618 7  22710673.860    92996487.85846
  20645524.200   108493014.134 8  20645526.160    84540059.33948
  21715919.380   114117918.051 7  21715918.580    88923063.18047
  20583809.000   108168710.235 8  20583808.980    84287325.06348
  21430723.640   112619303.676 8  21430722.560    87755344.17947
 14  1  8  0 24  0.0000000  0  7G02G31G24G25G14G29G12
  23126595.260   121531079.241 7  23126592.620    94699530.58346
  23812431.860   125135175.565 6  23812431.160    97507931.66146
  22727259.860   119432613.737 7  22727262.400    93064414.94746
  20643703.080   108483444.044 8  20643705.040    84532602.13448
  21719083.600   114134546.570 7  21719082.900    88936020.45947
  20573961.080   108116958.809 8  20573961.060    84246999.30048
  21440095.200   112668550.715 8  21440093.960    87793718.47747
 14  1  8  0 24 30.0000000  0  7G02G31G24G25G14G29G12
  23125934.680   121527607.733 7  23125932.060    94696825.51246
  23794676.160   125041869.961 6  23794675.640    97435226.00646
  22743900.400   119520060.557 7  22743902.920    93132555.31247
  20641923.940   108474094.540 8  20641925.880    84525316.79848
  21722356.360   114151745.198 7  21722355.720    88949421.97947
  20564205.360   108065691.749 8  20564205.260    84207050.95748
  21449493.880   112717940.524 8  21449492.500    87832204.03147
 14  1  8  0 25  0.0000000  0  7G02G31G24G25G14G29G12
  23125365.780   121524617.471 7  23125362.920    94694495.45046
  23776932.960   124948628.782 7  23776932.400    97362570.54146
  22760592.160   119607776.608 7  22760594.840    93200905.46746
  20640186.080   108464962.142 8  20640188.040    84518200.63848
  21725736.860   114169509.651 7  21725736.260    88963264.39247
  20554541.220   108014906.548 8  20554541.120    84167478.08948
  21458918.780   112767468.671 8  21458917.380    87870797.37447
 14  1  8  0 25 30.0000000  0  7G02G31G24G25G14G29G12
  23124889.220   121522112.871 7  23124886.260    94692543.83246
  23759203.300   124855457.928 7  23759202.580    97289969.86446
  22777335.720   119695764.673 7  22777338.520    93269467.57546
  20638490.260   108456050.719 8  20638492.160    84511256.67848
  21729225.580   114187843.116 7  21729225.040    88977550.20947
  20544969.680   107964608.000 8  20544969.500    84128284.43548
  21468370.920   112817139.791 8  21468369.520    87909502.13547
 14  1  8  0 26  0.0000000  0  7G02G31G24G25G14G29G12
  23124505.200   121520094.499 7  23124502.080    94690971.08346
  23741487.380   124762358.942 7  23741486.380    97217425.18745
  22794130.740   119784023.017 7  22794133.340    93338240.30946
  20636836.480   108447359.881 8  20636838.320    84504484.59848
  21732822.220   114206743.855 7  21732821.660    88992278.03947
  20535490.800   107914796.646 8  20535490.600    84089470.41048
  21477850.040   112866952.693 8  21477848.680    87948317.36547
 14  1  8  0 26 30.0000000  0  7G02G31G24G25G14G29G12
  23124213.660   121518562.178 7  23124210.580    94689777.08546
  23723785.360   124669333.132 7  23723783.980    97144937.56646
  22810976.800   119872549.515 7  22810979.260    93407221.97346
  20635224.500   108438888.779 8  20635226.320    84497883.74048
  21736526.620   114226210.600 7  21736526.020    89007446.92547
  20526104.640   107865472.399 8  20526104.500    84051035.93648
  21487355.700   112916905.746 8  21487354.440    87987241.80047
 14  1  8  0 27  0.0000000  0  7G02G31G24G25G14G29G12
  23124014.180   121517514.145 7  23124011.160    94688960.43646
  23706097.200   124576379.789 7  23706095.320    97072506.36546
  22827873.380   119961340.907 7  22827875.740    93476410.07146
  20633653.780   108430634.955 8  20633655.700    84491452.18448
  21740338.060   114246239.842 7  21740337.500    89023054.11947
  20516810.940   107816633.949 8  20516810.840    84012980.00548
  21496887.580   112966996.829 8  21496886.480    88026273.82847
 14  1  8  0 27 30.0000000  0  7G02G31G24G25G14G29G12
  23123908.240   121516957.810 7  23123905.340    94688526.92846
  23688424.340   124483507.492 7  23688422.140    97000138.33146
  22844821.300   120050402.452 7  22844823.560    93545808.66946
  20632125.620   108422604.938 8  20632127.640    84485195.03648
  21744257.580   114266836.899 7  21744257.040    89039103.76147
  20507611.120   107768288.685 8  20507611.060    83975308.37648
  21506446.820   113017231.646 8  21506445.900    88065417.83247
 14  1  8  0 28  0.0000000  0  7G02G31G24G25G14G29G12
  23123895.480   121516891.121 7  23123892.620    94688474.97946
  23670766.620   124390715.589 7  23670764.340    96927832.96045
  22861819.880   120139730.151 7  22861822.080    93615414.66246
  20630639.660   108414796.097 8  20630641.720    84479110.23348
  21748284.520   114287998.435 7  21748283.980    89055593.25947
  20498504.740   107720434.577 8  20498504.760    83938019.46748
  21516032.960   113067607.785 8  21516032.340    88104671.95447
 14  1  8  0 28 30.0000000  0  7G02G31G24G25G14G29G12
  23123975.500   121517311.674 7  23123972.560    94688802.69746
  23653123.940   124298003.135 7  23653121.780    96855589.46546
  22878868.340   120229320.061 7  22878870.600    93685224.96346
  20629195.260   108407205.385 8  20629197.220    84473195.38948
  21752418.040   114309720.172 7  21752417.480    89072519.27347
  20489491.460   107673069.326 8  20489491.500    83901111.48648
  21525645.380   113118121.790 8  21525645.060    88144033.51847
 14  1  8  0 29  0.0000000  0  7G02G31G24G25G14G29G12
  23124148.680   121518221.870 7  23124145.740    94689511.95946
  23635497.020   124205373.896 7  23635495.220    96783410.86246
  22895966.820   120319172.405 7  22895969.020    93755239.74846
  20627792.620   108399834.436 8  20627794.520    84467451.79248
  21756658.280   114332002.783 7  21756657.720    89089882.32947
  20480571.820   107626195.689 8  20480571.740    83864586.58848
  21535284.240   113168774.418 8  21535284.020    88183503.09847
 14  1  8  0 29 30.0000000  0  7G02G31G24G25G14G29G12
  23124415.280   121519623.388 7  23124412.500    94690604.04746
  23617886.420   124112830.880 7  23617885.040    96711299.44546
  22913115.160   120409287.406 7  22913117.240    93825459.22346
  20626432.000   108392684.563 8  20626433.960    84461880.46548
  21761005.340   114354846.375 7  21761004.720    89107682.51847
  20471746.120   107579815.681 8  20471745.900    83828446.33748
  21544949.880   113219567.052 8  21544949.500    88223081.75847
 14  1  8  0 30  0.0000000  0  7G02G31G24G25G14G29G12
  23124774.980   121521513.892 7  23124772.280    94692077.17346
  23600292.220   124020373.116 7  23600291.120    96639254.45446
  22930312.480   120499660.687 7  22930314.740    93895879.93546
  20625112.880   108385752.564 8  20625114.960    84456478.90548
  21765458.280   114378246.946 7  21765457.640    89125916.72546
  20463013.820   107533926.836 8  20463013.560    83792688.81548
  21554641.680   113270496.704 8  21554640.960    88262767.18647
 14  1  8  0 30 30.0000000  0  7G02G31G24G25G14G29G12
  23125227.880   121523893.903 7  23125225.220    94693931.72746
  23582714.780   123928002.932 7  23582713.760    96567277.69846
  22947558.700   120590290.889 7  22947561.100    93966500.87346
  20623835.220   108379038.631 8  20623837.360    84451247.28748
  21770017.040   114402203.549 7  21770016.440    89144584.19147
  20454375.000   107488529.796 8  20454374.780    83757314.51148
  21564359.420   113321562.716 8  21564358.360    88302558.87447
 14  1  8  0 31  0.0000000  0  7G02G31G24G25G14G29G12
  23125774.320   121526765.075 7  23125771.500    94696169.02346
  23565154.440   123835722.938 7  23565153.540    96495371.24646
  22964853.900   120681178.093 7  22964856.240    94037322.06346
  20622599.240   108372543.581 8  20622601.320    84446186.20348
  21774681.580   114426715.599 7  21774680.960    89163684.48447
  20445830.060   107443626.387 8  20445829.920    83722324.86048
  21574103.120   113372765.832 8  21574101.860    88342457.38747
 14  1  8  0 31 30.0000000  0  7G02G31G24G25G14G29G12
  23126414.040   121530126.921 7  23126411.100    94698788.67146
  23547611.600   123743534.657 7  23547610.780    96423536.24946
  22982197.600   120772319.778 7  22982199.900    94108341.54846
  20621404.780   108366266.620 8  20621406.760    84441295.05848
  21779451.380   114451781.054 7  21779450.800    89183215.99547
  20437379.060   107399216.498 8  20437379.020    83687719.75848
  21583872.560   113424104.431 8  21583871.180    88382461.47647
 14  1  8  0 32  0.0000000  0  7G02G31G24G25G14G29G12
  23127147.280   121533980.644 7  23127144.320    94701791.56446
  23530086.760   123651440.623 7  23530085.920    96351774.67646
  22999589.760   120863715.849 7  22999592.100    94179559.24946
  20620252.020   108360208.460 8  20620253.900    84436574.42048
  21784326.400   114477399.399 7  21784325.820    89203178.32747
  20429022.220   107355301.183 8  20429022.200    83653500.03248
  21593667.980   113475579.710 8  21593666.620    88422572.08347
 14  1  8  0 32 30.0000000  0  7G02G31G24G25G14G29G12
  23127974.380   121538327.126 7  23127971.540    94705178.43546
  23512580.260   123559443.177 7  23512579.440    96280088.38946
  23017030.200   120955365.433 7  23017032.380    94250974.48946
  20619141.040   108354369.758 8  20619142.820    84432024.77448
  21789306.560   114503570.264 7  21789305.940    89223571.19547
  20420759.860   107311882.183 8  20420759.800    83619667.04548
  21603489.340   113527191.644 8  21603487.980    88462789.17347
 14  1  8  0 33  0.0000000  0  7G02G31G24G25G14G29G12
  23128894.940   121543165.053 7  23128892.400    94708948.26346
  23495092.220   123467542.696 7  23495091.360    96208477.63546
  23034518.240   121047265.305 7  23034520.300    94322584.77246
  20618071.380   108348748.444 8  20618073.080    84427644.51548
  21794391.260   114530290.411 7  21794390.700    89244392.07547
  20412591.620   107268957.634 8  20412591.480    83586219.35948
  21613336.140   113578937.776 8  21613334.780    88503110.80747
 14  1  8  0 33 30.0000000  0  7G02G31G24G25G14G29G12
  23129909.780   121548498.820 7  23129907.540    94713104.45946
  23477623.900   123375745.424 7  23477622.920    96136947.30046
  23052054.160   121139418.009 7  23052056.480    94394392.03746
  20617043.880   108343348.611 8  20617045.560    84423436.83748
  21799580.980   114557562.482 7  21799580.460    89265643.02547
  20404518.400   107226532.396 8  20404518.160    83553160.72948
  21623209.260   113630822.005 8  21623207.920    88543540.06447
 14  1  8  0 34  0.0000000  0  7G02G31G24G25G14G29G12
  23131018.120   121554324.323 7  23131016.160    94717643.82146
  23460174.620   123284048.563 7  23460173.580    96065495.21646
  23069637.120   121231817.838 7  23069639.640    94466391.90146
  20616057.580   108338165.672 8  20616059.320    84419398.19848
  21804874.420   114585379.875 7  21804873.940    89287318.90747
  20396539.400   107184602.525 8  20396539.140    83520488.13248
  21633107.740   113682839.331 8  21633106.500    88584073.03747
 14  1  8  0 34 30.0000000  0  7G02G31G24G25G14G29G12
  23132220.360   121560642.408 7  23132218.340    94722566.99346
  23442745.040   123192454.992 7  23442743.940    95994123.62346
  23087266.820   121324463.381 6  23087269.420    94538583.23046
  20615112.580   108333200.003 8  20615114.440    84415528.84548
  21810271.600   114613742.384 7  21810271.120    89309419.54947
  20388654.800   107143168.815 8  20388654.560    83488202.16848
  21643031.620   113734990.164 8  21643030.540    88624710.04247
 14  1  8  0 35  0.0000000  0  7G02G31G24G25G14G29G12
  23133516.800   121567454.665 7  23133514.600    94727875.26646
  23425335.640   123100967.565 7  23425334.420    95922834.73746
  23104943.360   121417354.919 7  23104946.200    94610966.22746
  20614209.280   108328453.082 8  20614211.160    84411829.94548
  21815772.500   114642649.951 7  21815772.080    89331944.92047
  20380864.980   107102233.336 8  20380864.780    83456304.42048
  21652981.140   113787275.455 8  21652980.240    88665451.81447
 14  1  8  0 35 30.0000000  0  7G02G31G24G25G14G29G12
  23134907.240   121574761.201 7  23134904.980    94733568.66646
  23407946.800   123009588.610 7  23407945.420    95851630.35346
  23122666.520   121510491.326 7  23122669.540    94683540.02046
  20613347.640   108323924.847 8  20613349.520    84408301.45748
  21821376.800   114672101.269 7  21821376.460    89354893.98547
  20373170.000   107061796.440 8  20373169.900    83424795.15248
  21662956.340   113839695.248 8  21662955.640    88706298.40147
 14  1  8  0 36  0.0000000  0  7G02G31G24G25G14G29G12
  23136391.300   121582560.362 7  23136389.080    94739645.92546
  23390578.620   122918317.880 7  23390576.960    95780510.30746
  23140435.620   121603868.582 7  23140438.740    94756301.49746
  20612527.140   108319612.893 8  20612528.980    84404941.48248
  21827083.940   114702092.324 7  21827083.560    89378263.63247
  20365569.540   107021856.247 8  20365569.500    83393672.94248
  21672956.600   113892246.796 8  21672956.140    88747247.65247
 14  1  8  0 36 30.0000000  0  7G02G31G24G25G14G29G12
  23137969.200   121590853.452 7  23137967.220    94746108.07246
  23373231.700   122827158.779 7  23373229.660    95709477.22346
  23158250.680   121697486.971 7  23158253.900    94829250.88746
  20611747.940   108315518.461 8  20611749.820    84401751.01448
  21832893.760   114732622.682 7  21832893.360    89402053.51747
  20358063.960   106982414.450 8  20358063.960    83362939.08448
  21682982.060   113944930.820 8  21682981.800    88788300.13347
 14  1  8  0 37  0.0000000  0  7G02G31G24G25G14G29G12
  23139641.520   121599642.372 7  23139639.660    94752956.60546
  23355906.680   122736115.261 7  23355904.540    95638534.24546
  23176111.780   121791346.946 7  23176114.900    94902388.50446
  20611010.500   108311643.337 8  20611012.380    84398731.42348
  21838806.320   114763692.911 7  21838805.820    89426264.06347
  20350653.740   106943473.426 8  20350653.740    83332595.46248
  21693033.100   113997748.556 8  21693032.760    88829456.79647
 14  1  8  0 37 30.0000000  0  7G02G31G24G25G14G29G12
  23141407.760   121608924.315 7  23141405.940    94760189.29846
  23338603.340   122645185.522 7  23338601.280    95567679.90146
  23194017.920   121885443.228 7  23194020.700    94975710.29446
  20610314.220   108307984.256 8  20610316.100    84395880.17648
  21844820.680   114795298.079 7  21844820.140    89450891.45446
  20343338.280   106905030.069 8  20343338.240    83302639.62048
  21703109.060   114050696.990 8  21703108.540    88870715.29847
 14  1  8  0 38  0.0000000  0  7G02G31G24G25G14G29G12
  23143268.980   121618704.546 7  23143267.180    94767810.26946
  23321323.020   122554377.074 7  23321321.140    95496920.08846
  23211969.660   121979780.069 7  23211972.420    95049219.50046
  20609660.020   108304546.570 8  20609661.960    84393201.48248
  21850937.460   114827442.036 7  21850936.860    89475938.67446
  20336118.640   106867090.192 8  20336118.580    83273076.08248
  21713210.720   114103781.031 8  21713210.200    88912079.46847
 14  1  8  0 38 30.0000000  0  7G02G31G24G25G14G29G12
  23145223.900   121628977.541 7  23145222.200    94775815.18846
  23304065.040   122463686.468 7  23304063.400    95426252.08546
  23229965.820   122074350.176 7  23229968.540    95122910.46846
  20609046.840   108301324.269 8  20609048.820    84390690.57648
  21857155.260   114860117.147 7  21857154.640    89501399.78446
  20328993.640   106829648.049 8  20328993.600    83243900.39448
  21723336.880   114156994.229 8  21723336.280    88953544.29447
 14  1  8  0 39  0.0000000  0  7G02G31G24G25G14G29G12
  23147273.060   121639745.800 7  23147271.400    94784206.03146
  23286830.340   122373118.173 7  23286828.900    95355679.39046
  23248006.580   122169154.674 7  23248009.140    95196784.08446
  20608475.140   108298319.944 8  20608477.140    84388349.53548
  21863474.400   114893324.660 7  21863473.740    89527275.75147
  20321963.860   106792706.637 8  20321963.900    83215114.89248
  21733488.020   114210338.809 8  21733487.220    88995111.48347
 14  1  8  0 39 30.0000000  0  7G02G31G24G25G14G29G12
  23149416.500   121651009.285 7  23149414.760    94792982.77946
  23269619.280   122282674.113 7  23269618.060    95285203.51946
  23266091.520   122264191.667 7  23266094.100    95270838.85746
  20607944.840   108295533.304 8  20607946.760    84386178.13348
  21869894.480   114927062.290 7  21869893.840    89553564.80146
  20315029.400   106756266.090 8  20315029.460    83186719.67348
  21743664.140   114263814.738 8  21743663.220    89036781.02047
 14  1  8  0 40  0.0000000  0  7G02G31G24G25G14G29G12
  23151654.260   121662769.161 7  23151652.460    94802146.32646
  23252432.400   122192357.400 7  23252431.320    95214826.89046
  23284220.620   122359460.767 7  23284223.200    95345074.52246
  20607456.140   108292965.501 8  20607458.100    84384177.22248
  21876415.380   114961329.719 7  21876414.780    89580266.68647
  20308190.520   106720327.557 8  20308190.520    83158715.63248
  21753865.380   114317422.685 8  21753864.400    89078553.43347
 14  1  8  0 40 30.0000000  0  7G02G31G24G25G14G29G12
  23153985.940   121675022.451 7  23153984.080    94811694.33246
  23235269.620   122102167.021 7  23235268.620    95144548.65846
  23302393.140   122454957.852 7  23302395.600    95419487.81046
  20607008.600   108290613.592 8  20607010.560    84382344.55548
  21883036.080   114996122.140 7  21883035.640    89607377.64046
  20301446.700   106684888.646 8  20301446.640    83131100.92548
  21764091.080   114371159.590 8  21764089.980    89120426.32847
 14  1  8  0 41  0.0000000  0  7G02G31G24G25G14G29G12
  23156412.080   121687771.724 7  23156410.080    94821628.82746
  23218131.740   122012107.655 7  23218130.900    95074372.56046
  23320609.260   122550683.804 7  23320611.620    95494079.41646
  20606602.660   108288479.932 8  20606604.480    84380681.95248
  21889756.900   115031440.539 7  21889756.520    89634898.46147
  20294798.460   106649951.869 8  20294798.360    83103877.46948
  21774341.560   114425027.319 7  21774340.560    89162401.16747
 14  1  8  0 41 30.0000000  0  7G02G31G24G25G14G29G12
  23158932.000   121701013.318 7  23158929.880    94831946.95646
  23201018.640   121922177.731 7  23201017.800    95004297.28246
  23338867.960   122646633.124 7  23338870.140    95568845.12646
  20606237.460   108286560.806 8  20606239.180    84379186.52448
  21896576.740   115067279.211 7  21896576.440    89662824.68146
  20288245.100   106615513.854 8  20288244.980    83077042.66548
  21784616.080   114479021.266 8  21784615.280    89204474.36947
 14  1  8  0 42  0.0000000  0  7G02G31G24G25G14G29G12
  23161546.520   121714752.174 7  23161544.220    94842652.57346
  23183931.440   121832384.070 7  23183930.560    94934328.18846
  23357169.860   122742809.425 7  23357171.900    95643787.67846
  20605914.060   108284861.112 8  20605915.740    84377862.08748
  21903496.220   115103641.216 7  21903495.900    89691158.70246
  20281787.620   106581579.572 8  20281787.500    83050600.38548
  21794915.700   114533146.744 8  21794915.000    89246650.04147
 14  1  8  0 42 30.0000000  0  7G02G31G24G25G14G29G12
  23164255.100   121728985.906 7  23164252.640    94853743.78646
  23166870.260   121742726.591 7  23166869.220    94864465.22746
  23375514.000   122839208.484 7  23375516.100    95718903.80946
  20605632.000   108283378.753 8  20605633.720    84376707.02048
  21910514.620   115140522.842 7  21910514.280    89719897.63147
  20275425.620   106548146.945 8  20275425.480    83024549.00948
  21805240.060   114587401.803 8  21805239.360    89288926.68847
 14  1  8  0 43  0.0000000  0  7G02G31G24G25G14G29G12
  23167058.120   121743715.323 7  23167055.320    94865221.25846
  23149835.620   121653208.341 7  23149834.400    94794710.74746
  23393900.420   122935830.333 6  23393902.780    95794193.53546
  20605391.360   108282114.484 8  20605393.180    84375721.86748
  21917631.760   115177923.118 7  21917631.360    89749040.68246
  20269159.360   106515217.093 8  20269159.140    82998889.40148
  21815589.260   114641786.543 8  21815588.440    89331304.40247
 14  1  8  0 43 30.0000000  0  7G02G31G24G25G14G29G12
  23169955.520   121758940.404 7  23169952.380    94877084.95946
  23132827.800   121563831.602 7  23132826.500    94725066.53446
  23412328.800   123032673.198 6  23412331.380    95869655.49146
  20605192.300   108281068.519 8  20605194.120    84374906.81948
  21924847.240   115215840.165 7  21924846.780    89778586.41846
  20262988.800   106482790.297 8  20262988.520    82973621.77848
  21825963.100   114696300.855 8  21825962.220    89373783.08047
 14  1  8  0 44  0.0000000  0  7G02G31G24G25G14G29G12
  23172946.720   121774658.543 7  23172943.340    94889332.86846
  23115846.900   121474595.803 7  23115845.600    94655532.14346
  23430798.480   123129732.933 6  23430801.340    95945286.42746
  20605034.280   108280238.032 8  20605036.060    84374259.67448
  21932160.120   115254269.619 7  21932159.660    89808531.42246
  20256913.380   106450863.897 8  20256913.100    82948744.07848
  21836361.060   114750941.429 8  21836360.140    89416360.12047
 14  1  8  0 44 30.0000000  0  7G02G31G24G25G14G29G12
  23176032.180   121790871.555 7  23176028.480    94901966.39246
  23098893.540   121385504.937 7  23098892.260    94586110.71446
  23449309.680   123227010.064 6  23449312.700    96021086.77546
  20604917.680   108279625.108 8  20604919.460    84373782.07148
  21939570.480   115293211.400 7  21939569.960    89838875.65746
  20250933.540   106419439.841 8  20250933.340    82924257.81348
  21846783.480   114805710.428 8  21846782.440    89459037.25047
 14  1  8  0 45  0.0000000  0  7G02G31G24G25G14G29G12
  23179211.680   121807578.637 7  23179207.680    94914984.90646
  23081968.080   121296560.383 7  23081966.780    94516803.27146
  23467861.820   123324502.018 6  23467864.760    96097054.51946
  20604842.320   108279228.912 8  20604844.120    84373473.33548
  21947077.760   115332662.606 7  21947077.200    89869616.84746
  20245049.220   106388517.625 8  20245049.080    82900162.58448
  21857230.300   114860607.224 8  21857229.040    89501813.96647
 14  1  8  0 45 30.0000000  0  7G02G31G24G25G14G29G12
  23182485.180   121824779.879 7  23182480.920    94928388.49746
  23065070.800   121207764.443 7  23065069.520    94447611.65046
  23486454.660   123422207.460 6  23486457.460    96173188.59946
  20604808.200   108279049.813 8  20604810.040    84373333.78148
  21954681.800   115372622.190 7  21954681.340    89900754.15846
  20239260.440   106358097.452 8  20239260.280    82876458.56948
  21867701.180   114915631.184 8  21867699.920    89544689.76547
 14  1  8  0 46  0.0000000  0  7G02G31G24G25G14G29G12
  23185852.880   121842477.299 7  23185848.680    94942178.67846
  23048202.640   121119122.042 7  23048201.380    94378539.63946
  23505088.400   123520127.687 6  23505091.260    96249490.06446
  20604815.880   108279090.282 8  20604817.660    84373365.31948
  21962382.600   115413090.349 7  21962382.240    89932287.77046
  20233567.680   106328181.820 8  20233567.500    82853147.69548
  21878196.480   114970784.447 8  21878195.440    89587666.31947
 14  1  8  0 46 30.0000000  0  7G02G31G24G25G14G29G12
  23189314.360   121860667.903 7  23189310.320    94956353.16546
  23031363.480   121030631.972 7  23031362.260    94309586.32546
  23523762.120   123618258.264 6  23523764.920    96325955.43346
  20604864.780   108279347.371 8  20604866.480    84373565.64148
  21970179.280   115454062.116 7  21970179.000    89964213.81046
  20227970.340   106298767.789 8  20227970.160    82830227.67548
  21888715.800   115026064.380 8  21888715.000    89630741.57947
 14  1  8  0 47  0.0000000  0  7G02G31G24G25G14G29G12
  23192869.960   121879352.802 7  23192865.860    94970912.84546
  23014554.040   120942297.910 7  23014552.760    94240754.58346
  23542475.500   123716598.236 6  23542478.260    96402583.93946
  20604955.120   108279822.398 8  20604956.900    84373935.80348
  21978071.820   115495536.987 7  21978071.420    89996531.87646
  20222468.640   106269856.473 8  20222468.460    82807699.38548
  21899259.360   115081471.969 8  21899258.700    89673916.30747
 14  1  8  0 47 30.0000000  0  7G02G31G24G25G14G29G12
  23196519.340   121898530.799 7  23196515.240    94985856.74346
  22997774.580   120854121.240 7  22997773.280    94172045.49946
  23561228.420   123815145.683 6  23561231.340    96479374.13546
  20605086.860   108280514.538 8  20605088.660    84374475.13048
  21986059.420   115537511.934 7  21986058.980    90029239.61846
  20217062.500   106241447.336 8  20217062.340    82785562.41248
  21909827.080   115137006.067 8  21909826.380    89717189.62447
 14  1  8  0 48  0.0000000  0  7G02G31G24G25G14G29G12
  23200263.000   121918203.957 7  23200258.860    95001186.50346
  22981025.800   120766106.009 7  22981024.620    94103462.22546
  23580020.760   123913900.293 6  23580023.840    96556325.77746
  20605260.380   108281425.922 8  20605262.120    84375185.30548
  21994142.140   115579987.130 7  21994141.720    90062337.15246
  20211752.320   106213542.415 8  20211752.200    82763818.32748
  21920419.200   115192668.054 8  21920418.380    89760562.59547
 14  1  8  0 48 30.0000000  0  7G02G31G24G25G14G29G12
  23204100.080   121938368.508 7  23204096.060    95016899.15746
  22964307.640   120678251.419 7  22964306.340    94035004.09546
  23598851.700   124012858.265 6  23598854.940    96633435.84646
  20605474.940   108282553.287 8  20605476.720    84376063.76948
  22002319.060   115622957.208 7  22002318.680    90095820.31446
  20206537.520   106186138.322 8  20206537.340    82742464.49948
  21931035.020   115248454.925 7  21931034.160    89804032.87247
 14  1  8  0 49  0.0000000  0  7G02G31G24G25G14G29G12
  23208031.100   121959027.259 7  23208027.380    95032996.89946
  22947620.840   120590562.069 7  22947619.560    93966674.75647
  23617721.500   124112020.367 6  23617724.760    96710705.01246
  20605731.140   108283899.635 8  20605732.960    84377112.86548
  22010590.240   115666422.902 7  22010589.860    90129689.69046
  20201418.560   106159237.842 8  20201418.360    82721503.08448
  21941674.960   115304369.122 7  21941674.180    89847602.35447
 14  1  8  0 49 30.0000000  0  7G02G31G24G25G14G29G12
  23212055.680   121980177.967 7  23212052.360    95049477.97846
  22930965.600   120503038.676 7  22930964.360    93898474.72646
  23636629.560   124211383.040 6  23636632.840    96788130.45546
  20606028.700   108285463.242 8  20606030.520    84378331.26648
  22018955.140   115710380.635 7  22018954.720    90163942.45046
  20196395.020   106132838.898 8  20196394.800    82700932.48148
  21952338.760   115360409.049 7  21952338.300    89891269.81747
 14  1  8  0 50  0.0000000  0  7G02G31G24G25G14G29G12
  23216173.460   122001818.576 7  23216170.520    95066340.77046
  22914342.000   120415681.481 7  22914340.700    93830404.19646
  23655575.260   124310943.252 6  23655578.420    96865709.80746
  20606367.180   108287242.313 8  20606369.040    84379717.55848
  22027413.000   115754826.264 7  22027412.500    90198575.39446
  20191466.600   106106939.898 8  20191466.360    82680751.43948
  21963026.180   115416572.601 7  21963025.900    89935033.61347
 14  1  8  0 50 30.0000000  0  7G02G31G24G25G14G29G12
  23220385.260   122023952.576 7  23220382.640    95083588.04246
  22897751.300   120328496.929 7  22897750.000    93762468.18646
  23674558.940   124410703.435 6  23674562.040    96943444.97946
  20606747.460   108289240.982 8  20606749.360    84381274.95848
  22035964.100   115799761.923 7  22035963.640    90233590.17246
  20186634.060   106081544.702 8  20186633.840    82660962.97348
  21973737.980   115472863.663 8  21973737.740    89978896.76847
 14  1  8  0 51  0.0000000  0  7G02G31G24G25G14G29G12
  23224690.280   122046576.801 7  23224687.980    95101217.30746
  22881193.300   120241484.094 7  22881192.040    93694665.97946
  23693579.900   124510658.912 6  23693582.960    97021332.34646
  20607169.020   108291456.326 8  20607170.940    84383001.22148
  22044607.400   115845182.424 7  22044606.900    90268982.76046
  20181896.760   106056650.017 8  20181896.540    82641564.50548
  21984473.520   115529278.855 7  21984473.140    90022856.64447
 14  1  8  0 51 30.0000000  0  7G02G31G24G25G14G29G12
  23229088.800   122069691.600 7  23229086.820    95119228.85346
  22864668.520   120154645.915 7  22864667.400    93626999.89846
  23712637.840   124610808.285 6  23712640.700    97099370.80246
  20607631.940   108293889.121 8  20607633.940    84384896.89748
  22053342.560   115891086.157 7  22053342.020    90304751.89546
  20177254.800   106032256.237 8  20177254.580    82622556.34448
  21995232.700   115585818.824 7  21995232.200    90066913.75047
 14  1  8  0 52  0.0000000  0  7G02G31G24G25G14G29G12
  23233580.720   122093296.392 7  23233578.780    95137622.19946
  22848177.540   120067984.652 7  22848176.320    93559471.65446
  23731732.260   124711150.345 6  23731735.060    97177559.38346
  20608136.280   108296539.335 8  20608138.340    84386961.99548
  22062169.260   115937471.018 7  22062168.740    90340895.93246
  20172708.080   106008363.157 8  20172707.940    82603938.36048
  22006015.580   115642483.281 7  22006014.980    90111067.85847
 14  1  8  0 52 30.0000000  0  7G02G31G24G25G14G29G12
  23238166.080   122117392.217 7  23238164.200    95156398.18946
  22831720.820   119981503.734 7  22831719.460    93492083.95647
  23750863.260   124811684.581 6  23750866.160    97255897.71446
  20608682.320   108299408.456 8  20608684.280    84389197.66148
  22071087.340   115984336.360 7  22071086.960    90377414.37046
  20168256.920   105984972.237 8  20168256.860    82585711.67548
  22016822.460   115699273.311 8  22016821.840    90155319.81847
 14  1  8  0 53  0.0000000  0  7G02G31G24G25G14G29G12
  23242844.700   122141979.971 7  23242843.140    95175557.44946
  22815299.020   119895207.011 7  22815297.620    93424839.77347
  23770030.740   124912410.907 6  23770033.760    97334385.75246
  20609270.300   108302498.167 8  20609272.220    84391605.23048
  22080096.780   116031681.316 7  22080096.440    90414306.51846
  20163901.620   105962084.779 8  20163901.500    82567877.29448
  22027653.740   115756190.892 8  22027653.060    90199671.16147
 14  1  8  0 53 30.0000000  0  7G02G31G24G25G14G29G12
  23247615.840   122167053.314 7  23247614.440    95195095.12946
  22798911.600   119809090.761 7  22798910.200    93357736.19946
  23789233.500   125013321.823 6  23789236.580    97413017.61146
  20609899.080   108305802.542 8  20609901.060    84394180.06348
  22089196.060   116079497.682 7  22089195.660    90451566.01046
  20159640.920   105939694.405 8  20159640.720    82550430.26048
  22038508.040   115813229.244 8  22038507.060    90244116.62047
 14  1  8  0 54  0.0000000  0  7G02G31G24G25G14G29G12
  23252479.840   122192612.855 7  23252478.400    95215011.64146
  22782559.300   119723158.295 7  22782557.820    93290775.82846
  23808471.340   125114416.819 6  23808474.200    97491792.90546
  20610569.000   108309322.800 8  20610570.880    84396923.11848
  22098384.860   116127784.516 7  22098384.480    90489192.09946
  20155475.000   105917802.174 8  20155474.720    82533371.40148
  22049385.620   115870389.870 8  22049384.380    90288657.35747
 14  1  8  0 54 30.0000000  0  7G02G31G24G25G14G29G12
  23257437.080   122218661.094 7  23257435.400    95235308.97446
  22766242.960   119637414.882 7  22766241.480    93223962.77547
  23827744.520   125215696.984 6  23827747.100    97570712.51246
  20611280.540   108313061.942 8  20611282.380    84399836.72748
  22107663.180   116176542.256 7  22107662.780    90527185.13946
  20151404.260   105896410.512 8  20151404.000    82516702.56748
  22060286.840   115927675.319 8  22060285.520    90333295.36147
 14  1  8  0 55  0.0000000  0  7G02G31G24G25G14G29G12
  23262487.380   122245199.065 7  23262485.580    95255987.90646
  22749963.240   119551864.305 7  22749961.820    93157299.99447
  23847052.820   125317162.296 6  23847055.360    97649776.32245
  20612034.020   108317021.627 8  20612035.920    84402922.18748
  22117030.900   116225770.220 7  22117030.520    90565544.57546
  20147429.000   105875520.590 8  20147428.820    82500424.70448
  22071211.940   115985086.718 7  22071210.680    90378031.49247
 14  1  8  0 55 30.0000000  0  7G02G31G24G25G14G29G12
  23267630.660   122272226.230 7  23267628.700    95277048.03546
  22733720.600   119466509.024 7  22733719.280    93090789.39947
  23866395.940   125418811.009 6  23866398.500    97728983.09546
  20612829.620   108321202.160 8  20612831.440    84406179.74348
  22126487.680   116275466.484 7  22126487.460    90604268.91946
  20143549.240   105855132.532 8  20143549.100    82484537.90548
  22082161.060   116042624.627 8  22082159.860    90422866.21247
 14  1  8  0 56  0.0000000  0  7G02G31G24G25G14G29G12
  23272865.940   122299736.522 7  23272863.560    95298484.62846
  22717514.500   119381345.469 7  22717513.240    93024428.19247
  23885772.680   125520636.234 6  23885775.340    97808327.40046
  20613666.100   108325597.942 8  20613667.880    84409605.02048
  22136032.100   116325622.938 7  22136031.900    90643351.85946
  20139763.840   105835240.220 8  20139763.720    82469037.41348
  22093132.900   116100282.874 7  22093131.860    90467794.69947
 14  1  8  0 56 30.0000000  0  8G02G31G24G25G14G21G29G12
  23278194.520   122327737.282 7  23278191.600    95320303.41646
  22701346.760   119296383.774 7  22701345.580    92958224.28247
  23905184.160   125622643.740 6  23905186.760    97887813.75046
  20614545.000   108330216.969 8  20614546.820    84413204.24748
  22145665.200   116376245.200 7  22145664.900    90682797.76446
  24683778.800   129714131.398 6  24683778.800   101075954.38344
  20136074.240   105815851.228 8  20136074.140    82453929.11848
  22104129.120   116158069.288 7  22104128.180    90512823.07047
 14  1  8  0 57  0.0000000  0  8G02G31G24G25G14G21G29G12
  23283613.380   122356212.758 7  23283610.080    95342492.11846
  22685215.080   119211611.295 7  22685213.960    92892167.79647
  23924627.100   125724816.751 6  23924629.700    97967429.08546
  20615463.660   108335044.136 8  20615465.440    84416965.65648
  22155383.580   116427315.500 7  22155383.280    90722592.78346
  24666074.360   129621097.004 6  24666075.440   101003460.23545
  20132477.460   105796950.014 8  20132477.340    82439200.89748
  22115146.900   116215968.538 7  22115146.040    90557939.35847
 14  1  8  0 57 30.0000000  0  8G02G31G24G25G14G21G29G12
  23289125.540   122385179.171 7  23289122.000    95365063.35646
  22669123.020   119127047.251 7  22669122.040    92826273.75046
  23944104.480   125827170.880 6  23944107.180    98047185.49346
  20616425.140   108340096.835 8  20616426.960    84420902.81548
  22165190.100   116478848.924 7  22165189.820    90762748.67546
  24648364.820   129528032.803 6  24648365.860   100930942.82345
  20128976.700   105778553.309 8  20128976.520    82424865.79448
  22126189.460   116273997.709 7  22126188.740    90603156.87347
 14  1  8  0 58  0.0000000  0  8G02G31G24G25G14G21G29G12
  23294729.580   122414628.558 7  23294725.880    95388010.92946
  22653069.560   119042686.230 7  22653068.680    92760537.89646
  23963614.680   125929696.913 6  23963617.440    98127075.86245
  20617428.120   108345367.701 8  20617429.980    84425009.97648
  22175082.880   116530835.744 7  22175082.720    90803257.87446
  24630648.480   129434933.594 6  24630649.680   100858398.19445
  20125570.480   105760653.279 8  20125570.240    82410917.74548
  22137255.280   116332149.364 7  22137254.800    90648469.82347
 14  1  8  0 58 30.0000000  0  8G02G31G24G25G14G21G29G12
  23300425.760   122444562.236 7  23300422.040    95411335.85846
  22637055.560   118958532.334 7  22637054.640    92694963.44647
  23983157.640   126032394.913 6  23983160.120    98207100.25346
  20618472.940   108350858.588 8  20618474.920    84429288.58248
  22185061.800   116583275.131 7  22185061.720    90844119.71346
  24612926.380   129341803.564 6  24612927.160   100785829.48844
  20122259.020   105743251.129 8  20122258.700    82397357.63648
  22148344.660   116390424.893 7  22148344.240    90693879.31847
 14  1  8  0 59  0.0000000  0  8G02G31G24G25G14G21G29G12
  23306213.620   122474977.782 7  23306209.800    95435036.28846
  22621081.220   118874586.437 7  22621080.120    92629551.05747
  24002732.600   126135261.207 6  24002734.820    98287255.81145
  20619559.320   108356567.816 8  20619561.440    84433737.33848
  22195125.880   116636162.470 7  22195125.840    90885330.61046
  24595198.480   129248643.207 6  24595198.960   100713237.11146
  20119041.880   105726344.742 8  20119041.540    82384183.83448
  22159457.320   116448822.639 7  22159456.780    90739384.05747
 14  1  8  0 59 30.0000000  0  8G02G31G24G25G14G21G29G12
  23312093.020   122505874.847 7  23312089.320    95459111.92146
  22605147.000   118790851.541 7  22605145.740    92564303.09247
  24022339.320   126238294.980 6  24022341.560    98367541.81846
  20620687.460   108362496.295 8  20620689.620    84438356.92648
  22205274.940   116689496.595 7  22205274.940    90926889.66046
  24577465.460   129155455.894 6  24577465.940   100640623.81145
  20115919.080   105709934.278 8  20115918.720    82371396.46848
  22170593.480   116507343.218 7  22170592.800    90784984.49847
 14  1  8  1  0  0.0000000  0  8G02G31G24G25G14G21G29G12
  23318064.180   122537254.261 7  23318060.460    95483563.42546
  22589253.580   118707331.089 7  22589252.340    92499222.23247
  24041977.860   126341496.078 6  24041980.120    98447958.22846
  20621857.680   108368645.629 8  20621859.780    84443148.61148
  22215508.920   116743276.515 7  22215508.880    90968796.07546
  24559727.840   129062245.202 6  24559728.480   100567992.24645
  20112890.880   105694021.226 8  20112890.540    82358996.68148
  22181753.220   116565987.635 7  22181752.440    90830681.41147
 14  1  8  1  0 30.0000000  0  8G02G31G24G25G14G21G29G12
  23324126.860   122569114.574 7  23324122.980    95508389.67646
  22573401.300   118624026.958 7  22573400.060    92434309.92747
  24061647.480   126444861.561 6  24061649.840    98528502.71146
  20623069.840   108375015.245 8  20623071.840    84448111.93548
  22225827.160   116797498.903 7  22225827.060    91011047.26746
  24541985.820   128969012.803 5  24541986.660   100495343.72645
  20109957.020   105678603.901 8  20109956.680    82346983.19348
  22192936.480   116624755.293 7  22192935.520    90876474.37347
 14  1  8  1  1  0.0000000  0  8G02G31G24G25G14G21G29G12
  23330280.500   122601452.786 7  23330276.460    95533588.30646
  22557590.200   118540938.773 7  22557588.860    92369565.87847
  24081347.800   126548387.970 6  24081350.140    98609172.59545
  20624323.500   108381602.928 8  20624325.440    84453245.18948
  22236228.720   116852159.121 7  22236228.500    91053639.63446
  24524239.740   128875759.119 6  24524241.020   100422678.65545
  20107116.960   105663679.524 8  20107116.680    82335353.82348
  22204142.780   116683643.936 7  22204141.720    90922361.62347
 14  1  8  1  1 30.0000000  0  8G02G31G24G25G14G21G29G12
  23336525.140   122634269.355 7  23336521.160    95559159.67546
  22541820.840   118458070.187 7  22541819.500    92304992.96047
  24101078.600   126652074.045 6  24101081.080    98689966.91245
  20625618.940   108388410.146 8  20625620.880    84458549.50848
  22246713.400   116907255.934 7  22246713.160    91096572.19146
  24506490.480   128782487.211 6  24506491.860   100349999.40845
  20104370.840   105649248.566 8  20104370.560    82324108.91948
  22215372.280   116742655.107 7  22215371.160    90968344.34347
 14  1  8  1  2  0.0000000  0  8G02G31G24G25G14G21G29G12
  23342860.900   122667566.311 6  23342857.520    95585105.33946
  22526094.340   118375426.793 7  22526092.900    92240595.51047
  24120840.240   126755921.512 6  24120842.600    98770886.99446
  20626956.700   108395439.671 8  20626958.500    84464027.04448
  22257281.180   116962789.381 7  22257280.840    91139844.99046
  24488738.720   128689202.727 6  24488740.200   100277310.40446
  20101719.100   105635313.436 8  20101718.780    82313250.36848
  22226625.420   116801790.720 7  22226624.300    91014424.02647
 14  1  8  1  2 30.0000000  0  8G02G31G24G25G14G21G29G12
  23349286.980   122701338.030 7  23349284.460    95611420.92746
  22510410.120   118293005.364 7  22510408.640    92176371.01047
  24140631.200   126859923.712 6  24140633.760    98851927.60245
  20628335.820   108402686.977 8  20628337.580    84469674.28948
  22267930.600   117018752.179 7  22267930.260    91183452.34546
  24470984.260   128595903.412 6  24470985.740   100204609.72145
  20099160.760   105621869.101 8  20099160.400    82302774.26248
  22237901.340   116861046.045 7  22237900.260    91060596.99447
 14  1  8  1  3  0.0000000  0  8G02G31G24G25G14G21G29G12
  23355803.800   122735585.485 7  23355801.840    95638107.22746
  22494768.960   118210809.814 7  22494767.380    92112322.51747
  24160451.560   126964080.346 6  24160454.260    98933088.60945
  20629756.720   108410153.949 8  20629758.560    84475492.70048
  22278661.500   117075143.665 7  22278661.200    91227393.75346
  24453227.660   128502593.089 6  24453229.260   100131900.55945
  20096695.960   105608916.518 8  20096695.620    82292681.34748
  22249200.340   116920422.835 7  22249199.260    91106864.59647
 14  1  8  1  3 30.0000000  0  8G02G31G24G25G14G21G29G12
  23362411.440   122770309.272 7  23362409.620    95665164.70946
  22479171.560   118128844.845 7  22479169.980    92048453.71647
  24180301.380   127068391.673 6  24180304.200    99014370.14845
  20631219.760   108417842.415 8  20631221.680    84481483.71148
  22289473.740   117131962.833 7  22289473.500    91271668.41646
  24435469.680   128409275.422 6  24435471.360   100059185.63346
  20094324.960   105596456.882 8  20094324.600    82282972.53948
  22260522.800   116979922.486 7  22260521.560    91153227.94447
 14  1  8  1  4  0.0000000  0  8G02G31G24G25G14G21G29G12
  23369109.320   122805506.633 7  23369107.460    95692591.23646
  22463618.020   118047110.443 7  22463616.460    91984764.57047
  24200179.840   127172853.698 6  24200182.560    99095769.06045
  20632724.600   108425750.573 8  20632726.540    84487645.90448
  22300366.560   117189205.542 7  22300366.520    91316273.11746
  24417710.620   128315951.600 6  24417712.300    99986465.92245
  20092047.220   105584487.290 8  20092046.840    82273645.57748
  22271868.420   117039543.520 7  22271867.080    91199685.88047
 14  1  8  1  4 30.0000000  0  8G02G31G24G25G14G21G29G12
  23375897.320   122841177.270 7  23375895.260    95720386.55046
  22448108.940   117965609.809 7  22448107.580    91921257.59347
  24220086.780   127277465.540 6  24220089.640    99177284.73546
  20634271.340   108433879.096 8  20634273.420    84493979.79848
  22311339.560   117246869.076 7  22311339.520    91361205.72846
  24399950.860   128222624.390 6  24399952.600    99913743.52846
  20089862.760   105573007.912 8  20089862.380    82264700.60748
  22283237.060   117099285.866 7  22283235.780    91246238.36047
 14  1  8  1  5  0.0000000  0  8G02G31G24G25G14G21G29G12
  23382775.380   122877321.989 6  23382773.360    95748551.27746
  22432645.100   117884346.700 7  22432643.840    91857935.69647
  24240022.040   127382226.374 6  24240025.060    99258916.50546
  20635860.460   108442229.831 8  20635862.540    84500486.85848
  22322392.500   117304952.875 7  22322392.440    91406465.81346
  24382191.260   128129297.448 6  24382192.700    99841021.43246
  20087771.740   105562019.820 8  20087771.440    82256138.47548
  22294628.960   117159151.472 7  22294627.840    91292886.86747
 14  1  8  1  5 30.0000000  0  8G02G31G24G25G14G21G29G12
  23389743.020   122913937.692 6  23389741.180    95777082.97746
  22417226.400   117803320.864 7  22417225.120    91794798.69147
  24259984.920   127487132.545 6  24259988.100    99340661.52645
  20637491.500   108450800.904 8  20637493.520    84507165.61648
  22333524.600   117363452.355 7  22333524.520    91452049.81346
  24364431.780   128035971.405 6  24364432.920    99768299.99244
  20085773.660   105551520.096 8  20085773.420    82247956.87848
  22306044.000   117219138.172 7  22306042.880    91339629.73047
 14  1  8  1  6  0.0000000  0  8G02G31G24G25G14G21G29G12
  23396800.100   122951022.130 7  23396798.260    95805979.92446
  22401853.160   117722533.932 7  22401851.800    91731847.83047
  24279975.060   127592181.576 6  24279978.320    99422517.86145
  20639164.300   108459591.286 8  20639166.160    84514015.26248
  22344735.040   117422363.460 7  22344734.980    91497954.55446
  24346672.760   127942647.564 6  24346673.540    99695580.28345
  20083868.060   105541506.481 8  20083867.880    82240154.05848
  22317481.900   117279244.598 7  22317480.720    91386465.89447
 14  1  8  1  6 30.0000000  0  8G02G31G24G25G14G21G29G12
  23403946.720   122988575.794 7  23403944.580    95835242.51046
  22386526.100   117641989.722 7  22386524.640    91669086.09647
  24299992.360   127697372.533 6  24299995.620    99504484.78745
  20640879.120   108468602.547 8  20640880.840    84521037.02048
  22356023.540   117481685.086 7  22356023.560    91544179.18546
  24328914.940   127849329.566 6  24328915.240    99622865.09246
  20082055.220   105531980.108 8  20082055.080    82232730.88948
  22328942.880   117339472.015 7  22328941.640    91433396.33547
 14  1  8  1  7  0.0000000  0  8G02G31G24G25G14G21G29G12
  23411183.120   123026600.744 7  23411180.480    95864872.34846
  22371246.120   117561693.014 7  22371244.440    91606517.21647
  24320036.740   127802706.429 6  24320040.080    99586563.10946
  20642636.500   108477837.633 8  20642638.280    84528233.17948
  22367390.220   117541417.392 7  22367390.240    91590723.82346
  24311159.340   127756022.830 6  24311159.360    99550158.71445
  20080335.580   105522943.005 8  20080335.400    82225689.01048
  22340427.260   117399823.134 7  22340426.180    91480423.16847
 14  1  8  1  7 30.0000000  0  8G02G31G24G25G14G21G29G12
  23418508.100   123065092.000 7  23418505.140    95894865.55146
  22356012.980   117481642.562 7  22356011.260    91544140.24947
  24340107.480   127908178.021 6  24340110.560    99668748.70745
  20644435.740   108487292.977 8  20644437.620    84535600.99348
  22378833.880   117601553.635 7  22378833.920    91637583.21846
  24293405.760   127662725.732 6  24293405.420    99477459.75444
  20078708.220   105514390.735 8  20078708.000    82219024.91548
  22351934.320   117460294.007 7  22351933.500    91527543.32747
 14  1  8  1  8  0.0000000  0  8G02G31G24G25G14G21G29G12
  23425921.840   123104050.353 7  23425918.860    95925222.69246
  22340827.420   117401842.436 7  22340825.820    91481958.33347
  24360204.360   128013786.745 6  24360206.940    99751041.18546
  20646277.220   108496970.330 8  20646279.200    84543141.77948
  22390354.280   117662093.031 7  22390354.300    91684756.75946
  24275654.740   127569441.753 6  24275653.900    99404771.06844
  20077173.240   105506323.982 8  20077172.940    82212739.14448
  22363464.600   117520886.305 7  22363463.740    91574758.10047
 14  1  8  1  8 30.0000000  0  8G02G31G24G25G14G21G29G12
  23433424.260   123143474.979 7  23433421.260    95955943.18546
  22325690.020   117322295.180 7  22325688.520    91419973.46847
  24380326.960   128119531.475 6  24380329.380    99833439.55645
  20648161.140   108506870.378 8  20648163.140    84550856.09048
  22401950.960   117723033.465 7  22401950.820    91732242.78146
  24257906.900   127476174.690 6  24257905.620    99332095.56645
  20075730.520   105498742.324 8  20075730.180    82206831.35048
  22375018.160   117581600.528 7  22375017.380    91622067.87047
 14  1  8  1  9  0.0000000  0  8G02G31G24G25G14G21G29G12
  23441014.840   123183364.220 7  23441011.740    95987025.70146
  22310601.160   117243002.704 7  22310599.720    91358187.13247
  24400475.060   128225409.832 6  24400477.420    99915942.13846
  20650087.320   108516992.798 8  20650089.420    84558743.68048
  22413623.180   117784371.295 7  22413622.920    91780038.48546
  24240162.520   127382926.445 6  24240160.880    99259434.70245
  20074379.880   105491644.498 8  20074379.460    82201300.58048
  22386594.660   117642435.961 7  22386594.220    91669472.07947
 14  1  8  1  9 30.0000000  0  8G02G31G24G25G14G21G29G12
  23448693.900   123223717.939 7  23448690.660    96018470.17446
  22295561.300   117163968.116 7  22295559.960    91296601.74547
  24420648.260   128331420.687 6  24420650.860    99998547.88246
  20652056.000   108527338.528 8  20652058.160    84566805.29048
  22425370.700   117846104.814 7  22425370.280    91828142.52946
  24222422.160   127289700.006 6  24222420.300    99186790.79945
  20073121.400   105485031.275 8  20073120.980    82196147.41348
  22398194.480   117703393.776 7  22398194.280    91716971.65547
 14  1  8  1 10  0.0000000  0  8G02G31G24G25G14G21G29G12
  23456460.880   123264533.652 7  23456457.460    96050274.63746
  22280570.720   117085192.166 7  22280569.400    91235217.88547
  24440845.940   128437560.485 6  24440848.840   100081254.18245
  20654066.980   108537906.299 8  20654069.120    84575039.90748
  22437192.740   117908230.064 7  22437192.240    91876551.77846
  24204686.040   127196495.832 6  24204684.260    99114164.28545
  20071954.560   105478899.442 8  20071954.140    82191369.35248
  22409817.280   117764472.092 7  22409817.140    91764565.14147
 14  1  8  1 10 30.0000000  0  8G02G31G24G25G14G21G29G12
  23464315.680   123305810.755 7  23464312.080    96082438.60546
  22265629.960   117006677.805 7  22265628.600    91174037.87047
  24461068.060   128543828.553 6  24461071.220   100164060.40545
  20656120.440   108548696.873 8  20656122.440    84583448.13848
  22449088.980   117970744.788 7  22449088.340    91925264.53446
  24186954.720   127103317.495 6  24186953.180    99041557.88145
  20070879.280   105473248.878 8  20070878.860    82186966.31348
  22421463.200   117825671.583 7  22421462.940    91812253.05147
 14  1  8  1 11  0.0000000  0  8G02G31G24G25G14G21G29G12
  23472258.120   123347548.367 7  23472254.600    96114961.43046
  22250739.520   116928427.781 7  22250738.060    91113063.82147
  24481314.300   128650223.533 6  24481317.760   100246965.54545
  20658216.400   108559710.808 8  20658218.320    84592030.40848
  22461058.660   118033646.283 7  22461058.140    91974278.66846
  24169228.900   127010167.871 6  24169227.560    98968973.83845
  20069895.480   105468079.132 8  20069895.100    82182937.93148
  22433132.140   117886992.145 7  22433131.720    91860035.28947
 14  1  8  1 11 30.0000000  0  8G02G31G24G25G14G21G29G12
  23480287.700   123389744.828 7  23480284.440    96147841.79546
  22235899.680   116850443.759 7  22235898.140    91052297.06147
  24501584.160   128756742.167 6  24501587.820   100329967.01546
  20660354.760   108570947.681 8  20660356.660    84600786.39948
  22473101.220   118096931.015 7  22473100.940    92023591.43146
  24151508.720   126917048.514 6  24151507.660    98896413.36845
  20069002.840   105463388.598 8  20069002.520    82179282.96948
  22444824.000   117948433.282 7  22444823.500    91907911.48647
 14  1  8  1 12  0.0000000  0  8G02G31G24G25G14G21G29G12
  23488404.500   123432399.967 6  23488401.540    96181079.54346
  22221111.160   116772729.294 7  22221109.660    90991740.33747
  24521877.460   128863383.503 6  24521881.040   100413064.06745
  20662535.640   108582408.567 8  20662537.580    84609716.97448
  22485216.400   118160597.309 7  22485216.380    92073201.52746
  24133794.760   126823962.590 6  24133794.120    98823878.92645
  20068201.460   105459177.640 8  20068201.180    82176001.72448
  22456538.880   118009995.465 7  22456538.520    91955882.00147
 14  1  8  1 12 30.0000000  0  8G02G31G24G25G14G21G29G12
  23496608.260   123475513.092 7  23496605.620    96214674.14546
  22206374.260   116695286.672 7  22206373.020    90931395.45547
  24542194.020   128970146.845 6  24542197.620   100496256.20445
  20664759.240   108594094.139 8  20664761.240    84618822.60348
  22497403.840   118224642.799 7  22497403.820    92123107.09346
  24116087.740   126730913.505 6  24116087.520    98751373.25545
  20067491.260   105455445.485 8  20067490.980    82173093.52348
  22468277.220   118071680.309 7  22468276.820    92003948.10447
 14  1  8  1 13  0.0000000  0  8G02G31G24G25G14G21G29G12
  23504898.620   123519080.610 7  23504895.900    96248622.85646
  22191689.240   116618116.266 8  22191688.100    90871262.66747
  24562533.080   129077028.031 6  24562536.360   100579540.15546
  20667025.320   108606002.604 8  20667027.380    84628101.92248
  22509662.600   118289062.918 7  22509662.440    92173304.55946
  24098387.680   126637900.936 6  24098387.760    98678896.01045
  20066871.660   105452189.263 8  20066871.320    82170556.20948
  22480038.380   118133484.991 7  22480038.000    92052107.57547
 14  1  8  1 13 30.0000000  0  8G02G31G24G25G14G21G29G12
  23513275.720   123563102.484 7  23513272.740    96282925.62146
  22177056.720   116541221.281 8  22177055.440    90811344.48747
  24582894.180   129184025.795 6  24582897.320   100662914.95345
  20669334.100   108618135.107 8  20669336.140    84637555.80848
  22521992.200   118353855.461 7  22521991.980    92223792.23346
  24080695.400   126544928.945 6  24080695.780    98606450.36845
  20066342.600   105449408.942 8  20066342.240    82168389.70948
  22491822.440   118195410.632 7  22491822.100    92100361.30447
 14  1  8  1 14  0.0000000  0  8G02G31G24G25G14G21G29G12
  23521738.660   123607574.914 7  23521735.500    96317579.47246
  22162476.720   116464602.194 8  22162475.300    90751641.30047
  24603276.780   129291136.514 6  24603279.880   100746377.76845
  20671685.100   108630489.574 8  20671687.220    84647182.66948
  22534391.800   118419015.581 7  22534391.540    92274566.33446
  24063010.980   126451997.206 6  24063011.660    98534036.01245
  20065903.560   105447101.587 8  20065903.180    82166591.77248
  22503629.040   118257454.775 7  22503628.500    92148707.37846
 14  1  8  1 14 30.0000000  0  8G02G31G24G25G14G21G29G12
  23530288.140   123652501.836 7  23530284.700    96352587.47646
  22147950.440   116388265.786 8  22147948.880    90692158.38947
  24623681.300   129398362.867 6  24623684.320   100829930.70745
  20674079.340   108643070.983 8  20674081.480    84656986.35248
  22546861.700   118484544.798 7  22546861.440    92325628.04146
  24045335.520   126359112.867 6  24045336.500    98461658.69545
  20065555.160   105445270.712 8  20065554.820    82165165.12848
  22515459.100   118319621.832 7  22515458.200    92197149.22346
 14  1  8  1 15  0.0000000  0  8G02G31G24G25G14G21G29G12
  23538923.440   123697879.658 7  23538920.000    96387946.82846
  22133478.000   116312212.690 8  22133476.440    90632896.24647
  24644107.120   129505701.189 6  24644110.200   100913570.87245
  20676516.520   108655877.644 8  20676518.520    84666965.56048
  22559401.040   118550438.694 7  22559400.780    92376973.92246
  24027668.880   126266275.960 6  24027670.140    98389318.33045
  20065296.920   105443913.520 8  20065296.580    82164107.57448
  22527312.220   118381910.256 7  22527311.160    92245685.61947
 14  1  8  1 15 30.0000000  0  8G02G31G24G25G14G21G29G12
  23547644.240   123743708.365 7  23547641.200    96423657.48546
  22119060.020   116236445.938 8  22119058.540    90573857.22547
  24664553.860   129613149.800 6  24664557.220   100997296.98745
  20678996.580   108668910.284 8  20678998.480    84677120.86048
  22572009.160   118616694.697 7  22572009.000    92428601.93746
  24010012.160   126173490.765 6  24010013.480    98317018.24545
  20065128.660   105443029.137 8  20065128.300    82163418.43248
  22539188.540   118444320.353 7  22539187.520    92294316.84947
 14  1  8  1 16  0.0000000  0  8G02G31G24G25G14G21G29G12
  23556450.260   123789984.822 7  23556447.500    96459717.04346
  22104696.620   116160965.985 7  22104695.200    90515041.67747
  24685021.040   129720705.678 6  24685024.520   101081106.67445
  20681519.340   108682167.793 8  20681521.240    84687451.37648
  22584685.300   118683308.732 7  22584685.240    92480508.96946
  23992365.540   126080757.918 6  23992366.700    98244758.93845
  20065050.040   105442615.737 8  20065049.600    82163096.30048
  22551087.700   118506850.711 7  22551086.780    92343041.79147
 14  1  8  1 16 30.0000000  0  8G02G31G24G25G14G21G29G12
  23565341.140   123836706.470 7  23565338.600    96496123.50046
  22090388.040   116085774.422 7  22090386.800    90456450.86347
  24705508.120   129828365.903 6  24705511.520   101164997.65545
  20684084.780   108695649.429 8  20684086.640    84697956.53948
  22597428.900   118750276.923 7  22597428.820    92532691.95146
  23974729.300   125988078.820 6  23974730.080    98172541.50645
  20065060.620   105442671.127 8  20065060.120    82163139.46548
  22563009.560   118569500.537 7  22563008.800    92391859.82146
 14  1  8  1 17  0.0000000  0  8G02G31G24G25G14G21G29G12
  23574316.960   123883874.405 7  23574314.520    96532877.72846
  22076135.140   116010875.558 7  22076133.980    90398088.12447
  24726015.080   129936130.631 6  24726018.600   101248970.10146
  20686693.280   108709357.565 8  20686695.160    84708638.19148
  22610239.860   118817598.518 7  22610239.580    92585150.31646
  23957104.320   125895457.872 6  23957104.680    98100369.36845
  20065160.560   105443196.389 8  20065160.060    82163548.76548
  22574954.560   118632272.035 7  22574953.820    92440772.66447
 14  1  8  1 17 30.0000000  0  8G02G31G24G25G14G21G29G12
  23583377.180   123931485.938 7  23583374.680    96569977.61846
  22061938.240   115936270.865 7  22061937.160    90339954.60647
  24746541.240   130043996.766 6  24746545.120   101333021.55345
  20689344.740   108723291.228 8  20689346.700    84719495.57948
  22623117.360   118885269.409 7  22623116.940    92637880.85846
  23939490.580   125802896.376 6  23939490.480    98028243.58145
  20065349.480   105444189.136 8  20065348.980    82164322.33048
  22586922.420   118695163.937 7  22586921.600    92489779.33747
 14  1  8  1 18  0.0000000  0  7G02G31G25G14G21G29G12
  23592520.760   123979535.970 7  23592518.340    96607419.21546
  22047797.040   115861958.586 7  22047796.020    90282048.93847
  20692038.400   108737446.628 8  20692040.440    84730525.76848
  22636059.960   118953282.472 7  22636059.440    92690878.02546
  23921887.760   125710392.869 6  23921887.460    97956162.95145
  20065626.400   105445644.571 8  20065625.980    82165456.44748
  22598912.320   118758172.086 7  22598911.620    92538876.58147
 14  1  8  1 18 30.0000000  0  7G02G31G25G14G21G29G12
  23601749.880   124028034.411 7  23601747.440    96645210.19846
  22033714.120   115787952.258 7  22033713.060    90224381.66947
  20694776.480   108751835.312 8  20694778.540    84741737.72648
  22649069.140   119021646.064 7  22649068.720    92744148.34446
  23904298.540   125617960.868 6  23904298.120    97884138.07045
  20065993.280   105447572.788 8  20065992.940    82166958.93548
  22610926.560   118821307.766 7  22610926.120    92588073.18546
 14  1  8  1 19  0.0000000  0  7G02G31G25G14G21G29G12
  23611062.120   124076969.375 7  23611059.600    96683341.34146
  22019688.000   115714244.045 8  22019686.740    90166946.68247
  20697557.140   108766447.266 8  20697559.120    84753123.64648
  22662142.480   119090347.400 7  22662142.060    92797681.83246
  23886721.520   125525592.841 6  23886721.060    97812163.04445
  20066447.960   105449962.368 8  20066447.680    82168820.96048
  22622963.180   118884560.636 7  22622962.820    92637361.12146
 14  1  8  1 19 30.0000000  0  7G02G31G25G14G21G29G12
  23620458.060   124126345.635 7  23620455.620    96721816.35146
  22005720.160   115640842.159 7  22005718.800    90109750.40747
  20700381.440   108781288.687 8  20700383.400    84764688.37148
  22675280.600   119159389.251 7  22675280.220    92851480.66546
  23869158.300   125433297.214 6  23869157.920    97740244.40445
  20066991.340   105452818.049 8  20066991.140    82171046.17248
  22635023.320   118947936.556 7  22635022.860    92686744.93046
 14  1  8  1 20  0.0000000  0  7G02G31G25G14G21G29G12
  23629937.020   124176159.486 7  23629934.720    96760632.31846
  21991810.580   115567746.771 8  21991809.300    90052792.96747
  20703249.060   108796357.743 8  20703250.980    84776430.49348
  22688482.520   119228766.537 7  22688482.220    92905540.85946
  23851608.880   125341074.389 6  23851608.440    97668382.46045
  20067622.800   105456136.657 8  20067622.640    82173632.10048
  22647106.480   119011433.339 7  22647105.820    92736222.93946
 14  1  8  1 20 30.0000000  0  7G02G31G25G14G21G29G12
  23639498.980   124226408.815 7  23639496.760    96799787.64046
  21977959.640   115494959.350 8  21977958.360    89996075.48747
  20706159.800   108811653.693 8  20706161.760    84788349.40748
  22701747.580   119298475.276 7  22701747.260    92959859.35346
  23834073.320   125248924.883 6  23834073.020    97596577.70446
  20068342.040   105459916.336 8  20068341.840    82176577.31748
  22659212.600   119075050.866 7  22659211.860    92785795.02647
 14  1  8  1 21  0.0000000  0  7G02G31G25G14G21G29G12
  23649143.600   124277092.518 7  23649141.500    96839281.42446
  21964167.720   115422482.666 7  21964166.420    89939600.15047
  20709113.760   108827177.312 8  20709115.840    84800445.72148
  22715075.320   119368513.175 7  22715075.020    93014434.31246
  23816552.540   125156852.915 6  23816552.300    97524833.36045
  20069148.840   105464156.011 8  20069148.580    82179880.97948
  22671341.680   119138789.291 7  22671340.960    92835461.32346
 14  1  8  1 21 30.0000000  0  7G02G31G25G14G21G29G12
  23658870.720   124328209.764 7  23658868.740    96879113.03246
  21950435.540   115350319.980 8  21950434.300    89883369.49047
  20712111.260   108842929.623 8  20712113.380    84812720.24248
  22728465.380   119438877.953 7  22728465.180    93069263.99146
  23799046.940   125064861.128 6  23799046.880    97453151.50345
  20070043.220   105468855.800 8  20070042.840    82183543.15348
  22683493.760   119202648.913 7  22683493.140    92885222.04946
 14  1  8  1 22  0.0000000  0  7G02G31G25G14G21G29G12
  23668679.740   124379756.257 7  23668677.620    96919279.12546
  21936763.100   115278470.547 8  21936761.760    89827382.91947
  20715151.780   108858907.892 8  20715153.780    84825170.83548
  22741916.400   119509563.668 7  22741916.560    93124343.73746
  23781556.420   124972948.587 6  23781556.320    97381531.35646
  20071024.340   105474011.284 8  20071023.840    82187560.41848
  22695668.440   119266627.047 7  22695667.920    92935075.13847
 14  1  8  1 22 30.0000000  0  7G02G31G25G14G21G29G12
  23678570.780   124431733.803 6  23678568.400    96959781.10246
  21923151.400   115206940.250 8  21923149.920    89771645.01747
  20718235.980   108875115.858 8  20718237.980    84837800.41648
  22755428.560   119580570.711 7  22755428.920    93179673.87246
  23764082.180   124881121.984 6  23764082.220    97309978.18145
  20072092.600   105479624.818 8  20072092.040    82191934.60248
  22707866.320   119330727.026 7  22707865.760    92985023.16147
 14  1  8  1 23  0.0000000  0  7G02G31G25G14G21G29G12
  23688543.580   124484142.156 6  23688541.340    97000618.76346
  21909600.960   115135732.246 8  21909599.520    89716158.27147
  20721364.220   108891554.933 8  20721366.200    84850610.07948
  22769001.600   119651897.605 7  22769001.820    93235253.25946
  23746624.880   124789384.370 6  23746625.080    97238494.34145
  20073247.940   105485696.073 8  20073247.400    82196665.45548
  22720087.480   119394949.598 7  22720086.880    93035066.69346
 14  1  8  1 23 30.0000000  0  7G02G31G25G14G21G29G12
  23698597.480   124536976.038 7  23698595.280    97041788.02246
  21896111.660   115064845.447 8  21896110.200    89660921.79747
  20724535.760   108908221.457 8  20724537.700    84863596.96848
  22782634.120   119723536.855 7  22782634.120    93291076.03746
  23729184.340   124697734.252 6  23729184.720    97167078.70746
  20074489.340   105492219.601 8  20074488.820    82201748.72948
  22732331.400   119459291.437 7  22732330.620    93085203.18746
 14  1  8  1 24  0.0000000  0  7G02G31G25G14G21G29G12
  23708732.240   124590233.681 7  23708729.660    97083287.46846
  21882683.840   114994281.750 8  21882682.340    89605937.10147
  20727750.700   108925115.589 8  20727752.540    84876761.22548
  22796325.620   119795485.511 7  22796325.380    93347139.88346
  23711760.980   124606174.555 6  23711761.500    97095733.50145
  20075816.720   105499195.038 8  20075816.260    82207184.13448
  22744598.000   119523752.648 7  22744597.040    93135432.69046
 14  1  8  1 24 30.0000000  0  7G02G31G25G14G21G29G12
  23718947.920   124643915.555 7  23718944.920    97125117.47946
  21869318.340   114924045.405 8  21869316.840    89551207.49847
  20731009.400   108942239.553 8  20731011.200    84890104.56548
  22810075.820   119867742.579 7  22810075.460    93403444.05646
  23694355.660   124514709.546 6  23694356.200    97024462.11946
  20077230.160   105506622.754 8  20077229.740    82212971.96848
  22756887.600   119588334.963 7  22756886.560    93185756.55546
 14  1  8  1 25  0.0000000  0  7G02G31G25G14G21G29G12
  23729244.000   124698019.561 7  23729240.720    97167276.44946
  21856015.560   114854138.483 8  21856014.040    89496734.56947
  20734311.780   108959593.273 8  20734313.640    84903626.93648
  22823884.080   119940304.735 7  22823883.720    93459985.98346
  23676968.760   124423341.177 6  23676969.320    96953266.05346
  20078729.280   105514500.957 8  20078728.920    82219110.81848
  22769200.000   119653037.806 7  22769199.080    93236174.32446
 14  1  8  1 25 30.0000000  0  7G02G31G25G14G21G29G12
  23739620.440   124752547.170 7  23739617.100    97209765.50946
  21842776.440   114784566.425 8  21842774.860    89442522.57247
  20737658.500   108977180.229 8  20737660.440    84917331.04748
  22837750.360   120013172.118 7  22837750.020    93516765.74146
  23659601.280   124332075.103 6  23659601.940    96882149.69746
  20080314.520   105522831.678 8  20080314.220    82225602.29748
  22781536.080   119717864.480 7  22781535.120    93286688.59746
 14  1  8  1 26  0.0000000  0  7G02G31G25G14G21G29G12
  23750076.660   124807495.963 7  23750073.620    97252582.74246
  21829601.120   114715330.276 8  21829599.680    89388572.33047
  20741049.360   108994999.400 8  20741051.340    84931216.11248
  22851673.820   120086340.431 7  22851673.780    93573779.99346
  23642253.560   124240912.372 6  23642254.380    96811113.81246
  20081985.380   105531612.435 8  20081985.140    82232444.45048
  22793895.520   119782813.760 7  22793894.560    93337298.41146
 14  1  8  1 26 30.0000000  0  7G02G31G25G14G21G29G12
  23760611.860   124862859.774 7  23760609.000    97295723.35646
  21816489.360   114646427.969 8  21816488.080    89334882.22947
  20744483.580   109013046.629 8  20744485.680    84945278.87348
  22865653.220   120159802.537 7  22865653.240    93631023.15446
  23624925.280   124149851.088 6  23624926.180    96740156.98145
  20083740.800   105540837.271 8  20083740.580    82239632.63848
  22806277.460   119847881.320 7  22806276.600    93388000.39646
 14  1  8  1 27  0.0000000  0  7G02G31G25G14G21G29G12
  23771226.360   124918639.500 7  23771223.360    97339188.06546
  21803442.120   114577864.302 8  21803440.920    89281455.99347
  20747961.680   109031324.704 8  20747963.960    84959521.52348
  22879688.260   120233557.212 7  22879688.200    93688494.31946
  23607617.180   124058896.052 6  23607618.300    96669283.01046
  20085580.920   105550507.261 8  20085580.760    82247167.69448
  22818682.420   119913069.665 7  22818681.700    93438796.48846
 14  1  8  1 27 30.0000000  0  7G02G31G25G14G21G29G12
  23781919.960   124974834.293 7  23781916.780    97382976.19745
  21790459.960   114509642.586 8  21790458.740    89228296.21247
  20751483.960   109049834.823 8  20751486.320    84973944.98648
  22893778.660   120307602.530 7  22893778.400    93746191.93446
  23590329.940   123968050.585 6  23590331.160    96598494.36145
  20087505.780   105560622.364 8  20087505.600    82255049.58748
  22831110.460   119978379.327 7  22831109.800    93489687.12046
 14  1  8  1 28  0.0000000  0  7G02G31G25G14G21G29G12
  23792692.320   125031442.867 7  23792689.160    97427086.77646
  21777543.260   114441765.195 8  21777542.120    89175404.74947
  20755050.580   109068577.519 8  20755052.860    84988549.68248
  22907923.720   120381935.742 7  22907923.460    93804113.90046
  23573064.140   123877317.729 6  23573065.300    96527793.46546
  20089515.140   105571181.262 8  20089514.820    82263277.30048
  22843561.700   120043811.006 7  22843561.120    93540672.82546
 14  1  8  1 28 30.0000000  0  7G02G31G25G14G21G29G12
  23803542.960   125088463.111 7  23803539.860    97471518.14346
  21764692.480   114374234.311 8  21764691.500    89122783.28947
  20758661.540   109087552.814 8  20758663.680    85003335.60748
  22922122.920   120456553.323 7  22922122.660    93862257.42846
  23555820.260   123786699.629 6  23555821.280    96457181.97946
  20091608.660   105582182.455 8  20091608.260    82271849.65148
  22856036.180   120109364.339 7  22856035.520    93591753.33246
 14  1  8  1 29  0.0000000  0  7G02G31G25G14G21G29G12
  23814471.300   125145892.093 7  23814468.440    97516267.99346
  21751907.880   114307050.369 8  21751906.880    89070432.16647
  20762316.480   109106759.264 8  20762318.500    85018301.66348
  22936375.420   120531450.737 7  22936375.160    93920619.02145
  23538598.340   123696197.027 6  23538599.200    96386660.52745
  20093785.760   105593622.865 8  20093785.300    82280764.25348
  22868533.360   120175037.657 7  22868532.560    93642927.33046
 14  1  8  1 29 30.0000000  0  7G02G31G25G14G21G29G12
  23825477.340   125203729.415 7  23825474.540    97561336.00846
  21739190.060   114240217.222 8  21739188.940    89018354.39147
  20766015.800   109126198.739 8  20766017.680    85033449.29948
  22950681.020   120606626.345 7  22950680.700    93979197.38846
  23521399.060   123605813.536 6  23521399.760    96316231.85345
  20096046.480   105605502.771 8  20096045.940    82290021.31548
  22881053.640   120240832.746 7  22881053.040    93694196.21846
 14  1  8  1 30  0.0000000  0  7G02G31G25G14G21G29G12
  23836560.540   125261972.673 7  23836557.800    97606720.35746
  21726539.340   114173736.720 8  21726538.080    88966551.39847
  20769759.300   109145870.869 8  20769761.120    85048778.22448
  22965038.860   120682076.615 7  22965038.300    94037989.78345
  23504222.820   123515551.255 7  23504223.400    96245897.64945
  20098390.320   105617819.873 8  20098389.800    82299619.03848
  22893596.840   120306748.487 7  22893596.420    93745559.11746
 14  1  8  1 30 30.0000000  0  7G02G31G25G14G21G29G12
  23847720.860   125320620.974 7  23847718.020    97652420.31346
  21713956.220   114107611.720 8  21713954.940    88915025.43447
  20773547.300   109165776.731 8  20773549.080    85064289.27848
  22979448.420   120757799.106 7  22979447.820    94096994.29546
  23487070.280   123425413.513 7  23487070.780    96175660.49246
  20100817.220   105630573.736 8  20100816.800    82309557.10348
  22906163.380   120372786.134 7  22906163.060    93797016.99346
 14  1  8  1 31  0.0000000  0  7G02G31G25G14G21G29G12
  23858957.680   125379670.622 7  23858954.820    97698433.03046
  21701440.820   114041842.660 8  21701439.540    88863776.81247
  20777379.320   109185914.560 8  20777381.260    85079981.08548
  22993908.760   120833788.774 7  22993908.240    94156206.99746
  23469941.440   123335400.205 6  23469941.760    96105520.27246
  20103326.600   105643761.003 8  20103326.220    82319832.89148
  22918752.800   120438943.460 7  22918752.520    93848568.13246
 14  1  8  1 31 30.0000000  0  7G02G31G25G14G21G29G12
  23870271.200   125439123.069 7  23870268.240    97744759.59246
  21688994.140   113976434.905 8  21688992.940    88812809.74647
  20781256.000   109206287.799 8  20781258.180    85095856.32648
  23008419.820   120910045.211 7  23008419.460    94215627.56946
  23452837.400   123245517.340 7  23452837.520    96035481.68946
  20105918.860   105657383.634 8  20105918.500    82330447.93948
  22931365.560   120505223.283 7  22931365.260    93900214.73746
 14  1  8  1 32  0.0000000  0  7G02G31G25G14G21G29G12
  23881660.700   125498975.278 6  23881657.860    97791397.67446
  21676616.400   113911389.508 8  21676615.220    88762125.01947
  20785177.440   109226895.744 8  20785179.820    85111914.45348
  23022980.980   120986564.503 7  23022980.780    94275252.96046
  23435758.400   123155766.347 7  23435758.340    95965545.88946
  20108593.360   105671438.634 8  20108593.060    82341399.88148
  22944001.540   120571625.176 7  22944001.200    93951956.46346
 14  1  8  1 32 30.0000000  0  7G02G31G25G14G21G29G12
  23893126.260   125559227.439 7  23893123.640    97838347.39546
  21664308.400   113846710.350 8  21664307.100    88711725.66347
  20789143.940   109247740.284 8  20789146.460    85128156.93748
  23037591.900   121063345.374 7  23037592.000    94335082.16346
  23418705.240   123066151.260 7  23418705.080    95895716.00546
  20111350.260   105685926.546 8  20111350.020    82352689.16548
  22956660.960   120638150.349 7  22956660.520    94003794.22946
 14  1  8  1 33  0.0000000  0  7G02G31G25G14G21G29G12
  23904666.960   125619873.701 7  23904664.100    97885604.23346
  21652069.840   113782396.160 8  21652068.520    88661610.71847
  20793154.860   109268817.671 8  20793157.380    85144580.86548
  23052251.260   121140380.334 7  23052251.340    94395109.40746
  23401677.500   122976670.109 7  23401677.160    95825990.47546
  20114188.460   105700841.771 8  20114188.300    82364311.41448
  22969342.900   120704795.040 7  22969342.580    94055725.12546
 14  1  8  1 33 30.0000000  0  7G02G31G25G14G21G29G12
  23916282.900   125680915.499 7  23916279.520    97933169.25746
  21639901.620   113718451.750 8  21639900.360    88611783.91047
  20797210.820   109290131.475 8  20797213.320    85161189.02248
  23066958.900   121217669.851 7  23066959.040    94455334.95946
  23384676.340   122887328.541 7  23384675.920    95756373.69846
  20117108.420   105716186.170 8  20117108.280    82376268.08448
  22982048.220   120771562.522 7  22982048.000    94107751.71646
 14  1  8  1 34  0.0000000  0  7G02G31G25G14G21G29G12
  23927973.320   125742349.176 6  23927969.600    97981039.63846
  21627803.900   113654877.986 8  21627802.700    88562245.91247
  20801311.580   109311680.216 8  20801313.840    85177980.22848
  23081714.100   121295208.832 7  23081714.000    94515754.93046
  23367702.040   122798127.938 7  23367701.420    95686866.75646
  20120109.340   105731956.237 8  20120109.200    82388556.45248
  22994776.660   120838451.018 7  22994776.420    94159872.60146
 14  1  8  1 34 30.0000000  0  7G02G31G25G14G21G29G12
  23939738.260   125804175.722 6  23939734.680    98029216.15346
  21615777.660   113591679.813 8  21615776.500    88513000.60147
  20805457.640   109333466.967 8  20805459.640    85194956.89948
  23096516.640   121372996.828 7  23096516.400    94576368.91845
  23350755.460   122709073.061 7  23350754.800    95617473.37946
  20123191.620   105748153.654 8  20123191.440    82401177.81648
  23007528.640   120905463.086 7  23007528.500    94212089.76846
 14  1  8  1 35  0.0000000  0  7G02G31G25G14G21G29G12
  23951576.940   125866390.570 6  23951573.840    98077695.21646
  21603822.900   113528856.629 8  21603821.520    88464047.46247
  20809648.460   109355489.181 8  20809650.320    85212117.06048
  23111365.460   121451028.022 7  23111365.220    94637172.43046
  23333836.560   122620163.434 7  23333835.820    95548193.16646
  20126354.460   105764774.146 8  20126354.240    82414128.84548
  23020303.740   120972596.243 7  23020303.520    94264401.30346
 14  1  8  1 35 30.0000000  0  7G02G31G25G14G21G29G12
  23963489.380   125928992.268 6  23963486.820    98126475.75846
  21591939.860   113466410.969 8  21591938.400    88415388.50647
  20813884.180   109377747.470 8  20813885.960    85229461.16848
  23126260.020   121529299.574 7  23126259.800    94698163.19846
  23316945.760   122531401.523 7  23316944.860    95479028.04545
  20129597.500   105781816.148 8  20129597.240    82427408.32948
  23033101.900   121039850.623 7  23033101.540    94316807.29346
 14  1  8  1 36  0.0000000  0  7G02G31G25G14G21G29G12
  23975475.040   125991976.766 6  23975472.720    98175554.58446
  21580128.600   113404343.117 8  21580127.280    88367023.96847
  20818164.400   109400240.189 8  20818166.060    85246987.95247
  23141199.320   121607806.278 7  23141199.240    94759337.22845
  23300083.200   122442788.404 7  23300082.240    95409978.89046
  20132920.120   105799276.187 8  20132919.780    82441013.55648
  23045922.760   121107224.313 7  23045922.200    94369306.24446
 14  1  8  1 36 30.0000000  0  7G02G31G25G14G21G29G12
  23987534.020   126055346.157 7  23987531.720    98224933.31746
  21568390.520   113342659.072 8  21568389.140    88318958.46847
  20822489.900   109422971.278 8  20822491.540    85264700.47747
  23156183.540   121686548.877 7  23156183.640    94820695.07246
  23283250.100   122354329.835 7  23283249.020    95341050.15145
  20136322.760   105817156.850 8  20136322.380    82454946.53048
  23058766.800   121174720.433 7  23058766.260    94421900.60246
 14  1  8  1 37  0.0000000  0  7G02G31G25G14G21G29G12
  23999665.640   126119097.914 6  23999663.360    98274609.99346
  21556725.700   113281360.147 8  21556724.360    88271193.07747
  20826860.700   109445940.665 8  20826862.540    85282598.69248
  23171211.960   121765523.539 7  23171212.140    94882233.71846
  23266446.760   122266027.829 7  23266445.620    95272243.41846
  20139805.040   105835455.924 8  20139804.600    82469205.53648
  23071634.300   121242339.788 7  23071633.800    94474590.97246
 14  1  8  1 37 30.0000000  0  7G02G31G25G14G21G29G12
  24011869.220   126183227.426 6  24011866.900    98324581.02546
  21545134.240   113220446.259 8  21545132.980    88223727.71547
  20831276.320   109469145.719 8  20831278.420    85300680.55548
  23186283.340   121844724.231 7  23186283.540    94943948.51446
  23249673.080   122177881.897 7  23249671.900    95203558.28746
  20143366.060   105854168.834 8  20143365.580    82483787.02948
  23084524.700   121310079.040 7  23084524.260    94527374.78646
 14  1  8  1 38  0.0000000  0  7G02G31G25G14G21G29G12
  24024144.900   126247735.083 7  24024142.400    98374846.72846
  21533616.720   113159921.388 8  21533615.400    88176565.47447
  20835737.220   109492588.858 8  20835739.560    85318947.93148
  23201397.600   121924150.077 6  23201397.820    95005838.75946
  23232929.920   122089896.466 7  23232928.780    95134998.22646
  20147005.960   105873296.759 8  20147005.500    82498691.90848
  23097438.260   121377939.996 7  23097437.760    94580253.42446
 14  1  8  1 38 30.0000000  0  7G02G31G25G14G21G29G12
  24036492.600   126312621.140 6  24036489.780    98425407.27545
  21522174.080   113099790.059 8  21522172.740    88129709.88347
  20840244.120   109516272.688 8  20840246.440    85337402.84848
  23216554.380   122003799.896 6  23216554.840    95067903.54946
  23216218.060   122002076.191 7  23216216.940    95066566.84846
  20150724.900   105892840.062 8  20150724.460    82513920.46248
  23110375.320   121445924.826 7  23110374.920    94633228.59046
 14  1  8  1 39  0.0000000  0  7G02G31G25G14G21G29G12
  24048911.280   126377880.611 7  24048908.080    98476258.80145
  21510806.180   113040051.727 8  21510804.960    88083160.53847
  20844796.400   109540194.668 8  20844798.640    85356043.34648
  23231752.820   122083667.961 6  23231753.160    95130138.37846
  23199537.460   121914420.560 7  23199536.600    94998263.78746
  20154521.960   105912794.120 8  20154521.580    82529469.08948
  23123335.540   121514031.202 7  23123335.040    94686298.47546
 14  1  8  1 39 30.0000000  0  7G02G31G25G14G21G29G12
  24061400.660   126443512.113 6  24061397.260    98527400.23146
  21499513.540   112980708.656 8  21499512.400    88036919.18547
  20849394.120   109564355.298 8  20849396.280    85374869.80448
  23246992.380   122163751.217 7  23246992.520    95192540.85945
  23182888.900   121826932.841 7  23182888.280    94930091.55546
  20158396.940   105933157.667 8  20158396.620    82545336.79148
  23136318.880   121582259.057 7  23136318.260    94739463.05746
 14  1  8  1 40  0.0000000  0  7G02G31G25G14G21G29G12
  24073960.360   126509514.326 6  24073957.240    98578830.52446
  21488296.760   112921763.814 8  21488295.660    87990988.14447
  20854037.520   109588755.763 8  20854039.580    85393883.14148
  23262272.560   122244047.634 7  23262272.380    95255109.45446
  23166272.880   121739615.810 7  23166272.360    94862052.34346
  20162349.740   105953930.073 8  20162349.440    82561523.08848
  23149325.580   121650609.343 7  23149325.020    94792723.01346
 14  1  8  1 40 30.0000000  0  7G02G31G25G14G21G29G12
  24086590.600   126575887.970 6  24086588.080    98630550.21246
  21477156.620   112863222.143 8  21477155.560    87945371.26247
  20858727.080   109613398.923 8  20858729.080    85413085.59148
  23277593.080   122324556.309 7  23277592.760    95317843.43545
  23149690.320   121652474.250 7  23149689.760    94794149.83046
  20166380.480   105975112.041 8  20166380.220    82578028.50848
  23162355.900   121719084.536 7  23162355.540    94846080.27946
 14  1  8  1 41  0.0000000  0  7G02G31G25G14G21G29G12
  24099290.340   126642626.403 6  24099288.180    98682554.16346
  21466092.680   112805080.670 8  21466091.560    87900066.21347
  20863461.920   109638280.237 8  20863463.820    85432473.62248
  23292952.320   122405269.282 7  23292951.920    95380736.63645
  23133140.760   121565505.982 7  23133140.060    94726382.38046
  20170488.020   105996697.454 8  20170487.760    82594848.30248
  23175409.140   121787680.169 7  23175408.860    94899531.40246
 14  1  8  1 41 30.0000000  0  7G02G31G25G14G21G29G12
  24112059.760   126709730.512 6  24112057.720    98734843.05546
  21455105.820   112747344.783 8  21455104.820    87855077.22547
  20868242.560   109663402.793 8  20868244.460    85452049.63348
  23308350.180   122486185.892 6  23308349.860    95443788.51846
  23116625.160   121478716.160 7  23116624.320    94658753.97046
  20174672.600   106018687.502 8  20174672.280    82611983.40648
  23188485.800   121856398.607 7  23188485.760    94953078.22246
 14  1  8  1 42  0.0000000  0  7G02G31G25G14G21G29G12
  24124898.280   126777197.214 7  24124896.360    98787414.49346
  21444196.460   112690015.439 8  21444195.280    87810404.99447
  20873068.980   109688766.087 8  20873070.980    85471813.23348
  23323786.000   122567302.470 7  23323785.860    95506996.19845
  23100143.760   121392105.779 7  23100142.840    94591265.39446
  20178933.700   106041079.594 8  20178933.320    82629431.79448
  23201585.720   121925238.792 7  23201585.700    95006719.89646
 14  1  8  1 42 30.0000000  0  7G02G31G25G14G21G29G12
  24137805.080   126845021.797 6  24137803.180    98840264.80946
  21433364.300   112633092.075 8  21433363.100    87766049.13847
  20877940.680   109714367.488 8  20877942.740    85491762.37247
  23339258.880   122648612.688 6  23339258.780    95570354.80545
  23083696.600   121305674.979 7  23083695.640    94523916.73946
  20183270.520   106063869.608 8  20183270.120    82647190.24448
  23214708.500   121994198.646 7  23214708.320    95060454.83146
 14  1  8  1 43  0.0000000  0  7G02G31G25G14G21G29G12
  24150780.740   126913208.289 6  24150778.600    98893397.15145
  21422610.960   112576582.634 8  21422609.800    87722015.81447
  20882858.920   109740213.457 8  20882861.060    85511902.08547
  23354769.120   122730119.686 6  23354768.960    95633866.67846
  23067285.320   121219432.453 7  23067284.220    94456714.77346
  20187683.800   106087061.412 8  20187683.420    82665261.77648
  23227855.040   122063283.978 7  23227854.840    95114287.53446
 14  1  8  1 43 30.0000000  0  7G02G31G25G14G21G29G12
  24163824.360   126981752.626 6  24163821.820    98946808.28945
  21411936.440   112520487.432 8  21411935.260    87678305.26947
  20887823.300   109766301.895 8  20887825.480    85532230.72747
  23370315.680   122811817.652 7  23370315.520    95697527.37546
  23050909.760   121133377.797 7  23050908.560    94389659.19146
  20192172.880   106110651.427 8  20192172.500    82683643.59748
  23241024.860   122132492.030 7  23241024.620    95168215.86946
 14  1  8  1 44  0.0000000  0  7G02G31G25G14G21G29G12
  24176935.280   127050651.530 6  24176932.480    99000495.72446
  21401340.880   112464806.873 8  21401339.580    87634917.80747
  20892833.820   109792632.250 8  20892835.920    85552747.88547
  23385898.000   122893702.962 6  23385897.760    95761334.08645
  23034570.220   121047512.270 7  23034569.100    94322751.01046
  20196737.260   106134637.017 8  20196736.840    82702333.66148
  23254217.940   122201822.016 7  23254217.660    95222239.21746
 14  1  8  1 44 30.0000000  0  7G02G31G25G14G21G29G12
  24190113.700   127119905.172 6  24190110.640    99054459.57345
  21390825.060   112409545.816 8  21390823.800    87591857.24747
  20897890.880   109819207.043 8  20897892.860    85573455.51047
  23401515.660   122975774.351 6  23401515.580    95825285.77146
  23018267.560   120961840.738 7  23018266.400    94255993.97246
  20201377.000   106159018.684 8  20201376.540    82721332.35648
  23267434.740   122271276.784 7  23267434.440    95276359.79646
 14  1  8  1 45  0.0000000  0  7G02G31G25G14G21G29G12
  24203358.580   127189509.281 6  24203355.620    99108696.52346
  21380388.880   112354703.370 8  21380387.600    87549122.86547
  20902994.020   109846023.838 8  20902995.980    85594351.70848
  23417167.560   123058025.861 6  23417167.680    95889377.81446
  23002001.740   120876362.481 7  23002000.520    94189387.56146
  20206091.120   106183791.646 8  20206090.700    82740635.96348
  23280674.800   122340853.083 7  23280674.340    95330575.08546
 14  1  8  1 45 30.0000000  0  7G02G31G25G14G21G29G12
  24216670.080   127259464.198 6  24216667.520    99163206.80046
  21370033.200   112300284.062 8  21370031.940    87506718.20547
  20908143.720   109873085.363 8  20908145.660    85615438.59447
  23432853.520   123140456.553 6  23432853.780    95953609.49746
  22985773.580   120791082.383 7  22985772.340    94122935.55346
  20210879.980   106208957.302 8  20210879.600    82760245.57148
  23293938.420   122410553.635 7  23293938.140    95384887.18346
 14  1  8  1 46  0.0000000  0  7G02G31G25G14G21G29G12
  24230047.480   127329763.251 6  24230045.100    99217985.28945
  21359757.600   112246285.640 8  21359756.440    87464641.51947
  20913339.240   109900387.496 8  20913341.100    85636712.97547
  23448572.220   123223059.220 6  23448572.640    96017975.17346
  22969582.740   120705998.829 7  22969581.540    94056636.72546
  20215742.420   106234509.588 8  20215742.080    82780156.44248
  23307224.680   122480373.481 7  23307224.480    95439292.24646
 14  1  8  1 46 30.0000000  0  7G02G31G25G14G21G29G12
  24243490.660   127400406.616 6  24243488.220    99273032.04545
  21349563.040   112192712.798 8  21349561.860    87422896.45347
  20918581.040   109927932.910 8  20918582.820    85658176.92747
  23464323.500   123305832.800 6  23464323.880    96082474.00745
  22953430.080   120621116.167 7  22953428.860    93990494.39946
  20220678.520   106260449.058 8  20220678.280    82800369.01848
  23320534.120   122550315.526 7  23320534.080    95493792.55146
 14  1  8  1 47  0.0000000  0  7G02G31G25G14G21G29G12
  24256999.220   127471392.923 6  24256996.580    99328346.05445
  21339449.920   112139567.938 8  21339448.640    87381484.86847
  20923869.240   109955722.551 8  20923871.100    85679831.18147
  23480106.900   123388774.657 6  23480107.220    96147103.99245
  22937316.140   120536437.267 7  22937314.920    93924510.86646
  20225688.100   106286774.673 8  20225687.900    82820882.48648
  23333866.940   122620380.412 7  23333866.980    95548388.55546
 14  1  8  1 47 30.0000000  0  7G02G31G25G14G21G29G12
  24270572.720   127542720.675 6  24270569.700    99383926.09245
  21329418.620   112086853.143 8  21329417.280    87340408.39847
  20929204.040   109983756.965 8  20929205.980    85701676.16948
  23495921.820   123471882.091 6  23495922.120    96211862.98346
  22921241.480   120451964.881 7  22921240.340    93858688.24546
  20230770.820   106313484.629 8  20230770.600    82841695.44748
  23347223.220   122690567.885 7  23347223.280    95603080.06846
 14  1  8  1 48  0.0000000  0  7G02G31G25G14G21G29G12
  24284210.700   127614387.438 6  24284207.280    99439770.31945
  21319469.560   112034570.653 8  21319468.180    87299668.79447
  20934585.440   110012036.434 8  20934587.480    85723712.10848
  23511767.660   123555151.725 6  23511767.780    96276748.35945
  22905206.440   120367701.081 7  22905205.440    93793028.16346
  20235926.300   106340576.996 8  20235926.040    82862806.37848
  23360602.960   122760878.160 7  23360602.960    95657867.26146
 14  1  8  1 48 30.0000000  0  7G02G31G25G14G21G29G12
  24297913.000   127686393.290 6  24297909.280    99495878.73446
  21309603.500   111982724.437 8  21309602.220    87259269.15047
  20940013.860   110040563.215 8  20940016.020    85745940.75748
  23527644.100   123638582.397 6  23527644.140    96341759.22346
  22889212.060   120283650.593 7  22889211.140    93727534.27546
  20241154.760   106368052.851 8  20241154.420    82884216.13848
  23374006.360   122831312.998 7  23374006.280    95712751.52646
 14  1  8  1 49  0.0000000  0  7G02G31G25G14G21G29G12
  24311679.040   127758734.663 6  24311675.020    99552248.62545
  21299820.620   111931315.089 8  21299819.380    87219209.91547
  20945489.100   110069336.187 8  20945491.300    85768361.25447
  23543550.080   123722169.578 6  23543550.220    96406892.01945
  22873258.380   120199814.015 7  22873257.680    93662207.07946
  20246455.520   106395908.670 8  20246455.180    82905921.96848
  23387433.200   122901871.361 7  23387433.120    95767732.03146
 14  1  8  1 49 30.0000000  0  7G02G31G25G14G21G29G12
  24325508.300   127831408.897 6  24325504.240    99608877.88046
  21290121.220   111880344.151 8  21290120.020    87179492.30347
  20951011.120   110098355.018 8  20951013.340    85790973.32347
  23559485.160   123805909.230 6  23559485.280    96472143.64945
  22857345.780   120116192.942 7  22857345.200    93597047.81446
  20251828.180   106424142.239 8  20251827.800    82927922.14348
  23400883.340   122972552.662 7  23400883.300    95822808.36446
 14  1  8  1 50  0.0000000  0  7G02G31G25G14G21G29G12
  24339400.560   127904414.514 6  24339396.900    99665765.33946
  21280505.700   111829814.006 8  21280504.520    87140118.16147
  20956580.160   110127620.718 8  20956582.340    85813777.74847
  23575448.880   123889798.927 6  23575448.900    96537512.21145
  22841474.740   120032790.413 7  22841474.260    93532058.85346
  20257272.480   106452752.060 8  20257272.020    82950215.51148
  23414356.980   123043357.066 7  23414356.920    95877980.61846
 14  1  8  1 50 30.0000000  0  7G02G31G25G14G21G29G12
  24353355.360   127977748.468 6  24353352.560    99722908.65745
  21270974.260   111779725.701 8  21270973.060    87101088.31747
  20962196.120   110157132.695 8  20962198.200    85836774.08147
  23591440.400   123973834.790 6  23591440.440    96602994.62445
  22825645.640   119949608.184 7  22825645.220    93467241.55246
  20262787.840   106481735.759 8  20262787.440    82972800.20748
  23427853.820   123114284.177 7  23427853.920    95933248.48146
 14  1  8  1 51  0.0000000  0  7G02G31G25G14G21G29G12
  24367372.020   128051406.317 6  24367369.960    99780304.36745
  21261526.780   111730078.877 8  21261525.500    87062402.47647
  20967858.500   110186888.837 8  20967860.560    85859960.68947
  23607458.680   124058010.786 6  23607458.660    96668586.25045
  22809858.380   119866646.032 7  22809857.980    93402595.71946
  20268373.660   106511089.622 8  20268373.340    82995673.36048
  23441373.700   123185331.453 7  23441373.760    95988609.97846
 14  1  8  1 51 30.0000000  0  7G02G31G25G14G21G29G12
  24381451.000   128125390.823 6  24381449.280    99837954.60146
  21252164.620   111680880.570 8  21252163.300    87024066.13547
  20973568.360   110216894.359 8  20973570.420    85883341.60748
  23623503.900   124142328.939 6  23623503.980    96734288.67445
  22794114.260   119783910.975 7  22794114.020    93338126.85746
  20274030.500   106540816.475 8  20274030.200    83018837.14548
  23454917.340   123256503.627 7  23454917.320    96044068.77246
 14  1  8  1 52  0.0000000  0  7G02G31G25G14G21G29G12
  24395591.680   128199699.831 6  24395590.020    99895857.70145
  21242888.280   111632133.058 8  21242886.860    86986081.04947
  20979325.740   110247149.656 8  20979327.860    85906917.15147
  23639575.420   124226786.014 6  23639575.800    96800099.34345
  22778413.820   119701405.236 7  22778413.620    93273836.65946
  20279758.060   106570914.904 8  20279757.800    83042290.46448
  23468484.760   123327800.861 7  23468484.760    96099625.04246
 14  1  8  1 52 30.0000000  0  7G02G31G25G14G21G29G12
  24409793.000   128274327.478 6  24409790.980    99954009.08646
  21233697.180   111583833.775 8  21233695.820    86948445.25047
  20985130.080   110277651.203 8  20985132.120    85930684.57447
  23655672.180   124311375.093 6  23655672.700    96866012.82945
  22762756.800   119619127.753 7  22762756.660    93209724.36346
  20285555.220   106601379.203 8  20285554.920    83066028.87148
  23482075.400   123399219.584 7  23482075.360    96155275.97246
 14  1  8  1 53  0.0000000  0  7G02G31G25G14G21G29G12
  24424054.700   128349272.376 6  24424052.080   100012407.71045
  21224591.860   111535985.424 8  21224590.600    86911160.82547
  20990981.420   110308399.863 8  20990983.380    85954644.56347
  23671793.780   124396093.700 6  23671794.040    96932027.28745
  22747143.720   119537080.910 7  22747143.600    93145791.76946
  20291421.780   106632208.090 8  20291421.460    83090051.38048
  23495689.220   123470759.766 7  23495689.180    96211021.54846
 14  1  8  1 53 30.0000000  0  7G02G31G25G14G21G29G12
  24438376.740   128424535.218 6  24438373.620   100071054.10745
  21215573.340   111488593.023 8  21215572.120    86874231.67547
  20996880.420   110339398.805 8  20996882.300    85978799.56247
  23687940.120   124480941.435 6  23687939.900    96998142.36445
  22731575.700   119455270.145 7  22731575.560    93082043.12546
  20297357.860   106663402.382 8  20297357.540    83114358.62148
  23509326.560   123542424.531 7  23509326.560    96266864.19846
 14  1  8  1 54  0.0000000  0  7G02G31G25G14G21G29G12
  24452758.700   128500113.795 6  24452755.460   100129946.46745
  21206642.040   111441658.691 8  21206640.840    86837659.46847
  21002827.020   110370648.276 8  21002828.900    86003149.78647
  23704110.240   124565914.809 6  23704109.900    97064355.32645
  22716053.000   119373697.270 7  22716052.760    93018479.86046
  20303363.220   106694960.497 8  20303362.860    83138949.37048
  23522987.560   123614213.899 7  23522987.700    96322803.95546
 14  1  8  1 54 30.0000000  0  7G02G31G25G14G21G29G12
  24467200.200   128576004.983 6  24467197.360   100189082.40946
  21197798.020   111395182.952 8  21197796.860    86801444.60747
  21008821.160   110402147.862 8  21008823.140    86027694.91547
  23720303.340   124651010.087 6  23720303.020    97130663.26545
  22700576.000   119292364.387 7  22700575.620    92955103.62046
  20309437.320   106726879.979 8  20309436.980    83163821.69048
  23536672.160   123686127.270 7  23536672.340    96378840.33446
 14  1  8  1 55  0.0000000  0  7G02G31G25G14G21G29G12
  24481700.880   128652205.743 6  24481698.540   100248459.61546
  21189041.460   111349166.814 8  21189040.340    86765587.87148
  21014862.680   110433896.648 8  21014864.780    86052434.22247
  23736518.640   124736223.270 6  23736518.700    97197063.04945
  22685144.880   119211272.130 7  22685144.300    92891914.85446
  20315579.660   106759158.180 8  20315579.360    83188973.54148
  23550379.960   123758162.834 7  23550380.220    96434971.92146
 14  1  8  1 55 30.0000000  0  7G02G31G25G14G21G29G12
  24496259.500   128728710.554 6  24496257.740   100308073.73146
  21180372.100   111303608.828 8  21180370.960    86730088.14448
  21020951.120   110465891.892 8  21020953.280    86077365.57547
  23752755.400   124821547.565 6  23752755.520    97263549.47845
  22669759.260   119130419.207 7  22669758.460    92828912.60046
  20321789.280   106791790.151 8  20321789.020    83214401.04848
  23564110.740   123830318.100 7  23564110.900    96491196.80246
 14  1  8  1 56  0.0000000  0  7G02G31G25G14G21G29G12
  24510876.520   128805523.382 6  24510875.360   100367927.85746
  21171791.560   111258517.286 8  21171790.280    86694951.87448
  21027087.680   110498139.955 8  21027089.900    86102493.92847
  23769014.080   124906986.126 6  23769014.020    97330124.91945
  22654420.880   119049815.001 7  22654419.980    92766104.13846
  20328066.960   106824779.910 8  20328066.760    83240107.36348
  23577865.540   123902599.153 7  23577865.580    96547519.67546
 14  1  8  1 56 30.0000000  0  7G02G31G25G14G21G29G12
  24525551.160   128882639.926 6  24525550.440   100428018.65345
  21163299.600   111213891.564 8  21163298.320    86660178.58648
  21033271.980   110530638.902 8  21033274.180    86127817.77747
  23785293.560   124992533.620 6  23785293.140    97396785.21845
  22639129.660   118969459.147 7  22639128.780    92703489.19546
  20334412.040   106858123.497 8  20334411.820    83266089.37448
  23591643.600   123975003.465 6  23591643.660    96603938.57546
 14  1  8  1 57  0.0000000  0  7G02G31G25G14G21G29G12
  24540283.400   128960058.893 6  24540282.680   100488345.10445
  21154896.880   111169734.970 8  21154895.620    86625770.84747
  21039504.300   110563390.078 8  21039506.540    86153338.17147
  23801593.240   125078187.932 6  23801592.440    97463528.75146
  22623886.240   118889354.829 7  22623885.560    92641070.26046
  20340824.340   106891820.358 8  20340824.040    83292346.67248
  23605445.340   124047532.172 7  23605445.160    96660454.43846
 14  1  8  1 57 30.0000000  0  7G02G31G25G14G21G29G12
  24555072.680   129037776.598 6  24555071.520   100548904.34245
  21146583.380   111126047.154 8  21146582.060    86591728.38448
  21045784.380   110596392.161 8  21045786.660    86179054.06547
  23817912.160   125163943.960 6  23817911.320    97530351.55046
  22608690.720   118809502.642 7  22608690.240    92578847.78846
  20347303.060   106925866.387 8  20347302.720    83318876.04648
  23619270.340   124120183.410 6  23619270.040    96717065.80346
 14  1  8  1 58  0.0000000  0  7G02G31G25G14G21G29G12
  24569919.220   129115794.914 6  24569917.400   100609697.83145
  21138360.140   111082833.710 8  21138358.780    86558055.57548
  21052113.000   110629649.175 8  21052115.260    86204968.61647
  23834250.380   125249802.566 6  23834249.920    97597254.32445
  22593544.380   118729908.658 7  22593544.100    92516826.51346
  20353848.780   106960264.523 8  20353848.440    83345679.78448
  23633119.000   124192961.292 6  23633119.260    96773775.82246
 14  1  8  1 58 30.0000000  0  7G02G31G25G14G21G29G12
  24584821.640   129194106.559 6  24584819.260   100670719.92345
  21130226.720   111040092.121 8  21130225.320    86524750.43848
  21058489.300   110663156.811 8  21058491.560    86231078.45447
  23850606.420   125335755.870 6  23850606.380    97664230.84545
  22578446.760   118650570.437 7  22578446.580    92455004.52646
  20360460.320   106995008.397 8  20360459.980    83372752.94348
  23646991.040   124265860.855 6  23646991.740    96830580.62546
 14  1  8  1 59  0.0000000  0  7G02G31G25G14G21G29G12
  24599779.460   129272709.235 6  24599776.540   100731968.73745
  21122183.320   110997823.629 8  21122181.900    86491813.95548
  21064913.260   110696914.988 8  21064915.580    86257383.51447
  23866979.880   125421800.373 6  23866980.180    97731278.43345
  22563398.200   118571489.673 7  22563397.980    92393383.15246
  20367137.160   107030095.302 8  20367136.860    83400093.38648
  23660886.580   124338881.661 7  23660887.220    96887479.95946
 14  1  8  1 59 30.0000000  0  7G02G31G25G14G21G29G12
  24614792.260   129351601.325 6  24614789.200   100793443.10545
  21114230.380   110956030.705 8  21114228.940    86459248.03248
  21071385.060   110730924.834 8  21071387.520    86283884.68147
  23883370.580   125507933.797 6  23883370.940    97798395.32545
  22548399.280   118492669.530 7  22548398.960    92331964.87146
  20373879.100   107065524.473 8  20373878.840    83427700.52448
  23674805.560   124412024.661 6  23674805.760    96944474.45746
 14  1  8  2  0  0.0000000  0  7G02G31G25G14G21G29G12
  24629860.480   129430785.085 6  24629857.460   100855144.72245
  21106369.080   110914719.636 8  21106367.740    86427057.58148
  21077905.680   110765190.936 8  21077908.080    86310585.52447
  23899778.320   125594157.016 6  23899778.980    97865582.17645
  22533451.200   118414116.440 7  22533450.660    92270754.69346
  20380686.660   107101298.142 8  20380686.300    83455576.11348
  23688748.520   124485294.091 7  23688748.440    97001567.48545
 14  1  8  2  0 30.0000000  0  7G02G31G25G14G21G29G12
  24644982.860   129510253.739 6  24644980.120   100917068.32645
  21098599.000   110873887.672 8  21098597.660    86395240.47048
  21084474.340   110799709.036 8  21084476.640    86337482.73647
  23916201.840   125680462.720 6  23916202.900    97932833.28445
  22518553.380   118335828.025 7  22518552.720    92209750.74446
  20387558.660   107137410.465 8  20387558.220    83483715.58548
  23702714.760   124558685.465 7  23702714.400    97058755.56445
 14  1  8  2  1  0.0000000  0  7G02G31G25G14G21G29G12
  24660159.720   129590008.818 6  24660157.160   100979215.12745
  21090921.240   110833540.608 8  21090919.880    86363801.19148
  21091091.840   110834483.553 8  21091094.020    86364579.74847
  23932641.040   125766851.812 6  23932642.460    98000149.35445
  22503707.200   118257810.846 7  22503706.340    92148958.14546
  20394495.480   107173863.532 8  20394494.980    83512120.56448
  23716704.580   124632202.352 6  23716704.200    97116041.45446
 14  1  8  2  1 30.0000000  0  7G02G31G25G14G21G29G12
  24675390.240   129670045.363 6  24675387.620   101041581.22045
  21083335.420   110793676.792 8  21083334.000    86332738.47548
  21097757.520   110869511.441 8  21097759.620    86391874.20047
  23949094.940   125853317.724 6  23949096.580    98067525.31445
  22488912.380   118180063.345 7  22488911.360    92088375.67946
  20401496.040   107210651.789 8  20401495.500    83540786.73448
  23730717.540   124705841.868 6  23730717.260    97173422.90246
 14  1  8  2  2  0.0000000  0  7G02G31G25G14G21G29G12
  24690673.680   129750360.382 6  24690671.060   101104164.36845
  21075841.680   110754297.032 8  21075840.300    86302052.95548
  21104471.260   110904792.330 8  21104473.400    86419365.80047
  23965562.840   125939856.817 6  23965564.480    98134958.31144
  22474169.120   118102587.143 7  22474168.020    92028004.62346
  20408559.960   107247773.422 8  20408559.540    83569712.68048
  23744753.880   124779603.601 6  23744753.660    97230899.54446
 14  1  8  2  2 30.0000000  0  7G02G31G25G14G21G29G12
  24706009.940   129830954.102 6  24706007.440   101166964.65145
  21068440.900   110715405.710 8  21068439.540    86271748.02048
  21111233.660   110940329.030 8  21111235.860    86447056.72647
  23982044.700   126026468.478 6  23982045.900    98202447.79444
  22459478.360   118025387.099 7  22459477.240    91967848.75246
  20415687.440   107285228.619 8  20415687.060    83598898.54248
  23758813.960   124853489.547 6  23758813.840    97288472.97946
 14  1  8  2  3  0.0000000  0  7G02G31G25G14G21G29G12
  24721398.540   129911824.053 6  24721396.580   101229980.19846
  21061133.320   110677004.520 8  21061132.000    86241825.01548
  21118044.820   110976121.712 8  21118047.080    86474947.11447
  23998539.820   126113149.284 6  23998540.280    98269991.23045
  22444840.520   117948465.164 7  22444839.460    91907909.58846
  20422878.180   107323015.964 8  20422877.820    83628343.22848
  23772897.640   124927499.769 6  23772897.660    97346143.25646
 14  1  8  2  3 30.0000000  0  7G02G31G25G14G21G29G12
  24736839.280   129992967.353 6  24736837.620   101293208.75145
  21053919.320   110639094.610 8  21053917.920    86212284.81148
  21124904.640   111012170.162 8  21124906.940    86503036.81147
  24015047.240   126199895.760 6  24015047.280    98337585.76444
  22430255.980   117871823.128 7  22430255.080    91848188.53246
  20430131.540   107361132.486 8  20430131.200    83658044.41448
  23787004.820   125001633.374 7  23787004.680    97403909.67946
 14  1  8  2  4  0.0000000  0  7G02G31G25G14G21G29G12
  24752331.460   130074379.773 6  24752329.880   101356646.99245
  21046798.580   110601675.103 8  21046797.200    86183126.75148
  21131812.760   111048472.431 8  21131814.980    86531324.28547
  24031566.180   126286702.577 6  24031566.260    98405227.35144
  22415724.740   117795460.679 7  22415723.900    91788685.33546
  20437446.880   107399574.944 8  20437446.580    83687999.57648
  23801135.300   125075888.378 7  23801134.600    97461770.71945
 14  1  8  2  4 30.0000000  0  6G31G25G14G21G29G12
  21039770.780   110564744.083 8  21039769.480    86154349.32948
  21138768.460   111085024.902 8  21138770.720    86559806.72047
  24048095.160   126373562.538 6  24048095.520    98472910.30945
  22401246.360   117719375.905 7  22401245.500    91729398.52346
  20444823.000   107438336.873 8  20444822.720    83718203.67348
  23815288.120   125150260.759 7  23815287.120    97519723.19346
 14  1  8  2  5  0.0000000  0  6G31G25G14G21G29G12
  21032839.960   110528322.848 8  21032838.860    86125969.15648
  21145775.600   111121847.868 8  21145777.920    86588499.93047
  24064637.540   126460493.195 6  24064638.220    98540648.38945
  22386825.100   117643591.283 7  22386824.160    91670345.57946
  20452263.520   107477437.099 8  20452263.180    83748671.37948
  23829466.820   125224770.336 6  23829465.760    97577782.56845
 14  1  8  2  5 30.0000000  0  6G31G25G14G21G29G12
  21026002.620   110492392.358 8  21026001.560    86097971.36748
  21152830.280   111158920.701 8  21152832.620    86617387.84947
  24081188.760   126547469.718 6  24081189.600    98608422.20646
  22372457.320   117568088.092 7  22372456.380    91611511.92646
  20459764.100   107516853.026 8  20459763.720    83779385.09748
  23843667.680   125299396.440 6  23843666.480    97635932.78645
 14  1  8  2  6  0.0000000  0  6G31G25G14G21G29G12
  21019260.620   110456962.916 8  21019259.560    86070364.01248
  21159934.220   111196252.405 8  21159936.560    86646477.47647
  24097749.600   126634497.964 6  24097750.640    98676236.33445
  22358145.080   117492876.990 7  22358144.200    91552905.89646
  20467326.020   107556591.089 8  20467325.560    83810349.81948
  23857892.320   125374147.580 6  23857891.100    97694180.40745
 14  1  8  2  6 30.0000000  0  6G31G25G14G21G29G12
  21012613.500   110422032.265 8  21012612.480    86043145.31948
  21167086.780   111233839.506 8  21167089.080    86675766.12447
  24114319.040   126721571.292 6  24114319.800    98744085.54845
  22343888.120   117417956.406 7  22343887.260    91494526.22946
  20474948.200   107596645.658 8  20474947.740    83841561.16948
  23872140.060   125449019.951 6  23872139.080    97752522.50846
 14  1  8  2  7  0.0000000  0  6G31G25G14G21G29G12
  21006062.040   110387604.339 8  21006061.060    86016318.36548
  21174288.480   111271684.763 8  21174290.760    86705255.92947
  24130897.100   126808689.068 6  24130897.540    98811969.44145
  22329687.300   117343330.530 7  22329686.400    91436376.19446
  20482630.740   107637017.394 8  20482630.340    83873019.66348
  23886411.260   125524015.981 6  23886410.720    97810960.94646
 14  1  8  2  7 30.0000000  0  6G31G25G14G21G29G12
  20999606.240   110353678.965 8  20999605.280    85989883.00748
  21181539.080   111309786.642 8  21181541.240    86734945.70147
  24147482.780   126895846.480 6  24147482.900    98879884.19245
  22315542.640   117269000.019 7  22315541.760    91378456.32746
  20490373.100   107677703.258 8  20490372.700    83904722.92448
  23900705.660   125599133.912 6  23900705.480    97869494.37746
 14  1  8  2  8  0.0000000  0  6G31G25G14G21G29G12
  20993246.580   110320258.626 8  20993245.680    85963841.18548
  21188838.760   111348146.246 8  21188840.800    86764836.29447
  24164075.540   126983041.100 6  24164075.820    98947827.97645
  22301454.800   117194967.739 7  22301453.860    91320768.84846
  20498174.980   107718702.041 8  20498174.480    83936670.02548
  23915023.480   125674374.396 7  23915023.300    97928123.28445
 14  1  8  2  8 30.0000000  0  6G31G25G14G21G29G12
  20986983.580   110287345.958 8  20986982.600    85938194.94448
  21196187.740   111386765.032 8  21196189.800    86794928.83747
  24180674.940   127070271.013 6  24180675.840    99015799.18646
  22287424.200   117121236.588 7  22287423.280    91263316.02047
  20506036.160   107760012.674 8  20506035.540    83968860.12648
  23929364.940   125749738.455 6  23929364.560    97986848.50045
 14  1  8  2  9  0.0000000  0  6G31G25G14G21G29G12
  20980817.620   110254943.286 8  20980816.540    85912946.10448
  21203586.220   111425644.259 8  21203588.300    86825224.33147
  24197280.220   127157572.381 6  24197282.740    99083833.51945
  22273451.560   117047810.024 7  22273450.600    91206100.53447
  20513956.500   107801634.754 8  20513955.820    84001292.91048
  23943730.040   125825227.018 6  23943729.520    98045670.73346
 14  1  8  2  9 30.0000000  0  6G31G25G14G21G29G12
  20974748.020   110223047.178 8  20974746.820    85888091.99848
  21211033.340   111464779.147 8  21211035.440    86855719.04447
  24213891.140   127244860.882 6  24213892.880    99151850.37344
  22259536.320   116974685.134 7  22259535.380    91149120.11246
  20521934.700   107843561.022 8  20521934.120    84033962.72548
  23958117.820   125900835.207 6  23958117.280    98104586.20946
 14  1  8  2 10  0.0000000  0  6G31G25G14G21G29G12
  20968776.140   110191664.511 8  20968774.920    85863637.97048
  21218530.180   111504175.357 8  21218532.320    86886417.38447
  24230507.300   127332176.810 6  24230506.760    99219888.68845
  22245679.860   116901869.302 7  22245678.980    91092380.51747
  20529971.580   107885795.587 8  20529971.080    84066872.76348
  23972529.220   125976568.222 6  23972528.820    98163598.95046
 14  1  8  2 10 30.0000000  0  6G31G25G14G21G29G12
  20962902.460   110160797.859 8  20962901.220    85839586.02948
  21226077.020   111543834.411 8  21226079.300    86917320.53647
  24247128.160   127419518.752 6  24247127.700    99287947.22645
  22231882.860   116829365.672 7  22231882.020    91035884.19146
  20538067.040   107928337.713 8  20538066.580    84100022.47448
  23986964.480   126052427.126 6  23986964.220    98222709.76646
 14  1  8  2 11  0.0000000  0  6G31G25G14G21G29G12
  20957126.480   110130444.630 8  20957125.200    85815934.16048
  21233673.200   111583752.438 8  21233675.520    86948425.48247
  24263752.440   127506879.268 6  24263751.880    99356020.21645
  22218144.880   116757172.155 7  22218144.140    90979629.49846
  20546219.900   107971181.605 8  20546219.580    84133407.31948
  24001422.920   126128407.724 6  24001423.080    98281915.42246
 14  1  8  2 11 30.0000000  0  6G31G25G14G21G29G12
  20951448.600   110100607.087 8  20951447.320    85792684.12748
  21241318.820   111623930.418 8  21241321.100    86979732.98847
  24280379.640   127594255.944 6  24280379.140    99424105.74145
  22204466.520   116685291.681 7  22204465.840    90923618.75147
  20554429.940   108014325.725 8  20554429.760    84167026.10348
  24015904.920   126204511.024 6  24015905.140    98341216.66645
 14  1  8  2 12  0.0000000  0  6G31G25G14G21G29G12
  20945869.000   110071286.239 8  20945867.740    85769836.70048
  21249013.980   111664368.676 8  21249016.160    87011243.30647
  24297009.500   127681646.298 6  24297009.320    99492202.01645
  22190848.120   116613726.196 7  22190847.500    90867853.43847
  20562696.700   108057767.960 8  20562696.600    84200877.19648
  24030410.300   126280736.430 6  24030410.340    98400613.06845
 14  1  8  2 12 30.0000000  0  6G31G25G14G21G29G12
  20940387.860   110042482.648 8  20940386.580    85747392.34448
  21256758.460   111705066.290 8  21256760.560    87042955.73447
  24313641.240   127769045.838 6  24313641.340    99560305.45045
  22177289.880   116542476.583 7  22177289.180    90812334.26747
  20571019.960   108101506.821 8  20571019.840    84234959.42348
  24044938.840   126357083.267 6  24044938.680    98460104.08546
 14  1  8  2 13  0.0000000  0  6G31G25G14G21G29G12
  20935005.660   110014198.883 8  20935004.360    85725353.03948
  21264552.580   111746024.683 8  21264554.640    87074871.35547
  24330274.460   127856452.594 6  24330274.720    99628414.42345
  22163792.320   116471545.814 7  22163791.500    90757063.54746
  20579399.420   108145540.742 8  20579399.240    84269271.56948
  24059490.660   126433552.260 6  24059490.020    98519690.29946
 14  1  8  2 13 30.0000000  0  6G31G25G14G21G29G12
  20929722.960   109986437.918 8  20929721.720    85703721.12048
  21272396.720   111787245.772 8  21272398.720    87106991.67047
  24346908.840   127943865.439 6  24346909.300    99696528.18245
  22150356.140   116400937.689 7  22150355.180    90702044.24247
  20587834.960   108189869.451 8  20587834.760    84303813.42348
  24074066.000   126510145.311 6  24074064.980    98579373.16545
 14  1  8  2 14  0.0000000  0  6G31G25G14G21G29G12
  20924540.080   109959201.472 8  20924538.820    85682497.90948
  21280290.960   111828730.249 8  21280292.920    87139317.23247
  24363543.740   128031281.701 6  24363544.240    99764644.60645
  22136981.740   116330654.808 7  22136980.700    90647278.37047
  20596326.380   108234491.847 8  20596326.160    84338584.11848
  24088664.740   126586862.355 6  24088663.880    98639152.69646
 14  1  8  2 14 30.0000000  0  6G31G25G14G21G29G12
  20919456.800   109932488.694 8  20919455.540    85661682.75548
  21288234.960   111870476.156 8  21288236.920    87171846.50547
  24380178.380   128118696.155 6  24380178.780    99832759.62845
  22123669.140   116260696.757 7  22123668.020    90592765.60947
  20604872.920   108279404.202 8  20604872.700    84373580.76748
  24103286.480   126663700.989 6  24103285.920    98699026.92045
 14  1  8  2 15  0.0000000  0  6G31G25G14G21G29G12
  20914473.900   109906303.504 8  20914472.580    85641278.70748
  21296229.280   111912486.455 8  21296231.280    87204581.78847
  24396812.360   128206108.625 6  24396813.000    99900873.06944
  22110419.160   116191068.186 7  22110418.040    90538509.57747
  20613474.740   108324606.924 8  20613474.540    84408803.65948
  24117931.820   126740664.184 6  24117931.680    98758998.25546
 14  1  8  2 15 30.0000000  0  6G31G25G14G21G29G12
  20909591.160   109880644.435 8  20909589.780    85621284.62348
  21304273.420   111954758.601 8  21304275.460    87237521.11747
  24413444.760   128293513.397 6  24413445.980    99968980.51345
  22097231.680   116121767.981 7  22097230.600    90484509.41647
  20622131.000   108370095.712 8  20622130.800    84444249.45848
  24132600.400   126817749.351 6  24132600.760    98819064.57045
 14  1  8  2 16  0.0000000  0  6G31G25G14G21G29G12
  20904808.680   109855512.162 8  20904807.320    85601701.03848
  21312367.300   111997292.357 8  21312369.340    87270664.30247
  24430075.120   128380906.946 6  24430076.580   100037079.23645
  22084107.120   116052797.845 7  22084106.020    90430766.46547
  20630841.340   108415868.403 8  20630841.020    84479916.48348
  24147292.140   126894955.347 6  24147292.520    98879225.11145
 14  1  8  2 16 30.0000000  0  6G31G25G14G21G29G12
  20900127.120   109830910.306 8  20900125.760    85582530.75548
  21320511.480   112040090.372 8  21320513.480    87304013.39547
  24446703.160   128468288.396 6  24446705.080   100105168.53445
  22071046.280   115984162.274 7  22071045.100    90377284.21547
  20639605.600   108461924.853 8  20639605.200    84515804.62248
  24162007.460   126972284.568 6  24162007.660    98939481.62045
 14  1  8  2 17  0.0000000  0  6G31G25G14G21G29G12
  20895546.300   109806838.108 8  20895544.900    85563773.19448
  21328705.560   112083150.647 8  21328707.600    87337566.84647
  24463328.000   128555652.940 6  24463330.020   100173244.64445
  22058049.020   115915860.993 7  22058047.840    90324062.45947
  20648423.140   108508261.648 8  20648422.760    84551911.22248
  24176745.940   127049734.896 6  24176745.740    98999832.52545
 14  1  8  2 17 30.0000000  0  5G31G25G14G21G29
  20891067.100   109783299.617 8  20891065.680    85545431.50448
  21336950.060   112126476.174 8  21336952.220    87371326.99047
  24479949.640   128643000.508 6  24479951.840   100241307.50244
  22045116.200   115847898.502 7  22045115.100    90271104.68847
  20657294.180   108554880.053 8  20657293.880    84588237.25048
 14  1  8  2 18  0.0000000  0  5G31G25G21G29G12
  20886685.460   109760273.920 8  20886684.040    85527489.39648
  21345240.960   112170045.412 8  21345243.180    87405277.03047
  22032243.960   115780254.651 7  22032242.960    90218395.20047
  20666214.320   108601756.210 8  20666214.040    84624764.13348
  24206289.220   127204904.659 6  24206288.620    99120707.33345
 14  1  8  2 18 30.0000000  0  5G31G25G21G29G12
  20882413.360   109737823.864 8  20882411.960    85509995.84448
  21353589.980   112213920.024 8  21353592.200    87439465.03747
  22019444.500   115712993.476 7  22019443.620    90165983.89647
  20675194.920   108648949.873 8  20675194.680    84661538.41248
  24221100.980   127282743.408 6  24221101.320    99181360.88546
 14  1  8  2 19  0.0000000  0  5G31G25G21G29G12
  20878233.760   109715859.926 8  20878232.380    85492881.08348
  21361979.920   112258009.722 8  21361982.160    87473820.63447
  22006700.860   115646025.973 7  22006700.100    90113801.43747
  20684218.300   108696368.205 8  20684218.100    84698487.75848
  24235926.760   127360666.685 6  24235927.000    99242063.97346
 14  1  8  2 19 30.0000000  0  5G31G25G21G29G12
  20874168.600   109694497.458 8  20874167.220    85476235.00848
  21370432.660   112302429.078 8  21370434.900    87508433.11147
  21994035.280   115579468.387 7  21994034.520    90061938.38747
  20693306.100   108744124.853 8  20693305.940    84735700.74248
  24250787.840   127438764.605 6  24250789.380    99302919.44846
 14  1  8  2 20  0.0000000  0  5G31G25G21G29G12
  20870195.040   109673616.012 8  20870193.600    85459963.74148
  21378925.040   112347056.503 8  21378927.200    87543207.72547
  21981424.800   115513200.296 7  21981424.020    90010300.91847
  20702434.560   108792095.347 8  20702434.420    84773080.34448
  24265662.120   127516927.322 6  24265663.380    99363825.45745
 14  1  8  2 20 30.0000000  0  5G31G25G21G29G12
  20866327.060   109653289.264 8  20866325.560    85444124.70548
  21387470.800   112391964.567 8  21387472.920    87578201.01647
  21968883.700   115447296.457 7  21968882.860    89958947.29847
  20711617.260   108840350.577 8  20711617.020    84810681.82648
  24280562.300   127595227.077 6  24280563.400    99424838.24145
 14  1  8  2 21  0.0000000  0  5G31G25G21G29G12
  20862561.180   109633499.473 8  20862559.660    85428704.09248
  21396066.480   112437135.212 8  21396068.660    87613398.91847
  21956408.800   115381740.174 7  21956407.820    89907864.48747
  20720850.380   108888870.533 8  20720850.040    84848489.58048
  24295485.200   127673645.354 6  24295485.980    99485943.39645
 14  1  8  2 21 30.0000000  0  5G31G25G21G29G12
  20858898.920   109614254.603 8  20858897.520    85413708.08448
  21404713.480   112482575.352 8  21404715.680    87648806.80647
  21944001.680   115316540.113 7  21944000.540    89857059.25347
  20730134.780   108937659.887 8  20730134.400    84886507.25048
  24310431.720   127752188.515 6  24310432.120    99547145.85745
 14  1  8  2 22  0.0000000  0  5G31G25G21G29G12
  20855340.160   109595553.472 8  20855338.820    85399135.77348
  21413411.360   112528282.762 8  21413413.560    87684422.96847
  21931662.220   115251695.816 7  21931661.100    89806531.24647
  20739469.680   108986714.624 8  20739469.300    84924731.72148
  24325401.460   127830854.509 6  24325401.720    99608444.00445
 14  1  8  2 22 30.0000000  0  5G31G25G21G29G12
  20851884.540   109577394.163 8  20851883.220    85384985.65748
  21422159.600   112574254.821 8  21422161.780    87720245.35247
  21919390.240   115187206.288 7  21919389.200    89756279.68347
  20748854.200   109036030.523 8  20748853.860    84963159.70048
  24340393.860   127909640.155 6  24340394.060    99669835.40645
 14  1  8  2 23  0.0000000  0  5G31G25G21G29G12
  20848532.500   109559778.880 8  20848531.120    85371259.45648
  21430958.480   112620493.116 8  21430960.720    87756275.18247
  21907186.320   115123074.527 7  21907185.380    89706306.88547
  20758288.240   109085606.821 8  20758288.000    85001790.58248
  24355409.180   127988546.599 6  24355409.300    99731320.95946
 14  1  8  2 23 30.0000000  0  5G31G25G21G29G12
  20845284.200   109542709.114 8  20845282.840    85357958.34148
  21439808.240   112666998.338 8  21439810.460    87792513.00347
  21895050.840   115059302.535 7  21895050.000    89656614.43747
  20767771.560   109135442.370 8  20767771.380    85040623.47348
  24370447.560   128067574.227 6  24370447.560    99792900.86945
 14  1  8  2 24  0.0000000  0  5G31G25G21G29G12
  20842139.820   109526185.461 8  20842138.420    85345082.75848
  21448708.740   112713770.353 8  21448710.960    87828958.72147
  21882984.200   114995892.279 7  21882983.420    89607203.84647
  20777303.720   109185534.755 8  20777303.480    85079656.50848
  24385508.940   128146722.660 6  24385508.920    99854574.97145
 14  1  8  2 24 30.0000000  0  5G31G25G21G29G12
  20839098.720   109510204.586 8  20839097.380    85332630.12748
  21457659.060   112760804.694 8  21457661.340    87865608.84447
  21870985.760   114932840.277 7  21870985.000    89558072.42647
  20786883.640   109235878.108 8  20786883.380    85118885.09548
  24400592.500   128225987.027 6  24400592.540    99916339.36145
 14  1  8  2 25  0.0000000  0  5G31G25G21G29G12
  20836161.880   109494771.146 8  20836160.540    85320604.06848
  21466660.040   112808105.400 8  21466662.300    87902466.52947
  21859056.780   114870152.817 8  21859055.900    89509225.05847
  20796511.740   109286474.291 8  20796511.540    85158310.69048
  24415698.860   128305371.053 6  24415698.840    99978197.07145
 14  1  8  2 25 30.0000000  0  5G31G25G21G29G12
  20833329.920   109479889.059 8  20833328.620    85309007.63548
  21475712.400   112855676.046 8  21475714.660    87939534.56947
  21847198.120   114807834.941 7  21847197.200    89460665.68747
  20806188.420   109337325.333 8  20806188.180    85197934.87848
  24430828.660   128384878.082 6  24430828.480   100040150.57144
 14  1  8  2 26  0.0000000  0  5G31G25G21G29G12
  20830602.800   109465558.114 8  20830601.520    85297840.66548
  21484815.920   112903515.438 8  21484818.200    87976812.00647
  21835409.720   114745886.305 7  21835408.800    89412394.02647
  20815912.860   109388427.310 8  20815912.600    85237754.59548
  24445981.400   128464506.400 6  24445981.020   100102198.59444
 14  1  8  2 26 30.0000000  0  5G31G25G21G29G12
  20827980.620   109451778.996 8  20827979.500    85287103.68848
  21493970.620   112951623.693 8  21493972.940    88014298.93647
  21823692.000   114684309.108 8  21823691.140    89364411.80547
  20825684.760   109439778.784 8  20825684.460    85277768.72648
  24461157.100   128544255.599 6  24461156.500   100164340.79545
 14  1  8  2 27  0.0000000  0  5G31G25G21G29G12
  20825463.140   109438549.710 8  20825462.020    85276795.13948
  21503175.940   112999997.905 8  21503178.240    88051993.11747
  21812044.720   114623101.907 8  21812043.800    89316717.89147
  20835503.340   109491375.560 8  20835502.940    85317974.00448
  24476355.240   128624122.876 5  24476354.800   100226575.06345
 14  1  8  2 27 30.0000000  0  5G31G25G21G29G12
  20823050.020   109425868.686 8  20823048.920    85266913.82248
  21512431.460   113048636.138 8  21512433.680    88089893.03247
  21800467.840   114562264.606 8  21800466.800    89269312.21247
  20845367.800   109543213.678 8  20845367.400    85358367.33348
  24491575.480   128704105.643 6  24491575.080   100288899.25244
 14  1  8  2 28  0.0000000  0  5G31G25G21G29G12
  20820742.040   109413739.920 8  20820740.880    85257462.82548
  21521737.880   113097541.779 8  21521740.100    88128001.32447
  21788962.080   114501801.432 8  21788961.020    89222198.05647
  20855278.440   109595294.025 8  20855277.940    85398949.41848
  24506818.400   128784207.042 6  24506817.960   100351315.89244
 14  1  8  2 28 30.0000000  0  4G31G25G21G29
  20818518.180   109402053.381 8  20818517.040    85248356.43548
  21531074.100   113146604.006 8  21531076.340    88166231.63347
  21777506.720   114441603.238 8  21777505.680    89175290.37847
  20865213.800   109647504.101 8  20865213.180    85439632.59148
 14  1  8  2 29  0.0000000  0  4G31G25G21G29
  20816418.900   109391021.422 8  20816417.740    85239760.09548
  21540480.460   113196034.667 8  21540482.680    88204749.01747
  21766142.400   114381883.632 8  21766141.380    89128755.62547
  20875213.740   109700054.143 8  20875213.240    85480580.66448
 14  1  8  2 29 30.0000000  0  4G31G25G21G29
  20814425.620   109380546.583 8  20814424.440    85231597.88348
  21549938.260   113245735.747 8  21549940.480    88243477.12147
  21754850.860   114322546.334 8  21754849.860    89082518.76547
  20885259.320   109752844.293 8  20885259.020    85521715.83548
 14  1  8  2 30  0.0000000  0  4G31G25G21G29
  20812539.200   109370633.308 8  20812537.940    85223873.24548
  21559448.240   113295710.995 8  21559450.360    88282418.85447
  21743632.960   114263596.194 8  21743632.060    89036583.60247
  20895350.900   109805876.100 8  20895350.640    85563039.32248
 14  1  8  2 30 30.0000000  0  5G31G25G21G29G12
  20810787.480   109361428.049 8  20810786.180    85216700.30848
  21569038.220   113346106.609 8  21569040.340    88321688.15647
  21732516.880   114205180.818 8  21732516.020    88991065.13347
  20905516.020   109859294.238 8  20905515.680    85604663.84248
  24583374.560   129186507.946 6  24583374.140   100664808.06544
 14  1  8  2 31  0.0000000  0  5G31G25G21G29G12
  20809112.380   109352625.184 8  20809111.020    85209840.92648
  21578649.880   113396616.047 8  21578652.020    88361046.15347
  21721444.580   114146995.342 8  21721443.680    88945725.80947
  20915696.000   109912790.217 8  20915695.600    85646349.01748
  24598751.580   129267313.575 6  24598750.820   100727773.48545
 14  1  8  2 31 30.0000000  0  4G31G25G21G29
  20807545.340   109344390.124 8  20807543.960    85203423.99048
  21588314.560   113447404.478 8  21588316.820    88400621.54347
  21710447.720   114089206.200 8  21710446.700    88900695.32347
  20925921.780   109966527.506 8  20925921.540    85688222.22348
 14  1  8  2 32  0.0000000  0  4G31G25G21G29
  20806059.640   109336582.491 8  20806058.260    85197340.11848
  21598005.460   113498330.882 8  21598007.840    88440304.44447
  21699499.740   114031674.232 8  21699498.640    88855865.22247
  20936166.180   110020363.072 8  20936166.140    85730172.02248
 14  1  8  2 32 30.0000000  0  4G31G25G21G29
  20804703.820   109329457.388 8  20804702.500    85191788.08448
  21607771.200   113549650.066 8  21607773.540    88480293.40247
  21688649.340   113974655.022 8  21688648.240    88811434.67147
  20946477.560   110074550.010 8  20946477.600    85772395.60948
 14  1  8  2 33  0.0000000  0  4G31G25G21G29
  20803457.180   109322906.235 8  20803455.840    85186683.27948
  21617590.860   113601252.620 8  21617593.180    88520503.18447
  21677876.020   113918040.914 8  21677874.940    88767319.78647
  20956834.740   110128977.510 8  20956834.840    85814806.63448
 14  1  8  2 33 30.0000000  0  4G31G25G21G29
  20802321.160   109316936.497 8  20802319.860    85182031.53348
  21627465.820   113653145.856 8  21627468.080    88560939.45347
  21667181.520   113861840.824 8  21667180.460    88723527.51447
  20967238.740   110183650.713 8  20967238.820    85857409.12348
 14  1  8  2 34  0.0000000  0  4G31G25G21G29
  20801287.860   109311506.442 8  20801286.560    85177800.31348
  21637388.160   113705287.939 8  21637390.420    88601569.62347
  21656558.160   113806014.386 8  21656557.060    88680026.40147
  20977681.140   110238525.885 8  20977681.280    85900168.99148
 14  1  8  2 34 30.0000000  0  4G31G25G21G29
  20800365.160   109306657.671 8  20800363.900    85174022.05248
  21647365.600   113757719.606 8  21647367.840    88642425.45447
  21646013.800   113750603.290 8  21646012.720    88636848.93647
  20988169.520   110293642.405 8  20988169.580    85943116.93948
 14  1  8  2 35  0.0000000  0  4G31G25G21G29
  20799546.480   109302355.675 8  20799545.220    85170669.84148
  21657391.460   113810405.995 8  21657393.620    88683479.77547
  21635542.200   113695574.581 8  21635541.060    88593969.42547
  20998696.800   110348963.196 8  20998696.680    85986224.03447
 14  1  8  2 35 30.0000000  0  5G31G25G21G29G12
  20798843.140   109298659.562 8  20798841.900    85167789.75348
  21667476.900   113863405.443 8  21667479.120    88724778.03547
  21625154.620   113640987.435 8  21625153.400    88551433.99747
  21009273.820   110404544.799 8  21009273.440    86029534.36947
  24738163.880   129999927.132 5  24738164.360   101298630.82743
 14  1  8  2 36  0.0000000  0  4G31G25G21G29
  20798231.920   109295447.498 8  20798230.660    85165286.83848
  21677598.840   113916596.449 8  21677601.140    88766225.55447
  21614828.260   113586722.031 8  21614826.960    88509149.27347
  21019877.160   110460264.850 8  21019876.580    86072952.59648
 14  1  8  2 36 30.0000000  0  4G31G25G21G29
  20797727.260   109292795.182 8  20797725.940    85163220.08848
  21687771.640   113970054.438 8  21687773.940    88807881.11347
  21604577.720   113532855.177 8  21604576.340    88467175.10347
  21030520.620   110516196.596 8  21030520.060    86116535.76548
 14  1  8  2 37  0.0000000  0  4G31G25G21G29
  20797328.060   109290697.374 8  20797326.760    85161585.43248
  21697994.120   114023773.578 8  21697996.360    88849740.16147
  21594402.140   113479382.488 8  21594400.800    88425508.08747
  21041202.740   110572332.083 8  21041202.260    86160277.70347
 14  1  8  2 37 30.0000000  0  4G31G25G21G29
  20797043.020   109289199.618 8  20797041.760    85160418.34448
  21708274.900   114077799.129 8  21708277.000    88891837.98547
  21584310.460   113426350.454 8  21584309.200    88384184.43047
  21051931.940   110628714.972 8  21051931.480    86204212.41547
 14  1  8  2 38  0.0000000  0  4G31G25G21G29
  20796864.320   109288260.514 8  20796863.080    85159686.57248
  21718605.960   114132089.218 7  21718608.100    88934141.93047
  21574294.900   113373718.594 8  21574293.780    88343172.58947
  21062700.080   110685302.295 8  21062699.680    86248306.43147
 14  1  8  2 38 30.0000000  0  4G31G25G21G29
  20796794.940   109287895.704 8  20796793.620    85159402.29748
  21728990.280   114186659.588 8  21728992.580    88976664.27147
  21564358.640   113321503.739 8  21564357.680    88302485.69147
  21073509.780   110742107.988 8  21073509.500    86292570.60947
 14  1  8  2 39  0.0000000  0  4G31G25G21G29
  20796834.180   109288102.007 8  20796832.880    85159563.04448
  21739427.260   114241506.737 7  21739429.700    89019402.28747
  21554501.400   113269703.927 8  21554500.460    88262122.20347
  21084359.980   110799126.237 8  21084359.780    86337000.41647
 14  1  8  2 39 30.0000000  0  4G31G25G21G29
  20796982.460   109288881.567 8  20796981.260    85160170.48348
  21749917.220   114296632.219 7  21749919.760    89062357.20747
  21544723.740   113218322.058 8  21544722.740    88222084.38547
  21095250.760   110856357.507 8  21095250.520    86381596.20248
 14  1  8  2 40  0.0000000  0  4G31G25G21G29
  20797236.860   109290218.724 8  20797235.740    85161212.42048
  21760457.120   114352020.096 7  21760459.720    89105516.58147
  21535022.860   113167343.600 8  21535021.860    88182360.93247
  21106178.760   110913784.211 8  21106178.480    86426344.27747
 14  1  8  2 40 30.0000000  0  4G31G25G21G29
  20797592.220   109292086.033 8  20797591.140    85162667.45748
  21771041.960   114407643.251 7  21771044.460    89148859.29547
  21525393.800   113116742.596 8  21525392.800    88142931.57847
  21117138.420   110971377.282 8  21117138.140    86471221.98747
 14  1  8  2 41  0.0000000  0  4G31G25G21G29
  20798059.580   109294541.764 8  20798058.440    85164581.00748
  21781682.520   114463559.659 7  21781685.000    89192430.52647
  21515847.800   113066578.150 8  21515846.840    88103842.40047
  21128140.520   111029193.477 8  21128140.280    86516273.55547
 14  1  8  2 41 30.0000000  0  4G31G25G21G29
  20798636.160   109297571.538 8  20798634.980    85166941.86548
  21792376.000   114519754.711 7  21792378.620    89236218.85847
  21506382.380   113016837.030 8  21506381.440    88065083.09847
  21139181.900   111087216.399 8  21139181.680    86561486.21947
 14  1  8  2 42  0.0000000  0  4G31G25G21G29
  20799320.540   109301167.940 8  20799319.320    85169744.24348
  21803121.060   114576220.695 7  21803123.800    89280218.32047
  21496996.380   112967513.123 8  21496995.440    88026648.88847
  21150260.780   111145436.511 8  21150260.540    86606852.54347
 14  1  8  2 42 30.0000000  0  4G31G25G21G29
  20800111.960   109305327.038 8  20800110.780    85172985.09948
  21813917.040   114632953.825 7  21813919.800    89324425.94347
  21487689.280   112918603.667 8  21487688.280    87988537.63247
  21161376.280   111203848.740 8  21161375.980    86652368.55347
 14  1  8  2 43  0.0000000  0  4G31G25G21G29
  20801007.620   109310033.553 8  20801006.400    85176652.50548
  21824760.920   114689938.186 7  21824763.500    89368829.32547
  21478458.260   112870093.993 8  21478457.200    87950737.90047
  21172524.920   111262435.194 8  21172524.600    86698020.32747
 14  1  8  2 43 30.0000000  0  4G31G25G21G29
  20802013.800   109315320.881 8  20802012.520    85180772.49448
  21835658.940   114747207.376 7  21835661.420    89413454.66247
  21469309.960   112822019.228 8  21469308.900    87913277.05547
  21183712.980   111321228.877 8  21183712.720    86743833.58747
 14  1  8  2 44  0.0000000  0  4G31G25G21G29
  20803128.560   109321178.934 8  20803127.220    85185337.20548
  21846609.220   114804751.292 7  21846611.680    89458294.06447
  21460242.620   112774369.998 8  21460241.600    87876147.78747
  21194938.120   111380217.420 8  21194937.960    86789798.67747
 14  1  8  2 44 30.0000000  0  4G31G25G21G29
  20804350.380   109327599.762 8  20804349.000    85190340.43848
  21857610.300   114862562.126 7  21857612.800    89503341.45947
  21451255.080   112727139.949 8  21451254.060    87839345.16047
  21206198.500   111439391.408 8  21206198.400    86835908.27647
 14  1  8  2 45  0.0000000  0  4G31G25G21G29
  20805680.180   109334588.056 8  20805678.880    85195785.85748
  21868663.040   114920644.336 7  21868665.440    89548600.31047
  21442348.300   112680334.347 8  21442347.280    87802873.26247
  21217494.880   111498753.850 8  21217494.720    86882164.72047
 14  1  8  2 45 30.0000000  0  4G31G25G21G29
  20807118.240   109342144.960 8  20807116.940    85201674.34348
  21879767.620   114978999.077 7  21879769.920    89594071.53247
  21433522.800   112633956.000 8  21433521.780    87766734.29847
  21228827.140   111558304.695 8  21228826.860    86928567.96947
 14  1  8  2 46  0.0000000  0  4G31G25G21G29
  20808661.420   109350254.068 8  20808660.060    85207993.12148
  21890920.880   115037609.846 7  21890923.100    89639742.23947
  21424775.680   112587989.758 8  21424774.700    87730916.45147
  21240191.600   111618025.238 8  21240191.260    86975103.44747
 14  1  8  2 46 30.0000000  0  4G31G25G21G29
  20810313.480   109358935.523 8  20810312.140    85214757.88148
  21902126.760   115096496.974 7  21902128.920    89685628.30547
  21416111.060   112542456.935 8  21416110.100    87695436.33447
  21251592.000   111677935.070 8  21251591.640    87021786.43147
 14  1  8  2 47  0.0000000  0  4G31G25G21G29
  20812074.600   109368190.329 8  20812073.340    85221969.41248
  21913385.440   115155661.538 7  21913387.580    89731730.54247
  21407529.360   112497359.679 8  21407528.340    87660295.61347
  21263028.300   111738033.497 8  21263027.880    87068616.37347
 14  1  8  2 47 30.0000000  0  5G06G31G25G21G29
  24397022.240   128207213.024 6  24397024.920    99901715.87245
  20813943.540   109378011.911 8  20813942.380    85229622.58148
  21924695.620   115215096.793 7  21924697.800    89778043.71347
  21399029.420   112452692.141 8  21399028.340    87625489.74347
  21274498.920   111798312.052 8  21274498.480    87115586.66947
 14  1  8  2 48  0.0000000  0  5G06G31G25G21G29
  24381094.260   128123509.639 6  24381095.880    99836492.50444
  20815921.580   109388406.708 8  20815920.480    85237722.42048
  21936058.600   115274809.296 7  21936060.740    89824572.92047
  21390612.840   112408462.483 8  21390611.680    87591025.08547
  21286004.860   111858776.101 8  21286004.360    87162701.50847
 14  1  8  2 48 30.0000000  0  5G06G31G25G21G29
  24365189.800   128039930.055 6  24365190.240    99771365.58244
  20818003.940   109399349.379 8  20818002.820    85246249.17048
  21947469.440   115334773.591 7  21947471.620    89871298.32647
  21382274.980   112364646.688 8  21382273.800    87556882.91347
  21297541.060   111919399.244 8  21297540.520    87209940.32747
 14  1  8  2 49  0.0000000  0  5G06G31G25G21G29
  24349313.200   127956496.755 6  24349313.040    99706352.67545
  20820194.700   109410861.706 8  20820193.540    85255219.80048
  21958932.420   115395011.858 7  21958934.640    89918237.21147
  21374020.140   112321267.516 8  21374019.080    87523080.96947
  21309111.300   111980201.636 8  21309110.880    87257318.80247
 14  1  8  2 49 30.0000000  0  5G06G31G25G21G29
  24333463.420   127873204.233 6  24333463.200    99641449.45645
  20822492.620   109422937.412 8  20822491.460    85264629.44248
  21970446.420   115455517.960 7  21970448.560    89965384.80747
  21365847.480   112278320.287 8  21365846.480    87489615.60047
  21320714.320   112041175.946 8  21320713.940    87304831.25447
 14  1  8  2 50  0.0000000  0  5G06G31G25G21G29
  24317641.440   127790058.168 6  24317641.200    99576660.35745
  20824898.760   109435581.792 8  20824897.580    85274482.19348
  21982012.380   115516297.254 7  21982014.360    90012745.28747
  21357758.180   112235811.112 8  21357757.220    87456491.57547
  21332350.860   112102325.907 8  21332350.460    87352480.57147
 14  1  8  2 50 30.0000000  0  5G06G31G25G21G29
  24301846.960   127707057.558 6  24301847.120    99511984.59445
  20827412.840   109448793.371 8  20827411.580    85284776.92648
  21993630.000   115577348.375 7  21993631.880    90060317.56447
  21349752.260   112193739.936 8  21349751.320    87423708.85247
  21344020.260   112163648.455 8  21344019.860    87400264.36547
 14  1  8  2 51  0.0000000  0  5G06G31G25G21G29
  24286079.920   127624202.491 6  24286080.420    99447422.23145
  20830034.820   109462571.709 8  20830033.460    85295513.28348
  22005299.300   115638670.863 7  22005301.220    90108101.30347
  21341829.820   112152107.354 8  21341828.880    87391267.87247
  21355722.320   112225142.757 8  21355721.820    87448182.00147
 14  1  8  2 51 30.0000000  0  5G06G31G25G21G29
  24270340.180   127541490.816 6  24270341.100    99382971.62645
  20832764.080   109476913.797 8  20832762.640    85306688.92748
  22017019.720   115700262.199 7  22017021.800    90156094.53547
  21333990.500   112110911.841 8  21333989.600    87359167.47247
  21367456.060   112286804.465 8  21367455.660    87496230.08347
 14  1  8  2 52  0.0000000  0  5G06G31G25G21G29
  24254627.700   127458921.788 6  24254628.960    99318632.19145
  20835600.280   109491818.220 8  20835598.900    85318302.75248
  22028791.060   115762121.215 7  22028793.240    90204296.36547
  21326234.420   112070153.623 8  21326233.540    87327407.83447
  21379221.060   112348630.523 8  21379220.860    87544406.22247
 14  1  8  2 52 30.0000000  0  5G06G31G25G21G29
  24238943.540   127376500.900 6  24238944.860    99254408.17045
  20838544.440   109507290.222 8  20838543.140    85330358.85548
  22040614.260   115824253.047 7  22040616.620    90252710.77747
  21318562.780   112029838.722 8  21318561.840    87295993.62647
  21391018.300   112410625.548 8  21391018.180    87592714.04147
 14  1  8  2 53  0.0000000  0  5G06G31G25G21G29
  24223285.280   127294214.796 6  24223286.140    99190289.16945
  20841593.920   109523315.447 8  20841592.700    85342846.03548
  22052486.800   115886643.769 7  22052489.180    90301326.90747
  21310973.060   111989954.301 8  21310972.020    87264914.86247
  21402844.840   112472774.035 8  21402844.700    87641141.42447
 14  1  8  2 53 30.0000000  0  5G06G31G25G21G29
  24207655.720   127212079.608 6  24207656.140    99126287.76745
  20844751.680   109539909.493 8  20844750.500    85355776.45348
  22064411.640   115949309.050 7  22064414.020    90350156.97647
  21303468.400   111950517.081 8  21303467.300    87234184.56547
  21414703.300   112535090.482 8  21414703.200    87689699.68647
 14  1  8  2 54  0.0000000  0  6G06G31G16G25G21G29
  24192055.160   127130097.713 6  24192055.260    99062405.80145
  20848017.960   109557073.905 8  20848016.820    85369151.31148
  24561537.500   129071750.583 6  24561537.420   100575397.44244
  22076389.120   116012250.867 7  22076391.440    90399202.52947
  21296049.400   111911530.073 8  21296048.320    87203805.08447
  21426593.680   112597575.242 8  21426593.700    87738389.10147
 14  1  8  2 54 30.0000000  0  6G06G31G16G25G21G29
  24176480.500   127048252.041 6  24176480.520    98998630.00846
  20851389.320   109574790.803 8  20851388.300    85382956.67948
  24544735.660   128983455.238 6  24544734.820   100506595.90945
  22088415.840   116075451.717 7  22088418.160    90448449.92747
  21288712.940   111872976.749 8  21288711.880    87173763.53547
  21438512.500   112660209.434 8  21438512.580    87787194.95747
 14  1  8  2 55  0.0000000  0  6G06G31G16G25G21G29
  24160934.520   126966558.237 6  24160934.720    98934972.52345
  20854868.660   109593075.010 8  20854867.660    85397204.10848
  24527931.300   128895148.511 5  24527930.500   100437785.46045
  22100494.740   116138926.763 7  22100496.920    90497910.99347
  21281462.100   111834873.194 8  21281461.000    87144072.46447
  21450462.580   112723007.342 8  21450462.620    87836128.39247
 14  1  8  2 55 30.0000000  0  6G06G31G16G25G21G29
  24145416.300   126885010.739 6  24145416.760    98871429.07545
  20858454.880   109611920.669 8  20858453.880    85411889.03248
  24511123.920   128806825.585 6  24511123.180   100368962.35145
  22112624.780   116202670.482 7  22112626.980    90547581.40147
  21274296.040   111797214.887 8  21274294.920    87114728.32447
  21462442.460   112785962.249 8  21462442.460    87885184.15847
 14  1  8  2 56  0.0000000  0  6G06G31G16G25G21G29
  24129925.860   126803608.931 6  24129926.380    98807999.11745
  20862147.500   109631325.405 8  20862146.500    85427009.59748
  24494313.520   128718485.501 6  24494312.400   100300125.96145
  22124805.540   116266680.595 7  22124807.820    90597459.37247
  21267214.520   111760000.975 8  21267213.380    87085730.47347
  21474451.420   112849070.367 8  21474451.520    87934359.30247
 14  1  8  2 56 30.0000000  0  6G06G31G16G25G21G29
  24114463.200   126722352.595 6  24114463.560    98744682.53745
  20865946.500   109651289.095 8  20865945.500    85442565.70448
  24477500.080   128630129.450 6  24477498.980   100231277.12745
  22137037.100   116330957.367 7  22137039.400    90647545.16247
  21260217.720   111723232.435 8  21260216.600    87057079.66947
  21486489.540   112912331.030 8  21486489.600    87983653.31947
 14  1  8  2 57  0.0000000  0  6G06G31G16G25G21G29
  24099028.740   126641243.314 6  24099028.820    98681480.52145
  20869851.940   109671812.339 8  20869850.960    85458557.83648
  24460684.140   128541759.559 6  24460682.920   100162417.43944
  22149319.540   116395501.854 7  22149321.820    90697839.55647
  21253306.000   111686911.162 8  21253304.860    87028777.37647
  21498556.680   112975743.804 8  21498556.560    88033065.85847
 14  1  8  2 57 30.0000000  0  6G06G31G16G25G21G29
  24083622.620   126560283.815 6  24083622.740    98618395.23545
  20873864.220   109692897.076 8  20873863.240    85474987.49248
  24443866.100   128453379.196 6  24443864.880   100093549.64245
  22161653.360   116460316.324 7  22161655.620    90748344.33947
  21246479.940   111651040.066 8  21246478.800    87000825.88147
  21510652.960   113039309.719 8  21510652.620    88082597.74047
 14  1  8  2 58  0.0000000  0  6G06G31G16G25G21G29
  24068244.920   126479473.871 6  24068245.220    98555426.47345
  20877983.120   109714541.839 8  20877982.040    85491853.53448
  24427045.920   128364988.490 6  24427044.820   100024673.75345
  22174038.260   116525399.885 7  22174040.560    90799058.78447
  21239739.680   111615620.008 8  21239738.560    86973225.83847
  21522777.980   113103026.953 8  21522777.560    88132247.51847
 14  1  8  2 58 30.0000000  0  6G06G31G16G25G21G29
  24052895.300   126398810.871 6  24052895.500    98492572.22245
  20882207.960   109736743.263 8  20882206.800    85509153.33848
  24410223.400   128276585.367 6  24410222.180    99955788.19245
  22186473.800   116590749.588 7  22186476.160    90849980.60647
  21233084.860   111580648.914 8  21233083.760    86945975.63847
  21534930.960   113166891.328 8  21534930.500    88182011.95447
 14  1  8  2 59  0.0000000  0  6G06G31G16G25G21G29
  24037573.980   126318296.854 6  24037574.240    98429834.07845
  20886538.960   109759502.704 8  20886537.760    85526887.95948
  24393398.940   128188172.375 6  24393397.640    99886894.99145
  22198960.280   116656366.941 7  22198962.820    90901110.98447
  21226515.940   111546129.053 8  21226514.820    86919077.05047
  21547111.980   113230903.083 8  21547111.580    88231891.23647
 14  1  8  2 59 30.0000000  0  6G06G31G16G25G21G29
  24022280.920   126237930.898 6  24022281.100    98367211.27745
  20890975.760   109782818.158 8  20890974.540    85545055.83848
  24376572.580   128099749.818 6  24376571.460    99817994.29545
  22211497.460   116722250.613 7  22211500.160    90952448.88647
  21220032.760   111512059.734 8  21220031.680    86892529.53247
  21559320.600   113295059.996 8  21559320.160    88281883.62747
 14  1  8  3  0  0.0000000  0  6G06G31G16G25G21G29
  24007015.960   126157712.101 6  24007015.960    98304703.14445
  20895518.060   109806688.006 8  20895516.860    85563655.70748
  24359744.400   128011317.141 7  24359743.460    99749085.69745
  22224085.140   116788399.289 7  22224087.840    91003993.29947
  21213635.240   111478440.626 8  21213634.260    86866332.83947
  21571556.360   113359359.312 8  21571555.880    88331986.98447
 14  1  8  3  0 30.0000000  0  6G06G31G16G25G21G29
  23991779.760   126077645.353 6  23991779.860    98242313.49745
  20900166.540   109831115.891 8  20900165.360    85582690.41848
  24342915.340   127922879.461 7  24342914.320    99680173.22145
  22236724.080   116854817.249 7  22236726.760    91055747.52947
  21207324.440   111445277.266 8  21207323.540    86840491.27047
  21583819.880   113423804.284 8  21583819.480    88382203.83347
 14  1  8  3  1  0.0000000  0  6G06G31G16G25G21G29
  23976571.740   125997726.897 6  23976571.820    98180039.38645
  20904920.300   109856097.095 8  20904919.140    85602156.28548
  24326084.780   127834434.242 6  24326083.820    99611254.89145
  22249413.580   116921500.407 7  22249416.100    91107708.41047
  21201099.720   111412566.247 8  21201098.940    86815002.17247
  21596110.260   113488390.176 8  21596110.020    88432530.50247
 14  1  8  3  1 30.0000000  0  6G06G31G16G25G21G29
  23961392.240   125917958.328 6  23961392.360    98117882.11945
  20909779.480   109881632.232 8  20909778.280    85622053.78448
  24309253.040   127745983.592 6  24309252.380    99542332.31545
  22262153.740   116988449.666 7  22262156.260    91159876.64447
  21194961.400   111380309.294 8  21194960.680    86789866.88947
  21608427.200   113553116.059 8  21608427.140    88482966.24947
 14  1  8  3  2  0.0000000  0  6G06G31G16G25G21G29
  23946241.460   125838341.304 6  23946241.720    98055842.86346
  20914744.220   109907722.059 8  20914742.980    85642383.50548
  24292420.640   127657529.650 6  24292420.180    99473407.16445
  22274944.720   117055666.265 7  22274947.320    91212253.21347
  21188909.960   111348508.723 8  21188909.180    86765087.22347
  21620770.920   113617982.619 8  21620770.860    88533511.61847
 14  1  8  3  2 30.0000000  0  6G06G31G16G25G21G29
  23931119.220   125758873.793 6  23931119.760    97993920.18046
  20919813.920   109934363.449 8  20919812.640    85663143.02248
  24275587.480   127569071.121 6  24275587.100    99404478.46245
  22287786.020   117123147.729 7  22287788.760    91264836.15947
  21182945.000   111317162.710 8  21182944.160    86740661.76447
  21633140.700   113682986.612 8  21633140.700    88584164.06847
 14  1  8  3  3  0.0000000  0  6G06G31G16G25G21G29
  23916025.760   125679557.645 6  23916026.380    97932115.39845
  20924988.740   109961557.154 8  20924987.400    85684332.91248
  24258754.000   127480610.804 6  24258753.700    99335548.35945
  22300677.940   117190895.509 7  22300680.800    91317626.61947
  21177067.040   111286273.703 8  21177066.140    86716592.41947
  21645536.680   113748128.081 8  21645536.680    88634923.65647
 14  1  8  3  3 30.0000000  0  6G06G31G16G25G21G29
  23900960.780   125600390.956 6  23900961.360    97870427.10245
  20930268.020   109989299.921 8  20930266.720    85705950.64248
  24241919.980   127392147.148 6  24241919.620    99266615.63846
  22313620.040   117258906.940 7  22313622.920    91370622.52347
  21171275.660   111255839.759 8  21171274.680    86692877.66347
  21657958.120   113813403.176 8  21657958.140    88685787.36247
 14  1  8  3  4  0.0000000  0  6G06G31G16G25G21G29
  23885924.480   125521374.033 7  23885924.920    97808855.48645
  20935651.700   110017591.576 8  20935650.460    85727996.07548
  24225085.580   127303681.532 6  24225085.120    99197681.38046
  22326612.400   117327182.169 7  22326615.100    91423823.98147
  21165571.100   111225861.928 8  21165570.020    86669518.31947
  21670404.840   113878811.312 8  21670404.920    88736754.72747
 14  1  8  3  4 30.0000000  0  6G06G31G16G25G21G29
  23870917.100   125442509.215 7  23870917.440    97747402.40745
  20941139.960   110046432.788 8  20941138.820    85750469.74048
  24208251.420   127215216.988 6  24208250.740    99128747.96545
  22339655.200   117395722.603 7  22339657.780    91477232.09147
  21159953.800   111196342.684 8  21159952.640    86646516.31647
  21682876.940   113944352.545 8  21682876.920    88787825.80847
 14  1  8  3  5  0.0000000  0  6G06G31G16G25G21G29
  23855938.540   125363796.014 7  23855938.760    97686067.47645
  20946732.620   110075822.191 8  20946731.420    85773370.57248
  24191417.680   127126754.128 7  24191416.660    99059815.85045
  22352748.380   117464527.726 7  22352750.900    91530846.45647
  21154423.700   111167281.765 8  21154422.500    86623871.44447
  21695374.260   114010025.935 8  21695373.960    88838999.88047
 14  1  8  3  5 30.0000000  0  6G06G31G16G25G21G29
  23840988.840   125285235.299 7  23840988.980    97624851.36345
  20952429.560   110105759.298 8  20952428.240    85796698.18148
  24174584.420   127038294.272 6  24174583.240    98990886.09845
  22365891.960   117533597.655 7  22365894.540    91584667.16447
  21148981.060   111138680.556 8  21148979.860    86601584.79247
  21707896.460   114075830.298 8  21707896.000    88890275.99347
 14  1  8  3  6  0.0000000  0  6G06G31G16G25G21G29
  23826067.780   125206825.285 7  23826068.080    97563752.68245
  20958230.200   110136241.696 8  20958228.840    85820450.69148
  24157751.420   126949836.483 7  24157750.080    98921957.99245
  22379085.520   117602930.039 7  22379088.200    91638692.38047
  21143625.620   111110537.479 8  21143624.420    86579655.12647
  21720443.040   114141762.459 8  21720442.400    88941651.68647
 14  1  8  3  6 30.0000000  0  6G06G31G16G25G21G29
  23811175.620   125128567.003 7  23811175.900    97502772.23746
  20964134.480   110167268.739 8  20964133.180    85844627.59648
  24140919.300   126861382.423 7  24140917.600    98853032.73145
  22392329.180   117672525.388 7  22392331.940    91692922.49747
  21138357.600   111082853.868 8  21138356.440    86558083.48547
  21733013.900   114207822.301 8  21733013.180    88993126.87947
 14  1  8  3  7  0.0000000  0  6G06G31G16G25G21G29
  23796312.420   125050460.657 7  23796312.800    97441910.16546
  20970142.120   110198839.481 8  20970140.960    85869228.16248
  24124087.960   126772933.013 6  24124086.340    98784111.14045
  22405622.820   117742383.441 7  22405625.540    91747357.33147
  21133177.080   111055630.070 8  21133175.980    86536870.14047
  21745608.760   114274008.291 8  21745608.040    89044700.36947
 14  1  8  3  7 30.0000000  0  6G06G31G16G25G21G29
  23781478.520   124972508.809 6  23781479.140    97381168.50045
  20976253.500   110230955.349 8  20976252.380    85894253.50548
  24107258.060   126684491.970 6  24107256.740    98715196.02746
  22418966.760   117812506.327 7  22418969.400    91801998.52147
  21128084.600   111028869.075 8  21128083.540    86516017.42547
  21758227.740   114340321.812 7  21758227.180    89096373.22947
 14  1  8  3  8  0.0000000  0  6G06G31G16G25G21G29
  23766673.620   124894709.732 6  23766674.440    97320545.87245
  20982468.080   110263613.206 8  20982466.940    85919701.17648
  24090429.640   126596058.635 6  24090428.700    98646286.92545
  22432360.660   117882891.675 7  22432363.080    91856844.22046
  21123079.860   111002569.283 8  21123078.780    86495524.08147
  21770870.160   114406759.268 8  21770869.840    89148142.66947
 14  1  8  3  8 30.0000000  0  6G06G31G16G25G21G29
  23751897.780   124817063.046 6  23751898.800    97260041.97746
  20988785.520   110296811.383 8  20988784.320    85945569.87348
  24073602.540   126507632.984 6  24073602.080    98577383.84945
  22445804.260   117953538.662 7  22445806.600    91911893.79746
  21118162.780   110976730.282 8  21118161.700    86475389.80647
  21783535.960   114473318.964 8  21783535.780    89200007.36147
 14  1  8  3  9  0.0000000  0  6G06G31G16G25G21G29
  23737150.860   124739568.129 6  23737151.900    97199656.32945
  20995205.440   110330548.288 8  20995204.280    85971858.36048
  24056777.260   126419215.567 7  24056776.860    98508487.18145
  22459297.420   118024446.085 7  22459299.740    91967146.31646
  21113333.420   110951352.113 8  21113332.360    86455614.61847
  21796224.740   114539999.228 8  21796224.620    89251966.00447
 14  1  8  3  9 30.0000000  0  6G06G31G16G25G21G29
  23722433.100   124662226.729 6  23722434.140    97139390.33445
  21001727.900   110364824.340 8  21001726.820    85998566.96648
  24039954.120   126330808.765 6  24039953.560    98439598.77245
  22472840.400   118095615.230 7  22472842.800    92022602.77147
  21108592.160   110926436.936 8  21108591.200    86436200.20248
  21808936.540   114606800.635 8  21808936.500    89304019.02847
 14  1  8  3 10  0.0000000  0  6G06G31G16G25G21G29
  23707744.580   124585038.372 6  23707745.520    97079243.58545
  21008352.620   110399637.616 8  21008351.600    86025694.18148
  24023132.820   126242413.054 6  24023132.300    98370719.04045
  22486433.060   118167044.943 7  22486435.560    92078262.27746
  21103938.920   110901983.948 8  21103938.000    86417145.93647
  21821671.040   114673721.005 8  21821671.060    89356164.76147
 14  1  8  3 10 30.0000000  0  6G06G31G16G25G21G29
  23693085.240   124508002.968 6  23693086.120    97019216.03646
  21015079.280   110434986.545 8  21015078.300    86053238.79348
  24006313.660   126154029.199 6  24006313.380    98301848.49345
  22500075.200   118238734.621 7  22500077.700    92134124.34347
  21099373.600   110877992.884 8  21099372.680    86398451.61747
  21834427.900   114740758.783 7  21834427.940    89408401.98847
 14  1  8  3 11  0.0000000  0  6G06G31G16G25G21G29
  23678455.240   124431122.311 6  23678456.220    96959309.05245
  21021908.060   110470871.852 8  21021907.080    86081201.36048
  23989497.600   126065660.349 6  23989497.320    98232989.66145
  22513767.040   118310685.555 7  22513769.640    92190189.97347
  21094896.680   110854466.235 8  21094895.720    86380119.17347
  21847207.260   114807914.623 8  21847207.220    89460731.21747
 14  1  8  3 11 30.0000000  0  6G06G31G16G25G21G29
  23663854.280   124354393.814 6  23663855.120    96899520.64145
  21028838.060   110507289.290 8  21028837.100    86109578.57648
  23972684.180   125977304.636 7  23972683.640    98164141.06445
  22527507.960   118382894.690 7  22527510.720    92246456.81346
  21090507.620   110831401.328 8  21090506.520    86362146.52047
  21860008.340   114875184.369 7  21860008.240    89513149.20047
 14  1  8  3 12  0.0000000  0  6G06G31G16G25G21G29
  23649282.760   124277820.317 6  23649283.400    96839852.98545
  21035869.600   110544240.327 8  21035868.620    86138371.58448
  23955874.020   125888965.756 7  23955873.240    98095305.55345
  22541298.380   118455364.007 7  22541301.280    92302926.39447
  21086207.040   110808801.304 8  21086205.820    86344536.12047
  21872831.480   114942569.883 8  21872831.400    89565657.37147
 14  1  8  3 12 30.0000000  0  6G06G31G16G25G21G29
  23634740.680   124201401.315 6  23634741.360    96780305.74045
  21043002.320   110581723.147 8  21043001.320    86167578.96248
  23939067.140   125800644.296 7  23939066.240    98026483.63245
  22555138.160   118528092.752 7  22555141.140    92359598.14446
  21081994.820   110786665.818 8  21081993.540    86327287.69647
  21885676.380   115010069.432 8  21885676.280    89618254.41147
 14  1  8  3 13  0.0000000  0  6G06G31G16G25G21G29
  23620227.640   124125135.099 6  23620228.540    96720877.57246
  21050235.680   110619734.794 8  21050234.680    86197198.41548
  23922263.600   125712339.292 7  23922262.340    97957674.52445
  22569026.900   118601078.481 7  22569029.840    92416470.12246
  21077870.600   110764993.013 8  21077869.380    86310399.80948
  21898542.280   115077679.807 7  21898542.200    89670937.81847
 14  1  8  3 13 30.0000000  0  6G06G31G16G25G21G29
  23605744.060   124049024.152 6  23605745.260    96661570.35446
  21057569.900   110658276.189 8  21057568.920    86227230.66048
  23905463.660   125624053.869 7  23905462.140    97888880.71245
  22582964.940   118674323.197 7  22582967.820    92473543.90446
  21073834.900   110743785.246 8  21073833.700    86293874.27747
  21911429.340   115145402.250 7  21911429.340    89723708.54947
 14  1  8  3 14  0.0000000  0  6G06G31G16G25G21G29
  23591290.080   123973068.818 6  23591291.420    96602384.39146
  21065004.780   110697346.245 8  21065003.800    86257674.84948
  23888667.660   125535790.204 7  23888665.980    97820103.86745
  22596952.220   118747826.715 7  22596955.060    92530819.34746
  21069887.860   110723043.508 8  21069886.720    86277711.89047
  21924337.720   115213235.774 8  21924337.560    89776565.83947
 14  1  8  3 14 30.0000000  0  7G06G31G16G25G27G21G29
  23576868.220   123897281.304 6  23576869.600    96543329.19546
  21072542.180   110736955.247 8  21072541.200    86288539.00148
  23871878.020   125447561.211 6  23871876.260    97751353.98445
  22610990.880   118821600.490 7  22610993.800    92588305.36847
  24680818.900   129698577.268 6  24680824.140   101063841.40346
  21066031.800   110702779.918 8  21066030.700    86261922.08447
  21937269.320   115281191.087 8  21937268.940    89829518.01047
 14  1  8  3 15  0.0000000  0  7G06G31G16G25G27G21G29
  23562471.520   123821626.534 6  23562473.100    96484377.49246
  21080175.240   110777066.873 8  21080174.220    86319794.79848
  23855088.360   125359332.763 6  23855087.040    97682604.55845
  22625074.140   118895608.734 7  22625077.240    92645974.10947
  24665409.000   129617596.183 6  24665412.940   101000739.27846
  21062260.040   110682959.203 8  21062258.980    86246477.38248
  21950217.080   115349232.004 7  21950216.660    89882536.89447
 14  1  8  3 15 30.0000000  0  7G06G31G16G25G27G21G29
  23548105.720   123746133.803 6  23548107.300    96425552.01045
  21087909.160   110817708.904 8  21087908.160    86351463.90848
  23838304.580   125271134.802 6  23838303.580    97613878.87845
  22639207.640   118969880.339 7  22639210.700    92703848.07646
  24650020.920   129536732.522 6  24650024.720   100937728.70946
  21058578.100   110663610.644 8  21058577.040    86231400.59448
  21963186.360   115417386.756 7  21963186.160    89935644.48847
 14  1  8  3 16  0.0000000  0  7G06G31G16G25G27G21G29
  23533769.360   123670796.180 6  23533770.880    96366847.39545
  21095742.520   110858873.281 8  21095741.440    86383540.03247
  23821525.900   125182962.172 7  23821524.960    97545172.94345
  22653389.860   119044407.948 7  22653392.880    92761921.50946
  24634654.000   129455979.451 6  24634657.840   100874804.28546
  21054984.760   110644727.559 8  21054983.680    86216686.49647
  21976175.760   115485647.173 7  21976175.800    89988834.42247
 14  1  8  3 16 30.0000000  0  8G06G31G16G25G27G21G29G18
  23519462.760   123595615.144 6  23519464.100    96308264.83746
  21103675.120   110900559.536 8  21103673.980    86416022.81148
  23804752.540   125094817.158 6  23804751.360    97476488.50645
  22667620.820   119119192.263 7  22667623.860    92820194.99846
  24619308.560   129375338.494 6  24619312.340   100811967.18346
  21051480.240   110626311.311 8  21051479.160    86202336.19147
  21989185.420   115554013.626 7  21989185.540    90042106.97147
  24597782.020   129262212.675 6  24597782.180   100723803.36646
 14  1  8  3 17  0.0000000  0  8G06G31G16G25G27G21G29G18
  23505186.320   123520591.861 6  23505187.320    96249805.17645
  21111706.880   110942767.174 8  21111705.780    86448911.87848
  23787984.720   125006701.635 6  23787983.440    97407827.07045
  22681900.680   119194233.810 7  22681903.740    92878668.90846
  24603984.720   129294810.640 6  24603988.460   100749218.22546
  21048064.740   110608363.029 8  21048063.700    86188350.52748
  22002215.180   115622485.648 7  22002215.240    90095461.80347
  24583487.700   129187095.159 6  24583487.580   100665270.24745
 14  1  8  3 17 30.0000000  0  8G06G31G16G25G27G21G29G18
  23490938.480   123445718.310 6  23490939.200    96191462.18446
  21119836.180   110985487.042 8  21119835.120    86482200.07648
  23771221.320   124918609.037 6  23771220.100    97339183.49345
  22696227.940   119269524.303 7  22696230.980    92937336.79046
  24588680.900   129214388.347 6  24588684.540   100686551.55846
  21044736.800   110590874.946 8  21044735.860    86174723.45648
  22015263.480   115691054.946 7  22015263.440    90148892.41047
  24569183.880   129111928.230 6  24569183.880   100606698.63545
 14  1  8  3 18  0.0000000  0  8G06G31G16G25G27G21G29G18
  23476720.560   123371002.403 6  23476721.280    96133242.03145
  21128064.100   111028724.893 8  21128063.020    86515891.90248
  23754463.960   124830548.203 7  23754462.860    97270564.70346
  22710604.080   119345070.519 7  22710606.840    92996203.95546
  24573398.620   129134079.082 6  24573402.100   100623972.91646
  21041497.820   110573854.165 8  21041496.920    86161460.51648
  22028331.420   115759727.473 7  22028331.400    90202403.47347
  24554872.380   129036721.707 6  24554872.200   100548096.18644
 14  1  8  3 18 30.0000000  0  8G06G31G16G25G27G21G29G18
  23462532.200   123296442.233 6  23462533.080    96075143.24646
  21136389.980   111072477.572 8  21136388.860    86549984.88648
  23737712.640   124742518.655 7  23737711.540    97201970.25846
  22725028.420   119420870.302 7  22725030.960    93055268.70646
  24558137.560   129053881.248 6  24558140.800   100561481.13245
  21038347.520   110557299.200 8  21038346.580    86148560.54748
  22041418.460   115828500.367 7  22041418.500    90255992.73047
  24540553.420   128961476.276 6  24540553.080   100489463.48144
 14  1  8  3 19  0.0000000  0  8G06G31G16G25G27G21G29G18
  23448373.420   123222037.100 6  23448374.300    96017165.27845
  21144813.420   111116742.814 8  21144812.220    86584477.27348
  23720967.260   124654520.472 7  23720966.080    97133400.27646
  22739500.640   119496922.265 7  22739503.160    93114529.94446
  24542897.600   128973794.205 6  24542900.700   100499075.68146
  21035285.780   110541209.480 8  21035284.760    86136023.11348
  22054524.280   115897371.398 7  22054524.200    90309658.45747
  24526227.640   128886193.736 6  24526227.300   100430801.72445
 14  1  8  3 19 30.0000000  0  8G06G31G16G25G27G21G29G18
  23434244.520   123147789.122 6  23434245.400    95959309.73745
  21153334.360   111161520.801 8  21153333.220    86619369.20048
  23704228.380   124566556.932 7  23704227.200    97064857.27646
  22754021.060   119573227.772 7  22754023.640    93173988.76346
  24527678.940   128893820.006 6  24527682.140   100436758.16246
  21032313.000   110525587.116 8  21032311.920    86123849.84348
  22067649.000   115966342.031 7  22067648.740    90363401.79047
  24511895.700   128810878.625 6  24511895.700   100372114.65045
 14  1  8  3 20  0.0000000  0  8G06G31G16G25G27G21G29G18
  23420145.440   123073698.245 6  23420146.480    95901576.62246
  21161952.520   111206809.732 8  21161951.500    86654659.26848
  23687496.220   124478629.114 7  23687495.220    96996342.10146
  22768589.600   119649786.218 7  22768592.300    93233644.67746
  24512481.780   128813958.683 6  24512484.840   100374528.58746
  21029429.080   110510431.746 8  21029427.940    86112040.47248
  22080792.340   116035410.938 7  22080792.060    90417221.71047
  24497558.000   128735533.298 6  24497558.080   100313404.02245
 14  1  8  3 20 30.0000000  0  8G06G31G16G25G27G21G29G18
  23406075.760   122999761.336 7  23406076.940    95843963.45445
  21170667.100   111252605.085 8  21170666.120    86690343.94847
  23670770.480   124390735.298 7  23670769.620    96927853.40646
  22783205.600   119726594.022 7  22783208.280    93293494.89946
  24497305.460   128734207.343 6  24497308.600   100312384.70746
  21026633.360   110495739.965 8  21026632.140    86100592.33548
  22093953.660   116104574.275 7  22093953.460    90471115.21347
  24483214.560   128660156.935 6  24483214.600   100254669.19345
 14  1  8  3 21  0.0000000  0  8G06G31G16G25G27G21G29G18
  23392036.080   122925981.868 6  23392036.980    95786472.99446
  21179478.300   111298908.154 8  21179477.320    86726424.25147
  23654051.920   124302879.642 7  23654051.320    96859394.49045
  22797869.580   119803653.536 7  22797872.220    93353541.25246
  24482150.620   128654569.025 6  24482154.020   100250328.89646
  21023926.460   110481514.957 8  21023925.180    86089507.93147
  22107133.200   116173833.746 7  22107133.040    90525083.63247
  24468866.300   128584755.182 6  24468866.260   100195914.62844
 14  1  8  3 21 30.0000000  0  8G06G31G16G25G27G21G29G18
  23378026.020   122852358.043 6  23378026.440    95729103.82546
  21188385.560   111345715.934 8  21188384.480    86762897.83947
  23637340.720   124215061.967 7  23637340.040    96790965.13845
  22812581.160   119880962.769 7  22812583.620    93413782.19046
  24467016.920   128575042.450 6  24467020.620   100188360.15046
  21021308.000   110467754.902 8  21021306.700    86078785.81248
  22120330.540   116243186.435 7  22120330.420    90579124.68247
  24454513.400   128509329.217 6  24454513.180   100137141.15645
 14  1  8  3 22  0.0000000  0  8G06G31G16G25G27G21G29G18
  23364045.740   122778891.279 7  23364046.040    95671857.02046
  21197388.680   111393027.757 8  21197387.560    86799764.18247
  23620637.120   124127284.807 7  23620636.500    96722567.37945
  22827340.460   119958522.216 7  22827342.780    93474218.11146
  24451904.720   128495628.772 6  24451908.600   100126479.37546
  21018778.280   110454461.110 8  21018776.980    86068427.02748
  22133545.800   116312633.061 7  22133545.780    90633238.91247
  24440156.400   128433882.644 6  24440156.100   100078351.65445
 14  1  8  3 22 30.0000000  0  8G06G31G16G25G27G21G29G18
  23350095.420   122705581.174 7  23350095.740    95614732.30246
  21206487.360   111440841.893 8  21206486.300    86837021.94647
  23603941.380   124039549.029 6  23603940.760    96654201.82946
  22842147.080   120036331.183 7  22842149.440    93534848.46046
  24436814.220   128416327.990 6  24436818.100   100064686.59246
  21016337.240   110441633.513 8  21016335.980    86058431.50648
  22146778.800   116382172.194 7  22146778.780    90687425.22947
  24425795.740   128358417.878 6  24425795.660   100019547.96045
 14  1  8  3 23  0.0000000  0  8G06G31G16G25G27G21G29G18
  23336174.600   122632426.220 7  23336174.940    95557728.47846
  21215680.900   111489154.529 8  21215679.920    86874668.14147
  23587253.540   123951853.885 7  23587252.980    96585867.97346
  22857000.720   120114387.175 7  22857003.020    93595671.28446
  24421744.960   128337138.376 6  24421748.760   100002980.43246
  21013984.500   110429269.825 8  21013983.240    86048797.46648
  22160028.800   116451801.088 7  22160028.800    90741681.51647
  24411431.800   128282935.265 6  24411431.720    99960730.33045
 14  1  8  3 23 30.0000000  0  8G06G31G16G25G27G21G29G18
  23322283.800   122559429.053 7  23322283.940    95500847.60846
  21224969.600   111537966.756 8  21224968.640    86912703.63147
  23570574.400   123864203.809 7  23570573.680    96517569.19645
  22871901.720   120192692.130 7  22871903.960    93656688.10646
  24406697.240   128258062.518 6  24406701.060    99941362.90146
  21011720.500   110417372.541 8  21011719.220    86039526.86248
  22173296.160   116521521.107 7  22173296.040    90796008.78347
  24397065.420   128207439.989 6  24397065.420    99901902.85845
 14  1  8  3 24  0.0000000  0  8G06G31G16G25G27G21G29G18
  23308422.780   122486589.211 7  23308422.880    95444089.32645
  21234352.940   111587276.152 8  21234351.940    86951126.52447
  23553903.780   123776599.073 7  23553903.000    96449305.80246
  22886849.820   120271244.915 7  22886852.060    93717898.05046
  24391670.980   128179100.021 6  24391674.940    99879833.67545
  21009545.080   110405940.839 8  21009543.800    86030619.05148
  22186580.640   116591330.824 7  22186580.500    90850405.96547
  24382697.160   128131934.275 6  24382697.300    99843067.22345
 14  1  8  3 24 30.0000000  0  8G06G31G16G25G27G21G29G18
  23294591.440   122413905.431 7  23294591.520    95387452.62346
  21243830.400   111637079.960 8  21243829.300    86989934.67247
  23537241.940   123689039.997 7  23537240.920    96381077.95346
  22901844.520   120350043.831 7  22901847.040    93779299.77446
  24376666.220   128100249.943 6  24376670.220    99818392.04745
  21007458.040   110394973.556 8  21007456.800    86022073.12548
  22199881.780   116661228.193 7  22199881.780    90904871.42947
  24368327.200   128056419.649 6  24368327.380    99784224.69045
 14  1  8  3 25  0.0000000  0  8G06G31G16G25G27G21G29G18
  23280790.040   122341379.010 7  23280790.220    95330938.56946
  21253401.680   111687377.239 8  21253400.560    87029127.34547
  23520589.240   123601529.079 7  23520588.040    96312887.61945
  22916886.220   120429089.304 7  22916888.880    93840893.63346
  24361683.140   128021513.397 6  24361687.160    99757038.91546
  21005459.520   110384471.381 8  21005458.300    86013889.62248
  22213199.540   116731213.334 7  22213199.640    90959405.30147
  24353956.200   127980899.661 6  24353956.420    99725377.95045
 14  1  8  3 25 30.0000000  0  8G06G31G16G25G27G21G29G18
  23267018.540   122269009.523 7  23267018.720    95274546.80846
  21263066.360   111738165.717 8  21263065.340    87068702.77447
  23503945.800   123514066.991 7  23503944.520    96244735.33446
  22931974.720   120508380.115 7  22931977.280    93902678.65746
  24346721.420   127942889.842 6  24346725.420    99695773.80346
  21003549.380   110374433.701 8  21003548.220    86006068.05748
  22226533.640   116801284.450 7  22226533.740    91014006.16247
  24339584.420   127905375.960 6  24339584.680    99666528.32945
 14  1  8  3 26  0.0000000  0  8G06G31G16G25G27G21G29G18
  23253276.900   122196796.670 7  23253277.180    95218277.08646
  21272824.220   111789443.738 8  21272823.320    87108659.66947
  23487312.020   123426655.364 7  23487310.700    96176622.39146
  22947109.880   120587915.565 7  22947112.380    93964654.31746
  24331781.280   127864379.355 6  24331785.380    99634596.86646
  21001727.640   110364860.429 8  21001726.520    85998608.37348
  22239883.940   116871440.999 7  22239884.040    91068673.59547
  24325212.440   127829851.202 6  24325212.600    99607677.88345
 14  1  8  3 26 30.0000000  0  8G06G31G16G25G27G21G29G18
  23239565.080   122124740.719 7  23239565.640    95162129.62046
  21282674.980   111841209.466 8  21282674.040    87148996.59247
  23470688.060   123339295.195 7  23470686.720    96108549.53846
  22962291.580   120667695.154 7  22962294.040    94026820.20546
  24316862.660   127785982.179 6  24316866.820    99573508.16145
  20999994.240   110355751.167 8  20999993.120    85991510.25548
  22253250.280   116941681.908 7  22253250.180    91123406.76347
  24310840.900   127754328.139 6  24310840.920    99548828.79245
 14  1  8  3 27  0.0000000  0  8G06G31G16G25G27G21G29G18
  23225883.860   122052845.859 7  23225884.540    95106107.68846
  21292618.920   111893464.769 8  21292617.860    87189714.98747
  23454074.700   123251991.357 7  23454073.460    96040520.59746
  22977520.340   120747721.979 7  22977522.700    94089178.76246
  24301966.560   127707702.212 6  24301970.840    99512510.78646
  20998349.760   110347109.377 8  20998348.640    85984776.39848
  22266633.140   117012009.914 7  22266632.860    91178207.79847
  24296470.980   127678813.193 6  24296470.660    99489985.96944
 14  1  8  3 27 30.0000000  0  8G06G31G16G25G27G21G29G18
  23212231.600   121981103.734 7  23212232.480    95050204.74446
  21302654.100   111946199.856 8  21302652.980    87230807.25347
  23437470.880   123164737.886 7  23437469.880    95972530.88846
  22992794.440   120827987.512 7  22992796.780    94151723.29846
  24287091.360   127629531.602 6  24287095.600    99451598.66546
  20996792.760   110338927.250 8  20996791.640    85978400.71748
  22280030.840   117082416.385 7  22280030.480    91233069.97547
  24282101.660   127603300.856 6  24282100.860    99431145.19045
 14  1  8  3 28  0.0000000  0  8G06G31G16G25G27G21G29G18
  23198609.820   121909522.045 7  23198611.020    94994426.81246
  21312781.580   111999420.226 8  21312780.440    87272277.66247
  23420878.260   123077543.570 7  23420877.380    95904587.28446
  23008115.140   120908498.408 7  23008117.580    94214459.04746
  24272238.300   127551477.785 6  24272242.580    99390777.55046
  20995324.560   110331211.812 8  20995323.460    85972388.69248
  22293444.580   117152907.150 7  22293444.360    91287997.82947
  24267734.580   127527800.981 6  24267733.620    99372314.12945
 14  1  8  3 28 30.0000000  0  8G06G31G16G25G27G21G29G18
  23185017.640   121838095.193 6  23185019.120    94938769.54446
  21322999.920   112053118.183 8  21322998.780    87314120.21847
  23404295.980   122990403.892 7  23404295.200    95836686.25245
  23023481.260   120989248.449 7  23023483.840    94277381.16146
  24257406.440   127473535.298 6  24257410.540    99330043.15646
  20993943.980   110323956.862 8  20993942.860    85966735.49048
  22306873.420   117223476.669 7  22306873.460    91342987.04947
  24253369.420   127452310.943 6  24253368.340    99313490.72145
 14  1  8  3 29  0.0000000  0  8G06G31G16G25G27G21G29G18
  23171455.660   121766826.573 6  23171457.260    94883235.56446
  21333309.480   112107295.528 8  21333308.400    87356336.32547
  23387725.120   122903323.965 7  23387724.480    95768831.77046
  23038893.420   121070240.396 7  23038896.120    94340491.74746
  24242596.640   127395707.606 6  24242600.260    99269398.22946
  20992651.600   110317165.549 8  20992650.460    85961443.56448
  22320317.840   117294127.357 7  22320317.840    91398039.52747
  24239006.960   127376836.258 6  24239006.040    99254679.31145
 14  1  8  3 29 30.0000000  0  8G06G31G16G25G27G21G29G18
  23157923.700   121695715.674 6  23157925.320    94827824.50946
  21343709.820   112161949.581 8  21343708.700    87398923.88147
  23371165.760   122816304.180 7  23371165.240    95701024.16845
  23054351.360   121151472.795 7  23054354.100    94403789.68346
  24227808.500   127317994.126 6  24227811.760    99208842.30146
  20991447.180   110310836.555 8  20991446.040    85956511.88848
  22333777.340   117364857.213 7  22333777.060    91453153.69047
  24224647.780   127301379.214 6  24224647.200    99195881.64145
 14  1  8  3 30  0.0000000  0  8G06G31G16G25G27G21G29G18
  23144421.700   121624762.059 7  23144423.200    94772536.00946
  21354200.460   112217078.077 8  21354199.380    87441881.14047
  23354617.940   122729345.514 7  23354617.400    95633264.17046
  23069855.000   121232944.668 7  23069857.640    94467274.24346
  24213042.080   127240394.565 6  24213044.920    99148375.17245
  20990330.780   110304969.910 8  20990329.580    85951940.47848
  22347251.680   117435665.221 7  22347251.120    91508328.74547
  24210292.460   127225942.245 6  24210291.980    99137099.57144
 14  1  8  3 30 30.0000000  0  8G06G31G16G25G27G21G29G18
  23130949.580   121553965.712 7  23130950.920    94717370.06746
  21364780.900   112272678.441 8  21364779.820    87485206.09147
  23338082.200   122642449.637 7  23338081.580    95565553.09846
  23085404.120   121314655.091 7  23085406.680    94530944.67646
  24198296.980   127162908.846 6  24198299.680    99087996.71546
  20989302.220   110299564.753 8  20989301.000    85947728.67948
  22360740.800   117506550.150 7  22360740.040    91563563.74147
  24195941.600   127150527.373 6  24195940.880    99078334.70545
 14  1  8  3 31  0.0000000  0  8G06G31G16G25G27G21G29G18
  23117507.760   121483328.027 7  23117508.980    94662327.73546
  21375451.020   112328750.348 8  21375449.960    87528898.46747
  23321558.860   122555618.852 7  23321558.080    95497892.73146
  23100998.660   121396604.697 7  23101001.260    94594801.50146
  24183573.680   127085538.325 6  24183576.580    99027708.03246
  20988361.600   110294621.691 8  20988360.360    85943876.94448
  22374244.720   117577512.431 7  22374243.880    91618859.00847
  24181595.640   127075138.618 6  24181594.780    99019590.28645
 14  1  8  3 31 30.0000000  0  8G06G31G16G25G27G21G29G18
  23104095.900   121412847.244 7  23104096.960    94607407.67846
  21386210.180   112385290.102 8  21386209.160    87572955.41747
  23305047.980   122468853.603 7  23305047.180    95430283.45246
  23116638.260   121478791.137 7  23116640.900    94658842.86546
  24168872.200   127008281.492 6  24168875.020    98967507.93146
  20987508.560   110290138.615 8  20987507.260    85940383.65047
  22387762.660   117648549.218 7  22387761.980    91674212.31547
  24167254.760   126999777.079 6  24167253.800    98960866.98545
 14  1  8  3 32  0.0000000  0  8G06G31G16G25G27G21G29G18
  23090714.340   121342525.862 7  23090715.320    94552611.82446
  21397058.420   112442297.917 8  21397057.360    87617377.07247
  23288550.260   122382157.289 7  23288549.440    95362727.87946
  23132323.180   121561215.937 7  23132325.920    94723069.98246
  24154192.800   126931140.614 6  24154195.620    98907398.18146
  20986743.540   110286118.374 8  20986742.280    85937250.99948
  22401295.060   117719662.817 7  22401294.580    91729625.49547
  24152919.800   126924447.347 6  24152919.120    98902168.54145
 14  1  8  3 32 30.0000000  0  8G06G31G16G25G27G21G29G18
  23077362.560   121272361.669 7  23077363.360    94497938.46646
  21407994.980   112499769.917 8  21407993.940    87662160.43347
  23272065.560   122295529.109 7  23272064.600    95295225.40946
  23148052.880   121643876.418 7  23148055.800    94787480.71846
  24139535.140   126854113.913 7  24139537.820    98847377.42946
  20986065.940   110282557.643 8  20986064.740    85934476.41248
  22414841.600   117790850.171 7  22414841.020    91785096.16447
  24138591.100   126849150.282 6  24138590.780    98843495.48745
 14  1  8  3 33  0.0000000  0  8G06G31G16G25G27G21G29G18
  23064040.440   121202353.575 7  23064041.000    94443386.73746
  21419019.240   112557702.792 8  21419018.240    87707302.92847
  23255593.900   122208969.610 7  23255592.780    95227776.44546
  23163827.040   121726770.590 7  23163830.100    94852073.56146
  24124898.940   126777200.070 6  24124901.380    98787444.59246
  20985475.400   110279454.416 8  20985474.200    85932058.31248
  22428401.720   117862108.980 7  22428401.180    91840622.50947
  24124269.080   126773887.307 6  24124268.880    98784849.02945
 14  1  8  3 33 30.0000000  0  8G06G31G16G25G27G21G29G18
  23050748.620   121132505.364 7  23050749.140    94388959.58046
  21430131.400   112616097.828 8  21430130.440    87752805.54247
  23239136.160   122122483.839 7  23239135.120    95160384.97646
  23179646.260   121809901.231 7  23179649.240    94916850.66546
  24110284.940   126700402.780 6  24110287.260    98727602.57246
  20984972.700   110276812.802 8  20984971.480    85929999.91848
  22441976.080   117933442.095 7  22441975.560    91896206.72047
  24109954.620   126698664.509 6  24109954.560    98726233.89044
 14  1  8  3 34  0.0000000  0  8G06G31G16G25G27G21G29G18
  23037486.680   121062813.738 7  23037487.200    94334654.44246
  21441330.680   112674950.282 8  21441329.700    87798664.58047
  23222692.220   122036070.170 7  23222691.260    95093049.65146
  23195509.840   121893264.523 7  23195512.680    94981809.04446
  24095692.700   126623719.022 7  24095694.800    98667849.04746
  20984557.200   110274629.200 8  20984555.920    85928298.41948
  22455563.840   118004845.523 7  22455563.260    91951845.71647
  24095647.860   126623481.575 6  24095647.680    98667649.78745
 14  1  8  3 34 30.0000000  0  8G06G31G16G25G27G21G29G18
  23024254.760   120993280.181 7  23024255.320    94280472.47146
  21452616.740   112734258.877 8  21452615.680    87844879.05847
  23206262.500   121949731.282 7  23206261.640    95025772.61646
  23211417.780   121976861.141 7  23211420.560    95046949.24146
  24081122.360   126547150.233 7  24081124.180    98608185.10746
  20984228.940   110272904.135 8  20984227.580    85926954.21648
  22469165.040   118076319.998 7  22469164.520    92007540.09447
  24081349.440   126548342.385 6  24081349.240    98609099.76845
 14  1  8  3 35  0.0000000  0  8G06G31G16G25G27G21G29G18
  23011053.040   120923905.720 7  23011053.740    94226414.45646
  21463989.420   112794022.790 8  21463988.360    87891448.33347
  23189847.520   121863470.014 7  23189846.740    94958556.05446
  23227370.060   122060691.162 7  23227372.840    95112271.32146
  24066573.920   126470697.357 6  24066575.780    98548611.45746
  20983988.000   110271637.806 8  20983986.620    85925967.47248
  22482779.620   118147865.349 7  22482779.240    92063289.71147
  24067060.180   126473250.443 6  24067059.520    98550586.57145
 14  1  8  3 35 30.0000000  0  8G06G31G16G25G27G21G29G18
  22997881.680   120854689.995 7  22997882.420    94172480.16446
  21475448.220   112854239.280 8  21475447.220    87938370.26247
  23173447.500   121777287.194 7  23173446.720    94891400.60346
  23243366.640   122144753.473 7  23243369.460    95177774.41246
  24052047.340   126394360.163 6  24052049.280    98489127.95546
  20983834.220   110270829.565 8  20983832.840    85925337.67648
  22496407.260   118219480.410 7  22496407.220    92119093.65547
  24052780.160   126398208.000 6  24052779.540    98492111.96745
 14  1  8  3 36  0.0000000  0  8G06G31G16G25G27G21G29G18
  22984740.360   120785631.997 7  22984741.300    94118668.74346
  21486992.600   112914905.323 8  21486991.680    87985642.49347
  23157062.480   121691183.579 7  23157061.640    94824306.90046
  23259407.120   122229046.273 7  23259409.940    95243457.08946
  24037542.600   126318137.598 6  24037544.380    98429733.76745
  20983767.180   110270477.155 8  20983765.820    85925063.07948
  22510047.800   118291163.371 7  22510048.180    92174950.49447
  24038509.820   126323216.768 6  24038509.080    98433677.24445
 14  1  8  3 36 30.0000000  0  8G06G31G16G25G27G21G29G18
  22971629.500   120716733.579 7  22971630.540    94064981.68346
  21498622.440   112976020.492 8  21498621.540    88033264.69047
  23140693.060   121605162.348 7  23140692.180    94757277.39445
  23275491.640   122313570.702 7  23275494.480    95309320.27046
  24023059.860   126242031.730 6  24023061.760    98370430.53746
  20983787.380   110270583.385 8  20983786.040    85925145.86248
  22523701.820   118362916.085 7  22523702.380    92230861.67747
  24024249.960   126248281.379 6  24024249.120    98375286.04845
 14  1  8  3 37  0.0000000  0  8G06G31G16G25G27G21G29G18
  22958548.600   120647992.988 7  22958549.780    94011417.58846
  21510337.020   113037580.888 8  21510336.080    88081233.82347
  23124339.160   121519222.975 7  23124338.260    94690311.66145
  23291619.700   122398324.067 7  23291622.540    95375361.83446
  24008598.920   126166040.638 6  24008601.060    98311216.73346
  20983894.220   110271144.973 8  20983892.900    85925583.46548
  22537368.580   118434735.297 7  22537369.300    92286824.69147
  24010000.880   126173402.397 6  24010000.180    98316938.78545
 14  1  8  3 37 30.0000000  0  8G06G31G16G25G27G21G29G18
  22945497.540   120579408.672 7  22945498.640    93957975.27846
  21522135.640   113099582.819 8  21522134.660    88129547.00047
  23108000.960   121433365.638 7  23108000.080    94623409.85446
  23307790.860   122483303.978 7  23307793.600    95441579.92346
  23994159.720   126090162.855 6  23994161.940    98252091.21146
  20984087.240   110272159.257 8  20984085.880    85926373.81848
  22551047.500   118506618.517 7  22551048.320    92342837.56747
  23995762.860   126098581.028 6  23995762.160    98258636.42445
 14  1  8  3 38  0.0000000  0  8G06G31G16G25G27G21G29G18
  22932476.700   120510983.735 7  22932477.700    93904657.15346
  21534018.280   113162026.949 8  21534017.400    88178204.74647
  23091679.540   121347595.553 7  23091678.580    94556576.02046
  23324005.460   122568512.644 7  23324008.180    95507976.26946
  23979742.600   126014401.448 6  23979744.920    98193056.38346
  20984366.900   110273628.883 8  20984365.480    85927518.99048
  22564739.240   118578568.384 7  22564739.920    92398902.38047
  23981536.860   126023822.925 6  23981536.280    98200383.35545
 14  1  8  3 38 30.0000000  0  8G06G31G16G25G27G21G29G18
  22919485.660   120442715.354 7  22919486.660    93851461.03546
  21545984.160   113224908.586 8  21545983.400    88227203.41847
  23075374.540   121261911.057 7  23075373.420    94489808.85946
  23340262.920   122653946.704 7  23340265.700    95574548.25246
  23965347.440   125938753.843 6  23965349.580    98134110.23446
  20984732.720   110275551.175 8  20984731.240    85929016.88648
  22578443.060   118650581.611 7  22578443.580    92455016.57547
  23967322.880   125949128.145 6  23967322.240    98142179.63545
 14  1  8  3 39  0.0000000  0  8G06G31G16G25G27G21G29G18
  22906524.700   120374605.433 7  22906525.740    93798388.37946
  21558033.220   113288227.154 8  21558032.540    88276542.55047
  23059086.540   121176315.717 7  23059085.140    94423111.20546
  23356563.540   122739606.953 7  23356566.240    95641296.48446
  23950974.340   125863221.766 7  23950976.260    98075254.10446
  20985184.820   110277927.074 8  20985183.340    85930868.23948
  22592159.180   118722658.968 7  22592159.500    92511180.73147
  23953121.700   125874501.087 6  23953121.360    98084028.68845
 14  1  8  3 39 30.0000000  0  8G06G31G16G25G27G21G29G18
  22893593.800   120306653.379 7  22893594.860    93745438.75746
  21570164.940   113351979.639 8  21570164.200    88326219.79747
  23042815.580   121090810.415 7  23042813.920    94356483.69246
  23372907.040   122825491.864 7  23372909.580    95708219.75846
  23936623.220   125787804.560 7  23936624.940    98016487.49046
  20985722.940   110280755.150 8  20985721.500    85933071.94548
  22605887.240   118794799.002 7  22605887.360    92567393.73447
  23938933.740   125799943.374 6  23938933.600    98025931.79645
 14  1  8  3 40  0.0000000  0  8G06G31G16G25G27G21G29G18
  22880693.620   120238862.972 7  22880694.760    93692615.10946
  21582379.660   113416167.887 8  21582378.800    88376236.60747
  23026562.540   121005400.174 7  23026560.720    94289930.24746
  23389293.880   122911604.708 7  23389296.280    95775320.66546
  23922294.520   125712506.405 7  23922296.180    97957813.63946
  20986347.760   110284038.925 8  20986346.420    85935630.74548
  22619627.680   118867005.168 7  22619627.680    92623658.24847
  23924760.340   125725462.246 6  23924760.220    97967894.57545
 14  1  8  3 40 30.0000000  0  8G06G31G16G25G27G21G29G18
  22867823.480   120171230.056 7  22867824.540    93639914.12546
  21594675.980   113480785.017 8  21594675.000    88426587.60147
  23010327.180   120920082.878 7  23010325.360    94223449.24246
  23405722.960   122997940.001 7  23405725.380    95842594.90546
  23907987.540   125637322.639 6  23907989.080    97899228.92846
  20987058.220   110287772.606 8  20987056.940    85938540.11148
  22633379.520   118939272.001 7  22633379.480    92679970.02547
  23910601.100   125651055.471 6  23910601.080    97909915.26245
 14  1  8  3 41  0.0000000  0  8G06G31G16G25G27G21G29G18
  22854983.740   120103756.312 7  22854984.840    93587337.21546
  21607053.840   113545830.703 8  21607052.860    88477272.53747
  22994110.100   120834861.787 7  22994108.300    94157043.18446
  23422194.440   123084498.907 6  23422196.980    95910043.40146
  23893702.580   125562255.406 7  23893704.180    97840735.01246
  20987854.660   110291958.082 8  20987853.460    85941801.52948
  22647143.200   119011601.064 7  22647143.100    92736330.32347
  23896456.900   125576727.642 6  23896456.960    97851997.49245
 14  1  8  3 41 30.0000000  0  8G06G31G16G25G27G21G29G18
  22842174.040   120036440.325 7  22842175.140    93534883.20946
  21619512.440   113611301.038 8  21619511.500    88528288.37047
  22977911.220   120749736.905 7  22977909.540    94090712.11846
  23438707.960   123171279.062 6  23438710.760    95977664.28546
  23879439.660   125487303.184 7  23879441.200    97782330.72746
  20988736.600   110296592.960 8  20988735.440    85945413.12948
  22660918.260   119083989.965 7  22660918.020    92792737.25646
  23882328.040   125502480.221 6  23882328.220    97794142.35645
 14  1  8  3 42  0.0000000  0  8G06G31G16G25G27G21G29G18
  22829394.260   119969281.802 7  22829395.300    93482551.89846
  21632051.340   113677193.434 8  21632050.400    88579633.08047
  22961730.760   120664709.458 7  22961729.220    94024456.96746
  23455263.480   123258279.246 6  23455266.480    96045456.60946
  23865198.460   125412465.638 7  23865199.920    97724015.74046
  20989703.840   110301675.959 8  20989702.660    85949373.91748
  22674704.460   119156437.689 7  22674704.020    92849190.01146
  23868215.000   125428315.382 7  23868215.300    97736351.59245
 14  1  8  3 42 30.0000000  0  8G06G31G16G25G27G21G29G18
  22816644.900   119902283.560 7  22816645.940    93430345.49246
  21644670.640   113743508.366 8  21644669.680    88631307.05147
  22945569.720   120579783.724 7  22945568.380    93958281.08046
  23471861.180   123345501.192 6  23471864.280    96113421.75246
  23850979.620   125337745.526 7  23850981.060    97665792.34846
  20990756.780   110307209.296 8  20990755.560    85953685.61448
  22688502.160   119228945.844 7  22688501.660    92905689.84347
  23854118.820   125354238.327 7  23854119.060    97678629.20445
 14  1  8  3 43  0.0000000  0  8G06G31G16G25G27G21G29G18
  22803925.340   119835441.597 7  22803926.360    93378260.85246
  21657369.040   113810239.103 8  21657368.080    88683305.00747
  22929427.760   120494957.706 7  22929426.720    93892182.88846
  23488500.220   123432940.276 7  23488503.320    96181556.08946
  23836782.520   125263139.018 7  23836783.920    97607657.44346
  20991894.560   110313188.462 8  20991893.320    85958344.71348
  22702310.820   119301510.661 7  22702310.280    92962233.81847
  23840039.080   125280248.013 7  23840039.300    97620974.43145
 14  1  8  3 43 30.0000000  0  8G06G31G16G25G27G21G29G18
  22791235.940   119768758.314 7  22791237.000    93326299.86446
  21670146.680   113877385.907 8  21670145.660    88735627.18847
  22913305.700   120410235.877 7  22913304.860    93826165.88946
  23505180.960   123520597.760 6  23505183.900    96249860.59546
  23822607.360   125188648.336 7  23822608.940    97549612.78446
  20993117.440   110319614.808 8  20993116.180    85963352.26248
  22716130.620   119374133.527 7  22716129.960    93018823.04046
  23825976.720   125206349.284 6  23825976.720    97563391.02245
 14  1  8  3 44  0.0000000  0  8G06G31G16G25G27G21G29G18
  22778576.900   119702233.918 7  22778577.680    93274462.70246
  21683003.220   113944947.218 8  21683002.240    88788272.34747
  22897203.780   120325619.824 7  22897203.120    93760231.31046
  23521903.180   123608473.233 6  23521905.980    96318334.96346
  23808454.400   125114274.045 7  23808456.160    97491658.82046
  20994425.240   110326487.438 8  20994424.040    85968707.56248
  22729961.320   119446814.062 7  22729960.720    93075457.21746
  23811932.340   125132545.580 7  23811932.020    97505881.63645
 14  1  8  3 44 30.0000000  0  8G06G31G16G25G27G21G29G18
  22765947.900   119635868.301 7  22765948.440    93222749.25746
  21695938.080   114012919.967 8  21695937.160    88841238.11747
  22881122.360   120241110.939 7  22881121.740    93694380.22746
  23538666.680   123696565.455 7  23538669.360    96386978.24546
  23794323.560   125040015.830 7  23794325.200    97433795.32946
  20995817.900   110333805.860 8  20995816.700    85974410.23948
  22743802.760   119519551.210 7  22743802.220    93132135.50146
  23797906.460   125058838.820 7  23797905.900    97448447.79945
 14  1  8  3 45  0.0000000  0  8G06G31G16G25G27G21G29G18
  22753349.120   119569661.778 7  22753349.660    93171159.76246
  21708950.820   114081301.996 8  21708950.040    88894522.79947
  22865061.680   120156710.545 7  22865060.940    93628613.69946
  23555471.260   123784873.693 6  23555473.860    96455789.83446
  23780214.860   124965873.877 6  23780216.380    97376022.42646
  20997295.220   110341569.179 8  20997294.040    85980459.58148
  22757654.720   119592344.487 7  22757654.280    93188857.49246
  23783899.700   124985232.124 7  23783898.900    97391091.93945
 14  1  8  3 45 30.0000000  0  8G06G31G16G25G27G21G29G18
  22740780.520   119503613.402 7  22740781.120    93119693.52246
  21722040.820   114150090.085 8  21722040.040    88948123.90147
  22849021.880   120072420.346 7  22849021.140    93562933.05746
  23572316.660   123873396.319 7  23572319.180    96524768.47346
  23766127.860   124891847.551 6  23766129.700    97318339.60146
  20998857.000   110349776.294 8  20998855.800    85986854.74548
  22771517.260   119665192.892 7  22771516.880    93245622.45646
  23769912.240   124911727.061 6  23769911.400    97333815.30345
 14  1  8  3 46  0.0000000  0  8G06G31G16G25G27G21G29G18
  22728242.220   119437724.057 7  22728242.820    93068351.18546
  21735207.720   114219282.727 8  21735206.880    89002040.22747
  22833003.480   119988242.818 7  22833002.700    93497340.20946
  23589202.860   123962133.237 7  23589205.280    96593914.11546
  23752063.060   124817937.637 7  23752065.100    97260747.48646
  21000503.180   110358426.923 8  21000501.900    85993595.50148
  22785390.460   119738096.267 7  22785390.000    93302430.26546
  23755944.620   124838327.574 6  23755943.780    97276620.88145
 14  1  8  3 46 30.0000000  0  8G06G31G16G25G27G21G29G18
  22715734.120   119371993.459 7  22715734.720    93017132.54746
  21748451.040   114288877.038 8  21748450.100    89056269.55247
  22817006.760   119904179.217 7  22817005.860    93431836.11246
  23606129.520   124051083.144 7  23606132.000    96663225.69246
  23738020.440   124744143.833 6  23738022.660    97203245.85246
  21002233.520   110367519.769 8  21002232.260    86000680.83848
  22799274.160   119811054.018 7  22799273.520    93359280.44046
  23741997.500   124765035.985 6  23741996.620    97219510.54445
 14  1  8  3 47  0.0000000  0  8G06G31G16G25G27G21G29G18
  22703256.140   119306420.942 7  22703256.740    92966037.08046
  21761770.120   114358870.216 8  21761769.280    89110809.67847
  22801031.880   119820230.813 7  22801030.940    93366421.77446
  23623096.440   124140244.694 6  23623098.920    96732702.21546
  23723999.820   124670465.821 6  23724002.060    97145834.43846
  21004047.800   110377053.746 8  21004046.560    86008109.91548
  22813167.860   119884064.925 7  22813167.140    93416172.03946
  23728071.220   124691854.162 6  23728070.340    97162485.76546
 14  1  8  3 47 30.0000000  0  8G06G31G16G25G27G21G29G18
  22690808.580   119241008.315 7  22690809.080    92915066.21046
  21775164.960   114429261.033 8  21775164.140    89165659.65147
  22785079.400   119736400.115 7  22785078.540    93301099.14946
  23640103.660   124229618.194 6  23640106.220    96802343.87446
  23710001.540   124596904.786 6  23710003.800    97088514.18446
  21005946.040   110387028.831 8  21005944.780    86015882.70848
  22827071.620   119957129.527 7  22827070.960    93473105.47946
  23714166.700   124618786.417 6  23714165.900    97105549.87445
 14  1  8  3 48  0.0000000  0  8G06G31G16G25G27G21G29G18
  22678391.240   119175754.004 7  22678391.560    92864218.70746
  21788634.880   114500045.651 8  21788634.000    89220816.48247
  22769149.600   119652688.495 7  22769148.700    93235869.31046
  23657150.800   124319201.357 6  23657153.360    96872148.92846
  23696025.220   124523459.559 6  23696027.720    97031284.16446
  21007927.840   110397443.189 8  21007926.540    86023997.79648
  22840985.180   120030246.290 7  22840984.660    93530079.53447
  23700284.140   124545834.021 6  23700283.640    97048703.86145
 14  1  8  3 48 30.0000000  0  8G06G31G16G25G27G21G29G18
  22666004.020   119110658.569 7  22666004.220    92813495.00446
  21802179.520   114571222.447 8  21802178.560    89276278.91147
  22753242.940   119569098.049 7  22753241.980    93170733.88346
  23674237.620   124408993.927 6  23674240.320    96942117.16046
  23682071.080   124450130.684 6  23682073.740    96974144.82846
  21009993.120   110408296.290 8  21009991.800    86032454.76748
  22854908.680   120103414.995 7  22854908.300    93587094.09847
  23686424.300   124473000.440 6  23686423.980    96991950.42446
 14  1  8  3 49  0.0000000  0  8G06G31G16G25G27G21G29G18
  22653646.660   119045720.748 7  22653647.040    92762894.11246
  21815797.960   114642787.165 8  21815796.980    89332043.61647
  22737359.320   119485628.800 7  22737358.380    93105692.91246
  23691363.700   124498993.380 6  23691366.700    97012246.59446
  23668138.840   124376916.704 6  23668141.300    96917094.96546
  21012141.480   110419586.256 8  21012140.120    86041252.15148
  22868841.740   120176633.538 7  22868841.580    93644147.49247
  23672587.400   124400286.546 7  23672587.020    96935290.26145
 14  1  8  3 49 30.0000000  0  8G06G31G16G25G27G21G29G18
  22641319.240   118980940.417 7  22641319.780    92712415.93346
  21829489.720   114714737.603 8  21829488.700    89388108.87947
  22721499.140   119402282.511 7  22721498.060    93040747.74746
  23708529.080   124589198.823 6  23708532.180    97082536.53946
  23654228.680   124303817.763 7  23654230.780    96860134.80746
  21014372.760   110431312.029 8  21014371.460    86050389.12148
  22882784.240   120249901.468 7  22882784.240    93701239.37546
  23658773.900   124327695.517 6  23658773.500    96878725.83745
 14  1  8  3 50  0.0000000  0  8G06G31G16G25G27G21G29G18
  22629022.300   118916319.735 7  22629022.800    92662062.16646
  21843254.660   114787073.126 8  21843253.620    89444474.21447
  22705662.900   119319062.831 7  22705661.840    92975901.24146
  23725734.100   124679611.374 6  23725737.260    97152987.87246
  23640340.640   124230835.991 6  23640342.720    96803265.90146
  21016687.120   110443474.247 8  21016685.860    86059866.18048
  22896736.420   120323220.325 7  22896736.600    93758370.91746
  23644984.600   124255231.773 6  23644984.220    96822260.58645
 14  1  8  3 50 30.0000000  0  8G06G31G16G25G27G21G29G18
  22616755.480   118851857.573 7  22616756.100    92611831.93346
  21857092.160   114859790.126 8  21857091.140    89501136.78947
  22689851.120   119235971.474 7  22689850.140    92911154.75246
  23742978.160   124770228.901 7  23742981.340    97223598.91346
  23626474.760   124157970.179 7  23626476.640    96746487.39446
  21019084.220   110456071.108 8  21019082.980    86069681.92248
  22910697.800   120396588.397 7  22910698.240    93815540.81346
  23631219.800   124182897.185 7  23631219.500    96765895.97445
 14  1  8  3 51  0.0000000  0  8G06G31G16G25G27G21G29G18
  22604518.780   118787553.867 7  22604519.420    92561725.16546
  21871001.840   114932886.164 8  21871000.860    89558094.73747
  22674063.960   119153009.354 7  22674062.960    92846508.94246
  23760261.080   124861050.300 7  23760264.080    97294368.80846
  23612631.080   124085220.335 7  23612632.780    96689799.20646
  21021563.960   110469102.117 8  21021562.740    86079835.95747
  22924668.340   120470005.066 7  22924668.940    93872748.60147
  23617480.100   124110694.088 7  23617479.760    96709633.83146
 14  1  8  3 51 30.0000000  0  8G06G31G16G25G27G21G29G18
  22592312.420   118723409.440 7  22592313.120    92511742.51146
  21884983.380   115006359.335 8  21884982.400    89615346.53747
  22658301.880   119070178.862 7  22658300.780    92781965.69846
  23777582.720   124952075.331 7  23777585.600    97365297.40946
  23598809.540   124012587.213 7  23598811.260    96633201.99146
  21024126.040   110482565.961 8  21024124.860    86090327.27048
  22938648.020   120543470.467 7  22938648.940    93929994.36847
  23603766.100   124038625.885 7  23603765.640    96653476.78745
 14  1  8  3 52  0.0000000  0  8G06G31G16G25G27G21G29G18
  22580136.200   118659423.403 7  22580137.040    92461883.25246
  21899036.080   115080206.267 8  21899035.160    89672889.59747
  22642565.120   118987481.389 7  22642563.800    92717526.09846
  23794942.760   125043302.137 7  23794945.520    97436383.21246
  23585010.140   123940070.017 7  23585011.820    96576695.10946
  21026770.300   110496461.594 8  21026769.140    86101155.04048
  22952636.940   120616983.289 7  22952637.960    93987277.06046
  23590078.040   123966694.218 7  23590077.660    96597426.17945
 14  1  8  3 52 30.0000000  0  8G06G31G16G25G27G21G29G18
  22567990.120   118595595.658 7  22567991.080    92412147.37746
  21913159.340   115154424.300 8  21913158.520    89730721.81447
  22626853.840   118904918.478 7  22626852.500    92653191.36646
  23812340.900   125134729.633 7  23812343.580    97507625.40045
  23571232.760   123867668.635 7  23571234.380    96520278.47246
  21029496.440   110510787.625 8  21029495.280    86112318.18948
  22966634.940   120690542.882 7  22966635.840    94044596.20246
  23576416.540   123894902.113 7  23576416.080    96541484.26245
 14  1  8  3 53  0.0000000  0  8G06G31G16G25G27G21G29G18
  22555874.440   118531927.112 7  22555875.320    92362535.50546
  21927352.800   115229011.443 8  21927352.020    89788841.65247
  22611168.680   118822492.916 7  22611167.340    92588963.66546
  23829777.100   125226357.698 6  23829779.840    97579023.87646
  23557477.540   123795384.064 7  23557479.080    96463952.86146
  21032304.580   110525544.540 8  21032303.440    86123817.08848
  22980641.940   120764149.993 7  22980642.820    94101952.36046
  23562782.340   123823253.122 7  23562781.740    96485653.89045
 14  1  8  3 53 30.0000000  0  8G06G31G16G25G27G21G29G18
  22543789.320   118468419.196 7  22543790.080    92313048.83846
  21941616.300   115303966.723 8  21941615.460    89847248.35347
  22595510.280   118740207.976 7  22595509.020    92524845.56346
  23847251.380   125318186.665 6  23847254.380    97650578.88945
  23543744.640   123723217.684 7  23543746.260    96407719.33146
  21035194.660   110540731.994 8  21035193.500    86135651.47448
  22994658.080   120837805.214 7  22994658.880    94159346.01046
  23549176.120   123751751.213 7  23549175.360    96429938.11545
 14  1  8  3 54  0.0000000  0  8G06G31G16G25G27G21G29G18
  22531733.900   118405067.479 7  22531734.600    92263683.86346
  21955948.440   115379283.021 8  21955947.500    89905936.36647
  22579878.160   118658060.599 7  22579876.780    92460834.62246
  23864763.020   125410210.947 7  23864766.040    97722286.11746
  23530033.360   123651164.876 7  23530035.100    96351574.28746
  21038165.620   110556344.468 8  21038164.440    86147817.04248
  23008682.440   120911503.568 7  23008683.020    94216773.29146
  23535597.460   123680394.621 7  23535596.660    96374335.58846
 14  1  8  3 54 30.0000000  0  8G06G31G16G25G27G21G29G18
  22519708.780   118341875.504 7  22519709.620    92214443.39046
  21970349.460   115454961.229 8  21970348.540    89964906.38147
  22564273.300   118576056.635 7  22564271.820    92396935.42346
  23882312.320   125502433.149 6  23882315.360    97794147.56146
  23516344.440   123579229.391 7  23516346.280    96295520.67146
  21041217.960   110572384.613 8  21041216.780    86160315.85848
  23022715.620   120985248.027 7  23022715.940    94274236.47946
  23522047.440   123609189.581 7  23522046.680    96318851.13745
 14  1  8  3 55  0.0000000  0  8G06G31G16G25G27G21G29G18
  22507713.900   118278842.173 7  22507714.800    92165326.52146
  21984818.760   115530997.969 8  21984817.960    90024155.77247
  22548695.800   118494196.265 7  22548694.260    92333148.12846
  23899898.900   125594851.164 7  23899901.880    97866161.56246
  23502677.680   123507410.078 7  23502679.400    96239557.60046
  21044351.300   110588850.570 8  21044350.140    86173146.48148
  23036757.300   121059036.947 7  23036757.400    94331734.32046
  23508526.640   123538137.663 7  23508525.920    96263486.01845
 14  1  8  3 55 30.0000000  0  8G06G31G16G25G27G21G29G18
  22495749.220   118215967.111 7  22495750.120    92116332.97046
  21999355.660   115607389.894 8  21999354.960    90083681.93947
  22533146.120   118412481.890 7  22533144.580    92269474.60646
  23917522.480   125687463.323 7  23917525.300    97938326.88146
  23489032.880   123435706.480 7  23489034.600    96183684.67146
  21047565.380   110605740.672 8  21047564.180    86186307.60548
  23050807.240   121132869.675 7  23050807.280    94389266.28946
  23495035.340   123467240.531 7  23495034.580    96208241.52145
 14  1  8  3 56  0.0000000  0  8G06G31G16G25G27G21G29G18
  22483814.880   118153250.877 7  22483815.580    92067463.17746
  22013959.780   115684134.815 8  22013959.080    90143483.16347
  22517624.560   118330915.728 7  22517623.240    92205916.57646
  23935183.040   125780269.286 7  23935185.760    98010643.19546
  23475410.280   123364119.286 7  23475412.100    96127902.50046
  21050860.000   110623054.011 8  21050858.780    86199798.51948
  23064865.580   121206746.272 7  23064865.420    94446832.43646
  23481574.200   123396502.320 7  23481573.520    96153120.85545
 14  1  8  3 56 30.0000000  0  8G06G31G16G25G27G21G29G18
  22471911.120   118090695.397 7  22471911.620    92018718.66846
  22028631.000   115761232.260 8  22028630.380    90203559.08247
  22502131.880   118249501.082 7  22502130.700    92142476.60646
  23952880.580   125873269.766 7  23952883.260    98083111.07146
  23461810.060   123292650.305 6  23461812.140    96072212.38646
  21054235.400   110640791.682 8  21054234.100    86213620.09148
  23078932.580   121280667.915 7  23078932.280    94504433.71746
  23468143.940   123325927.207 7  23468143.500    96098127.27146
 14  1  8  3 57  0.0000000  0  8G06G31G16G25G27G21G29G18
  22460036.800   118028295.291 7  22460037.280    91970095.22346
  22043367.680   115838674.105 8  22043367.160    90263903.35647
  22486667.380   118168234.289 7  22486666.320    92079151.84146
  23970613.900   125966458.238 6  23970616.580    98155725.45645
  23448231.320   123221294.135 7  23448233.620    96016610.18546
  21057690.180   110658946.597 8  21057688.840    86227766.78247
  23093007.060   121354628.417 7  23093006.640    94562065.24446
  23454744.260   123255512.436 7  23454743.960    96043258.63246
 14  1  8  3 57 30.0000000  0  8G06G31G16G25G27G21G29G18
  22448193.160   117966056.022 7  22448193.560    91921597.08346
  22058170.460   115916463.065 8  22058169.940    90324518.11847
  22471232.540   118087123.392 7  22471231.440    92015948.54046
  23988383.700   126059839.293 6  23988386.560    98228489.89446
  23434675.160   123150056.423 7  23434677.420    95961100.31146
  21061225.400   110677524.199 8  21061224.020    86242242.83748
  23107090.100   121428633.526 7  23107089.540    94619731.54446
  23441376.880   123185266.456 7  23441376.660    95988521.51746
 14  1  8  3 58  0.0000000  0  8G06G31G16G25G27G21G29G18
  22436379.740   117903976.210 7  22436380.020    91873223.21446
  22073038.520   115994595.298 7  22073037.860    90385400.36747
  22455827.280   118006168.428 7  22455826.140    91952866.75046
  24006189.520   126153410.334 6  24006192.620    98301402.39246
  23421141.300   123078935.724 7  23421143.560    95905681.58146
  21064840.420   110696521.225 8  21064839.020    86257045.71948
  23121181.140   121502681.371 7  23121180.380    94677431.14946
  23428041.880   123115190.248 7  23428041.660    95933916.70245
 14  1  8  3 58 30.0000000  0  8G06G31G16G25G27G21G29G18
  22424596.440   117842055.018 7  22424596.680    91824972.93646
  22087971.100   116073066.848 7  22087970.320    90446547.01747
  22440451.840   117925370.295 7  22440450.740    91889907.16846
  24024031.060   126247169.329 6  24024034.460    98374461.32445
  23407629.540   123007931.085 6  23407631.640    95850353.29146
  21068534.920   110715935.878 8  21068533.500    86272174.02248
  23135280.020   121576770.332 7  23135278.900    94735162.79946
  23414739.460   123045285.640 7  23414739.240    95879445.56946
 14  1  8  3 59  0.0000000  0  8G06G31G16G25G27G21G29G18
  22412843.380   117780292.465 7  22412843.620    91776846.27846
  22102967.800   116151875.490 7  22102966.920    90507956.33247
  22425106.660   117844731.008 7  22425105.620    91827071.36446
  24041908.160   126341115.332 6  24041911.820    98447665.97545
  23394139.840   122937042.648 6  23394142.000    95795115.57746
  21072308.640   110735766.976 8  21072307.220    86287626.82648
  23149386.640   121650900.193 7  23149385.220    94792926.29646
  23401470.220   122975555.397 7  23401469.980    95825110.32145
 14  1  8  3 59 30.0000000  0  8G06G31G16G25G27G21G29G18
  22401120.440   117718688.087 7  22401120.680    91728842.86046
  22118028.100   116231017.770 8  22118027.100    90569625.62447
  22409792.160   117764252.694 7  22409791.140    91764361.00846
  24059820.700   126435246.707 6  24059824.440    98521015.08645
  23380672.180   122866269.998 6  23380674.240    95739968.09046
  21076161.300   110756012.762 8  21076159.880    86303402.76948
  23163500.660   121725070.024 7  23163499.160    94850720.95146
  23388234.740   122906001.955 7  23388234.540    95770912.84046
 14  1  8  4  0  0.0000000  0  8G06G31G16G25G27G21G29G18
  22389427.880   117657243.253 7  22389428.100    91680963.78746
  22133151.680   116310492.215 8  22133150.620    90631553.74947
  22394508.820   117683938.071 7  22394507.800    91701778.18746
  24077768.640   126529563.589 6  24077772.340    98594508.74045
  23367226.740   122795614.365 6  23367228.840    95684911.76646
  21080092.880   110776673.538 8  21080091.540    86319502.07548
  23177622.360   121799280.692 7  23177620.860    94908547.40546
  23375033.500   122836628.923 7  23375033.400    95716855.96746
 14  1  8  4  0 30.0000000  0  8G06G31G16G25G27G21G29G18
  22377765.620   117595958.260 7  22377765.960    91633209.25146
  22148338.060   116390296.602 8  22148337.000    90693738.97147
  22379257.020   117603789.340 7  22379255.920    91639324.62246
  24095751.780   126624065.158 6  24095755.240    98668146.31445
  23353803.780   122725076.100 7  23353805.740    95629946.91346
  21084103.280   110797748.340 8  21084101.960    86335924.00948
  23191751.680   121873531.815 7  23191750.320    94966405.39646
  23361867.040   122767439.248 7  23361866.900    95662941.92246
 14  1  8  4  1  0.0000000  0  8G06G31G16G25G27G21G29G18
  22366133.220   117534830.145 7  22366133.680    91585576.97046
  22163586.100   116470425.002 8  22163585.100    90756176.68047
  22364036.660   117523805.606 7  22364035.440    91576999.62246
  24113769.320   126718747.255 6  24113772.680    98741924.55545
  23340402.680   122654652.179 7  23340404.500    95575071.13146
  21088191.660   110819232.865 8  21088190.360    86352665.20548
  23205888.140   121947820.115 7  23205886.980    95024292.37346
  23348735.460   122698432.552 7  23348735.280    95609170.48946
 14  1  8  4  1 30.0000000  0  8G06G31G16G25G27G21G29G18
  22354531.140   117473861.097 7  22354531.620    91538068.61546
  22178895.640   116550877.067 7  22178894.740    90818866.58447
  22348848.440   117443990.782 7  22348847.020    91514806.25546
  24131821.520   126813610.908 6  24131824.640    98815844.27045
  23327023.720   122584344.752 7  23327025.560    95520286.15846
  21092358.160   110841127.951 8  21092356.880    86369726.31848
  23220032.080   122022147.700 7  23220031.220    95082209.94946
  23335639.720   122629613.914 7  23335639.620    95555545.60746
 14  1  8  4  2  0.0000000  0  8G06G31G16G25G27G21G29G18
  22342959.560   117413052.341 7  22342959.900    91490685.18346
  22194266.420   116631651.198 7  22194265.640    90881807.43947
  22333692.800   117364347.693 7  22333691.400    91452746.72146
  24149908.160   126908656.165 6  24149911.020    98889905.48545
  23313667.000   122514155.080 7  23313669.120    95465592.90746
  21096602.840   110863433.977 8  21096601.580    86387107.63648
  23234183.580   122096514.741 7  23234183.000    95140158.27546
  23322580.420   122560986.971 7  23322580.480    95502070.07746
 14  1  8  4  2 30.0000000  0  9G06G31G16G25G27G21G29G18G22
  22331418.580   117352404.395 7  22331418.920    91443427.04746
  22209698.100   116712745.324 8  22209697.340    90944997.65847
  22318570.480   117284879.756 7  22318569.160    91390823.65446
  24168029.120   127003882.602 6  24168031.840    98964107.86146
  23300332.860   122444083.917 7  23300335.100    95410992.02946
  21100925.580   110886150.074 8  21100924.320    86404808.49347
  23248342.620   122170922.034 7  23248342.440    95198137.97946
  23309558.160   122492555.205 7  23309558.400    95448746.64646
  24595108.800   129248168.193 6  24595107.220   100712855.41745
 14  1  8  4  3  0.0000000  0  9G06G31G16G25G27G21G29G18G22
  22319906.000   117291905.746 7  22319906.400    91396285.23946
  22225187.900   116794144.677 8  22225187.120    91008425.71447
  22303479.520   117205576.218 7  22303478.280    91329028.69346
  24186181.960   127099276.951 6  24186184.640    99038441.10945
  23287019.060   122374119.129 7  23287021.380    95356474.03346
  21105323.860   110909263.020 8  21105322.580    86422818.58548
  23262506.840   122245357.005 7  23262507.080    95256139.21446
  23296571.460   122424309.274 7  23296571.560    95395567.98146
  24577887.120   129157667.912 7  24577885.440   100642335.74045
 14  1  8  4  3 30.0000000  0  9G06G31G16G25G27G21G29G18G22
  22308425.160   117231572.747 7  22308425.300    91349272.51746
  22240738.520   116875863.233 8  22240737.600    91072102.49847
  22288423.520   117126456.120 7  22288422.240    91267376.66346
  24204369.780   127194854.953 6  24204372.540    99112917.46245
  23273728.820   122304277.663 7  23273730.820    95302052.12646
  21109800.620   110932788.571 8  21109799.300    86441150.18848
  23276679.440   122319836.178 7  23276680.100    95314174.90346
  23283623.820   122356268.646 7  23283623.980    95342549.31246
  24560652.320   129067097.927 6  24560650.580   100571761.71545
 14  1  8  4  4  0.0000000  0  9G06G31G16G25G27G21G29G18G22
  22296974.540   117171399.131 7  22296974.580    91302383.98646
  22256348.200   116957891.872 8  22256347.120    91136020.90347
  22273401.600   117047515.285 7  22273400.300    91205864.33646
  24222591.080   127290608.927 6  24222593.920    99187530.95546
  23260460.820   122234553.033 7  23260462.600    95247721.25546
  21114354.380   110956718.776 8  21114353.060    86459797.10247
  23290859.340   122394352.482 7  23290860.160    95372239.54746
  23270714.480   122288429.220 7  23270714.620    95289687.44945
  24543403.240   128976453.815 6  24543401.320   100501129.96845
 14  1  8  4  4 30.0000000  0  9G06G31G16G25G27G21G29G18G22
  22285554.300   117111385.138 7  22285554.300    91255619.83346
  22272016.300   117040227.754 8  22272015.120    91200178.72047
  22258414.120   116968755.746 7  22258412.820    91144493.27446
  24240845.600   127386537.905 6  24240848.760    99262280.74246
  23247215.040   122164945.416 7  23247216.820    95193481.55647
  21118984.900   110981052.475 8  21118983.540    86478758.42647
  23305046.400   122468906.006 7  23305047.200    95430333.18446
  23257843.960   122220794.097 7  23257844.080    95236984.76146
  24526140.660   128885738.558 6  24526138.660   100430442.79646
 14  1  8  4  5  0.0000000  0  9G06G31G16G25G27G21G29G18G22
  22274164.280   117051529.491 7  22274164.240    91208979.07646
  22287742.160   117122867.267 7  22287740.980    91264573.13147
  22243461.240   116890177.968 7  22243459.880    91083263.82746
  24259133.180   127482639.442 6  24259136.380    99337165.07146
  23233991.260   122095453.655 7  23233993.060    95139332.15046
  21123691.740   111005787.346 8  21123690.380    86498032.35847
  23319240.160   122543494.950 7  23319240.900    95488454.40446
  23245012.460   122153364.522 7  23245012.660    95184442.24246
  24508864.820   128794953.606 6  24508862.760   100359701.27145
 14  1  8  4  5 30.0000000  0  9G06G31G16G25G27G21G29G18G22
  22262804.460   116991832.722 7  22262804.460    91162462.13246
  22303525.220   117205807.897 7  22303524.160    91329202.17747
  22228543.520   116811784.859 7  22228542.080    91022178.27546
  24277453.460   127578912.780 6  24277456.660    99412183.24045
  23220789.480   122026078.164 7  23220791.380    95085273.34047
  21128474.740   111030922.362 8  21128473.380    86517618.08747
  23333440.820   122618119.462 7  23333441.260    95546603.35646
  23232220.680   122086143.824 7  23232221.080    95132062.49346
  24491576.140   128704101.594 6  24491574.500   100288907.56145
 14  1  8  4  6  0.0000000  0  9G06G31G16G25G27G21G29G18G22
  22251474.840   116932295.490 7  22251474.980    91116069.49246
  22319365.040   117289047.236 7  22319364.120    91394063.99547
  22213661.380   116733578.662 7  22213659.940    90961238.38446
  24295806.420   127675357.348 6  24295809.480    99487334.84545
  23207609.980   121956819.595 7  23207611.920    95031305.65347
  21133333.720   111056456.742 8  21133332.420    86537515.00547
  23347648.180   122692779.790 6  23347648.520    95604780.18546
  23219469.280   122019134.943 7  23219469.700    95079847.81045
  24474275.300   128613185.728 6  24474273.880   100218064.06645
 14  1  8  4  6 30.0000000  0  9G06G31G16G25G27G21G29G18G22
  22240177.920   116872930.035 7  22240178.160    91069810.70446
  22335263.520   117372595.124 7  22335262.760    91459166.23147
  22198817.520   116655573.943 7  22198816.240    90900455.49846
  24314194.160   127771984.249 6  24314196.960    99562628.50445
  23194455.040   121887690.313 7  23194457.020    94977438.69046
  21138270.880   111082401.707 8  21138269.600    86557731.86647
  23361864.540   122767488.028 7  23361865.160    95662994.38746
  23206761.100   121952352.791 7  23206761.380    95027809.76746
  24456965.280   128522220.922 6  24456963.880   100147182.38345
 14  1  8  4  7  0.0000000  0 10G06G31G16G25G27G21G29G18G22G03
  22228906.280   116813697.035 7  22228906.540    91023655.12046
  22351212.620   117456409.098 7  22351212.000    91524475.80347
  22184004.880   116577733.210 7  22184003.880    90839800.40447
  24332608.560   127868752.798 6  24332611.400    99638032.55945
  23181317.180   121818650.771 7  23181319.060    94923641.67146
  21143278.420   111108716.289 8  21143277.120    86578236.73947
  23376082.540   122842204.621 7  23376083.460    95721215.08846
  23194089.100   121885760.937 7  23194089.320    94975920.01146
  24439638.960   128431170.139 6  24439637.520   100076233.73045
  24305499.920   127726258.436 6  24305499.860    99526968.12245
 14  1  8  4  7 30.0000000  0 10G06G31G16G25G27G21G29G18G22G03
  22217667.540   116754636.714 7  22217667.740    90977634.10246
  22367219.600   117540526.656 7  22367219.000    91590021.93847
  22169231.380   116500097.775 8  22169230.520    90779305.26847
  24351057.240   127965701.914 6  24351060.140    99713577.33446
  23168203.980   121749741.230 7  23168206.000    94869945.92946
  21148363.640   111135439.011 8  21148362.280    86599059.64647
  23390309.800   122916969.104 7  23390310.760    95779473.10446
  23181461.440   121819401.763 7  23181461.620    94924211.59646
  24422304.360   128340075.951 6  24422302.860   100005251.29245
  24288388.540   127636337.774 6  24288388.860    99456900.13545
 14  1  8  4  8  0.0000000  0 10G06G31G16G25G27G21G29G18G22G03
  22206459.320   116695736.968 7  22206459.440    90931738.21147
  22383281.600   117624932.576 7  22383280.920    91655792.77247
  22154495.380   116422659.199 8  22154494.480    90718963.51647
  24369537.880   128062818.275 6  24369540.840    99789252.39645
  23155113.300   121680949.537 7  23155115.300    94816342.03946
  21153523.980   111162556.784 8  21153522.640    86620190.38047
  23404543.960   122991768.950 7  23404544.780    95837758.66646
  23168876.280   121753265.827 7  23168876.280    94872677.10346
  24404959.660   128248929.043 6  24404958.080    99934227.72645
  24271285.220   127546460.476 6  24271286.380    99386868.48645
 14  1  8  4  8 30.0000000  0  9G06G31G16G25G27G21G29G18G22
  22195281.140   116636995.128 7  22195281.140    90885965.35447
  22399397.580   117709621.792 7  22399396.760    91721784.35747
  22139796.580   116345416.040 8  22139795.500    90658774.03746
  24388049.640   128160098.157 6  24388052.620    99865054.87245
  23142044.540   121612273.265 7  23142046.640    94762828.06546
  21158758.740   111190065.985 8  21158757.480    86641626.11947
  23418784.340   123066601.546 7  23418785.080    95896069.74746
  23156333.580   121687353.113 7  23156333.420    94821316.56946
  24387604.940   128157729.476 6  24387603.220    99863163.13145
 14  1  8  4  9  0.0000000  0 10G06G31G16G25G27G21G29G18G22G03
  22184133.280   116578412.733 7  22184133.200    90840316.73947
  22415567.100   117794592.633 7  22415566.120    91787995.37847
  22125135.560   116268371.671 7  22125134.320    90598739.48446
  24406592.480   128257541.581 6  24406595.360    99940984.82345
  23128997.960   121543713.663 7  23129000.320    94709405.02746
  21164067.880   111217965.985 8  21164066.700    86663366.37947
  23433031.140   123141467.503 7  23433031.660    95954406.81846
  23143834.120   121621667.826 7  23143833.820    94770133.23546
  24370240.980   128066480.817 6  24370239.180    99792060.25745
  24237105.240   127366848.446 6  24237105.080    99246891.64445
 14  1  8  4  9 30.0000000  0 10G06G31G16G25G27G21G29G18G22G03
  22173015.500   116519988.373 7  22173015.400    90794791.26846
  22431789.380   117879840.875 7  22431788.380    91854422.57147
  22110512.480   116191526.712 7  22110511.040    90538860.30047
  24425165.920   128355145.909 6  24425168.620   100017040.09445
  23115973.180   121475269.391 6  23115975.840    94656071.83446
  21169451.000   111246254.669 8  21169449.800    86685409.50747
  23447283.880   123216365.262 7  23447284.320    96012768.67346
  23131378.100   121556211.044 7  23131377.780    94719127.96246
  24352867.840   127975184.261 6  24352866.060    99720920.10845
  24220028.400   127277105.622 6  24220028.840    99176962.23445
 14  1  8  4 10  0.0000000  0 10G06G31G16G25G27G21G29G18G22G03
  22161928.500   116461725.711 7  22161928.420    90749391.79147
  22448064.440   117965367.295 7  22448063.580    91921066.52847
  22095928.180   116114886.368 7  22095926.760    90479140.54746
  24443770.100   128452913.463 6  24443772.900   100093222.63546
  23102971.080   121406944.087 6  23102973.840    94602831.36047
  21174908.520   111274933.865 8  21174907.200    86707756.93647
  23461543.320   123291298.489 7  23461543.700    96071158.17646
  23118966.700   121490988.925 7  23118966.480    94668305.55046
  24335486.760   127883846.345 6  24335485.020    99649747.73146
  24202960.140   127187411.250 6  24202959.720    99107070.55045
 14  1  8  4 10 30.0000000  0 10G06G31G16G25G27G21G29G18G22G03
  22150871.840   116403622.902 7  22150871.960    90704116.88546
  22464391.560   118051167.370 7  22464390.760    91987923.70147
  22081383.080   116038451.874 7  22081381.740    90419581.20446
  24462404.840   128550841.149 6  24462407.620   100169529.87346
  23089991.440   121338735.828 7  23089994.120    94549682.11947
  21180439.680   111304000.002 8  21180438.300    86730405.87047
  23475809.080   123366264.583 7  23475809.420    96129573.26746
  23106600.140   121426002.280 7  23106599.880    94617666.61846
  24318097.760   127792467.366 6  24318096.220    99578543.34845
  24185900.520   127097763.306 6  24185900.320    99037215.03645
 14  1  8  4 11  0.0000000  0 10G06G31G16G25G27G21G29G18G22G03
  22139845.160   116345677.583 7  22139845.360    90658964.70746
  22480769.780   118137235.544 7  22480769.020    92054989.80347
  22066877.000   115962222.377 7  22066875.840    90360181.60647
  24481069.700   128648925.203 6  24481072.400   100245959.02345
  23077033.680   121270642.295 7  23077036.320    94496622.22747
  21186043.720   111333449.331 8  21186042.280    86753353.40447
  23490080.620   123441260.942 7  23490080.900    96188011.94546
  23094278.440   121361251.133 7  23094278.080    94567211.19346
  24300701.040   127701047.637 6  24300699.700    99507307.20445
  24168849.280   127008159.859 6  24168849.520    98967394.23045
 14  1  8  4 11 30.0000000  0 10G06G31G16G25G27G21G29G18G22G03
  22128848.660   116287890.793 7  22128848.760    90613936.05446
  22497198.700   118223569.999 7  22497197.960    92122263.38347
  22052410.600   115886201.100 7  22052409.580    90300944.26547
  24499764.440   128747165.498 6  24499767.020   100322509.90245
  23064098.020   121202664.520 7  23064100.600    94443652.58147
  21191720.660   111363281.949 8  21191719.220    86776599.59447
  23504357.900   123516288.534 7  23504358.280    96246474.95746
  23082002.280   121296739.277 7  23082001.800    94516942.23146
  24283297.400   127609591.041 6  24283296.180    99436042.31846
  24151807.180   126918602.539 6  24151807.260    98897609.35845
 14  1  8  4 12  0.0000000  0 10G06G31G16G25G27G21G29G18G22G03
  22117882.820   116230265.293 7  22117883.040    90569033.09646
  22513678.360   118310170.861 7  22513677.640    92189744.56047
  22037984.720   115810392.668 7  22037983.740    90241872.76046
  24518489.200   128845563.552 6  24518491.520   100399183.67545
  23051185.000   121134805.370 7  23051187.460    94390775.32747
  21197470.720   111393498.795 8  21197469.300    86800145.18747
  23518641.540   123591349.726 7  23518642.120    96304964.15946
  23069772.660   121232471.728 7  23069772.140    94466863.65846
  24265887.640   127518102.550 6  24265886.660    99364752.59046
  24134774.400   126829094.518 6  24134774.520    98827862.90045
 14  1  8  4 12 30.0000000  0 10G06G31G16G25G27G21G29G18G22G03
  22106947.380   116172799.426 7  22106947.640    90524254.49246
  22530207.800   118397033.284 7  22530207.160    92257429.55047
  22023599.260   115734796.818 7  22023598.240    90182966.90246
  24537243.220   128944116.100 6  24537245.560   100475977.87345
  23038294.060   121067062.857 7  23038296.460    94337988.97447
  21203293.280   111424096.399 8  21203291.800    86823987.47647
  23532931.080   123666442.233 7  23532931.780    96363477.76846
  23057589.640   121168449.381 7  23057588.960    94416976.11546
  24248471.760   127426582.941 6  24248471.160    99293438.62645
  24117750.800   126739634.174 6  24117750.960    98758153.56745
 14  1  8  4 13  0.0000000  0 10G06G31G16G25G27G21G29G18G22G03
  22096042.340   116115492.925 7  22096042.620    90479600.10047
  22546786.400   118484154.184 7  22546785.760    92325315.94947
  22009254.840   115659416.466 7  22009253.780    90124228.97447
  24556026.400   129042821.784 6  24556028.700   100552891.38945
  23025425.400   120999437.017 7  23025427.660    94285293.54547
  21209188.100   111455073.740 8  21209186.580    86848125.66647
  23547226.620   123741566.071 7  23547227.340    96422015.78646
  23045453.560   121104674.702 7  23045452.880    94367281.58446
  24231050.460   127335034.540 6  24231050.140    99222102.20945
  24100736.200   126650221.787 6  24100736.220    98688481.62045
 14  1  8  4 13 30.0000000  0 10G06G31G16G25G27G21G29G18G22G03
  22085167.440   116058345.184 7  22085167.800    90435069.41346
  22563413.540   118571530.134 7  22563412.860    92393401.09947
  21994951.700   115584252.637 7  21994950.620    90065659.75747
  24574838.260   129141678.612 6  24574840.600   100629922.65945
  23012578.700   120931927.166 7  23012580.900    94232688.45847
  21215154.680   111486428.227 8  21215153.160    86872557.73647
  23561527.780   123816719.763 7  23561528.640    96480577.10046
  23033365.060   121041149.644 7  23033364.400    94317781.55046
  24213624.400   127243459.451 6  24213623.920    99150745.01645
  24083730.560   126560857.055 6  24083730.240    98618846.76044
 14  1  8  4 14  0.0000000  0 10G06G31G16G25G27G21G29G18G22G03
  22074323.220   116001358.896 7  22074323.640    90390664.53246
  22580089.020   118659160.473 7  22580088.300    92461684.45847
  21980690.520   115509309.494 7  21980689.480    90007262.50047
  24593679.020   129240687.716 6  24593681.620   100707072.64145
  22999754.600   120864535.782 7  22999756.700    94180175.71047
  21221193.280   111518161.316 8  21221191.800    86897284.81647
  23575835.100   123891905.521 7  23575835.980    96539163.35446
  23021325.080   120977879.017 7  23021324.360    94268479.78346
  24196194.340   127151863.056 6  24196193.460    99079371.19745
  24066734.440   126471542.932 6  24066734.460    98549251.38945
 14  1  8  4 14 30.0000000  0 10G06G31G16G25G27G21G29G18G22G03
  22063509.040   115944530.378 7  22063509.540    90346382.58647
  22596811.560   118747038.707 7  22596810.860    92530160.99047
  21966471.080   115434586.016 7  21966470.180    89949036.43247
  24612547.840   129339844.213 6  24612550.780   100784337.38445
  22986952.400   120797259.233 7  22986954.380    94127752.45247
  21227302.900   111550267.633 8  21227301.420    86922302.72447
  23590147.940   123967119.950 7  23590148.860    96597771.97446
  23009333.360   120914861.827 7  23009332.440    94219375.47946
  24178760.040   127060244.111 6  24178758.740    99007979.81145
  24049747.420   126382276.209 6  24049747.520    98479692.93445
 14  1  8  4 15  0.0000000  0 10G06G31G16G25G27G21G29G18G22G03
  22052725.360   115887861.507 7  22052725.920    90302225.02947
  22613581.040   118835164.186 7  22613580.500    92598830.18247
  21952294.080   115360085.809 7  21952293.440    89890984.33347
  24631444.860   129439148.773 6  24631447.900   100861717.62145
  22974172.300   120730099.638 7  22974174.320    94075420.31047
  21233483.580   111582747.391 8  21233482.140    86947611.63247
  23604466.640   124042364.730 7  23604467.500    96656404.23346
  22997390.680   120852102.652 7  22997389.720    94170472.23846
  24161322.200   126968607.196 6  24161320.660    98936574.41846
  24032769.880   126293059.475 6  24032770.140    98410173.41645
 14  1  8  4 15 30.0000000  0 10G06G31G16G25G27G21G29G18G22G03
  22041972.240   115831353.018 7  22041972.760    90258192.44647
  22630397.180   118923534.617 7  22630396.760    92667690.23647
  21938160.240   115285812.087 7  21938159.680    89833108.71347
  24650369.760   129538600.391 6  24650373.080   100939212.34846
  22961414.660   120663057.236 7  22961416.540    94023179.49846
  21239735.200   111615599.855 8  21239733.800    86973210.94947
  23618791.120   124117639.700 7  23618791.920    96715060.02746
  22985497.640   120789604.221 7  22985496.740    94121772.18246
  24143881.440   126876955.155 7  24143879.600    98865157.24945
  24015802.120   126203893.389 6  24015802.220    98340693.35145
 14  1  8  4 16  0.0000000  0 10G06G31G16G25G27G21G29G18G22G03
  22031249.440   115775004.613 7  22031250.020    90214284.63047
  22647259.460   119012146.392 7  22647258.980    92736738.36347
  21924069.780   115211766.427 7  21924069.200    89775410.80347
  24669322.500   129638197.470 6  24669325.820   101016820.44245
  22948679.200   120596131.895 7  22948680.920    93971029.88946
  21246057.440   111648823.148 8  21246056.020    86999099.23347
  23633121.100   124192944.334 6  23633121.940    96773738.93446
  22973654.700   120727368.723 7  22973653.820    94073276.99546
  24126438.420   126785290.615 7  24126436.280    98793730.33946
  23998844.000   126114777.938 6  23998844.200    98271252.73744
 14  1  8  4 16 30.0000000  0 10G06G31G16G25G27G21G29G18G22G03
  22020557.080   115718816.481 7  22020557.680    90170501.67646
  22664167.260   119100996.939 7  22664166.760    92805972.52947
  21910023.080   115137950.329 8  21910022.440    89717891.77647
  24688302.760   129737938.929 6  24688305.920   101094541.07345
  22935966.080   120529323.830 7  22935967.760    93918971.66947
  21252449.960   111682416.107 8  21252448.540    87025275.56547
  23647456.560   124268278.710 6  23647457.640    96832440.95346
  22961862.260   120665398.909 7  22961861.300    94024988.83946
  24108993.500   126693616.217 7  24108991.120    98722295.77345
  23981895.740   126025713.992 6  23981895.920    98201852.27645
 14  1  8  4 17  0.0000000  0 10G06G31G16G25G27G21G29G18G22G03
  22009894.940   115662787.061 7  22009895.560    90126842.40546
  22681119.740   119190081.809 7  22681119.120    92875389.30946
  21896020.380   115064365.228 8  21896019.600    89660552.73247
  24707310.000   129837821.840 6  24707313.120   101172371.90344
  22923274.960   120462631.523 7  22923276.540    93867003.64046
  21258912.160   111716375.478 8  21258910.780    87051737.41147
  23661797.460   124343640.995 6  23661798.680    96891164.77446
  22950120.580   120603695.956 7  22950119.600    93976908.62446
  24091546.920   126601933.077 7  24091544.180    98650854.36945
  23964957.100   125936700.288 6  23964957.180    98132491.00445
 14  1  8  4 17 30.0000000  0 10G06G31G16G25G27G21G29G18G22G03
  21999263.400   115606917.618 7  21999263.800    90083307.77446
  22698116.400   119279399.111 7  22698115.680    92944987.19047
  21882062.340   114991014.418 8  21882061.300    89603396.23947
  24726344.220   129937845.954 6  24726347.040   101250312.75045
  22910606.180   120396056.107 7  22910607.580    93815126.71147
  21265443.980   111750700.624 8  21265442.680    87078484.28347
  23676143.920   124419032.114 6  23676145.080    96949911.06046
  22938430.320   120542263.651 7  22938429.500    93929039.30946
  24074099.200   126510244.831 6  24074096.340    98579408.98346
  23948028.220   125847738.150 6  23948028.140    98063169.86644
 14  1  8  4 18  0.0000000  0 10G06G31G16G25G27G21G29G18G22G03
  21988662.360   115551208.480 7  21988662.640    90039898.07946
  22715156.640   119368946.392 7  22715156.040    93014764.27846
  21868149.120   114917899.959 8  21868148.000    89546423.94147
  24745405.060   130038010.232 6  24745407.680   101328362.83145
  22897959.680   120329597.957 7  22897961.100    93763341.12747
  21272045.220   111785390.432 8  21272043.920    87105515.30747
  23690495.920   124494452.194 7  23690496.900    97008679.93346
  22926792.020   120481104.384 7  22926791.300    93881382.74246
  24056650.940   126418554.638 6  24056648.420    98507962.11945
  23931109.360   125758828.623 6  23931109.220    97993889.78845
 14  1  8  4 18 30.0000000  0 10G06G31G16G25G27G21G29G18G22G03
  21978092.320   115495662.585 7  21978092.600    89996615.56746
  22732240.500   119458723.202 7  22732239.960    93084720.22047
  21854281.740   114845026.898 8  21854280.640    89489639.76047
  24764492.220   130138294.137 6  24764497.340   101406471.28645
  22885335.980   120263259.865 7  22885337.620    93711649.12647
  21278716.260   111820446.866 8  21278714.940    87132832.01647
  23704853.980   124569903.757 7  23704854.680    97067473.36546
  22915206.680   120420223.284 7  22915206.100    93833942.94746
  24039203.340   126326868.059 6  24039201.120    98436518.04145
  23914201.040   125669974.912 6  23914200.940    97924653.16145
 14  1  8  4 19  0.0000000  0  9G06G31G16G27G21G29G18G22G03
  21967550.340   115440264.137 7  21967550.640    89953447.95146
  22749364.580   119548711.147 7  22749364.040    93154840.68246
  21840457.680   114772380.972 8  21840456.520    89433032.54547
  22872732.100   120197026.092 7  22872733.840    93660038.40047
  21285453.700   111855852.407 8  21285452.480    87160420.75047
  23719215.060   124645370.798 7  23719215.560    97126278.82546
  22903671.820   120359607.488 7  22903671.280    93786709.87546
  24021753.920   126235171.615 6  24021751.800    98365066.25845
  23897300.300   125581161.591 6  23897300.300    97855448.02345
 14  1  8  4 19 30.0000000  0  9G06G31G16G27G21G29G18G22G03
  21957042.920   115385047.089 7  21957043.200    89910421.68647
  22766534.840   119638941.191 7  22766534.160    93225149.79546
  21826683.880   114699998.902 8  21826682.620    89376630.92847
  22860154.420   120130930.660 7  22860156.260    93608535.48247
  21292263.620   111891638.791 8  21292262.440    87188306.25647
  23733585.560   124720887.032 7  23733586.000    97185122.62946
  22892194.400   120299293.326 7  22892193.700    93739711.83546
  24004309.760   126143502.043 6  24004307.540    98293635.42146
  23880413.680   125492423.023 6  23880413.940    97786301.10646
 14  1  8  4 20  0.0000000  0  9G06G31G16G27G21G29G18G22G03
  21946564.120   115329980.203 7  21946564.260    89867512.42247
  22783744.680   119729378.872 7  22783743.840    93295620.70346
  21812954.720   114627851.445 8  21812953.440    89320412.13247
  22847597.180   120064942.121 7  22847599.040    93557115.87047
  21299139.740   111927773.306 8  21299138.640    87216463.02147
  23747959.320   124796420.847 7  23747959.640    97243980.14146
  22880768.800   120239251.881 7  22880768.120    93692926.30446
  23986865.380   126051830.485 7  23986863.080    98222203.05746
  23863535.440   125403728.340 6  23863536.040    97717188.36846
 14  1  8  4 20 30.0000000  0  9G06G31G16G27G21G29G18G22G03
  21936115.820   115275073.553 7  21936115.880    89824728.04447
  22800995.460   119820031.621 7  22800994.520    93366259.18846
  21799272.420   114555950.665 8  21799271.260    89264385.55947
  22835062.200   119999070.598 7  22835064.140    93505787.41547
  21306083.700   111964264.414 8  21306082.740    87244897.65347
  23762338.160   124871982.266 6  23762338.520    97302859.13446
  22869397.440   120179495.436 7  22869396.820    93646362.85846
  23969423.120   125960169.902 7  23969420.800    98150779.25845
  23846667.660   125315088.029 6  23846668.360    97648118.02146
 14  1  8  4 21  0.0000000  0  9G06G31G16G27G21G29G18G22G03
  21925698.120   115220328.044 7  21925698.160    89782069.21847
  22818286.580   119910896.970 7  22818285.660    93437063.34846
  21785637.540   114484299.145 8  21785636.480    89208553.21747
  22822549.740   119933317.111 7  22822551.740    93454550.93647
  21313095.440   112001111.506 8  21313094.500    87273609.67747
  23776722.320   124947571.800 7  23776722.700    97361760.03346
  22858081.020   120120027.557 7  22858080.460    93600024.25846
  23951983.600   125868523.818 7  23951981.180    98079366.70946
  23829810.460   125226503.399 6  23829811.260    97579091.05046
 14  1  8  4 21 30.0000000  0  9G06G31G16G27G21G29G18G22G03
  21915310.680   115165741.870 7  21915310.700    89739534.54147
  22835617.120   120001970.027 7  22835616.400    93508029.34646
  21772050.300   114412897.714 8  21772049.240    89152915.73747
  22810059.200   119867679.493 7  22810061.300    93403404.74646
  21320174.260   112038311.114 8  21320173.360    87302596.38847
  23791111.480   125023187.086 7  23791111.720    97420680.99446
  22846819.560   120060848.369 7  22846819.080    93553910.62746
  23934546.760   125776892.697 7  23934544.420    98007965.85246
  23812963.720   125137972.731 6  23812964.440    97510106.15646
 14  1  8  4 22  0.0000000  0  9G06G31G16G27G21G29G18G22G03
  21904954.120   115111317.856 7  21904954.140    89697126.21747
  22852987.220   120093251.028 7  22852986.720    93579157.38346
  21758511.500   114341750.961 8  21758510.420    89097476.71447
  22797591.320   119802160.775 7  22797593.360    93352351.23047
  21327320.360   112075864.333 8  21327319.480    87331858.63947
  23805506.100   125098831.269 7  23805506.340    97479624.48146
  22835614.180   120001963.269 7  22835613.680    93508026.16246
  23917113.460   125685282.166 6  23917111.420    97936581.04946
  23796127.840   125049499.308 6  23796128.560    97441165.83145
 14  1  8  4 22 30.0000000  0  9G06G31G16G27G21G29G18G22G03
  21894627.720   115057052.468 7  21894627.720    89654841.50147
  22870395.620   120184733.106 7  22870395.300    93650442.10646
  21745020.940   114270857.600 8  21745019.840    89042235.14347
  22785145.400   119736757.368 7  22785147.540    93301387.53847
  21334532.720   112113765.911 8  21334531.860    87361392.34647
  23819905.480   125174500.052 7  23819905.680    97538587.11746
  22824464.400   119943371.245 7  22824464.040    93462370.04646
  23899684.180   125593691.320 7  23899682.160    97865211.55245
  23779302.480   124961080.113 7  23779303.080    97372267.76745
 14  1  8  4 23  0.0000000  0  9G06G31G16G27G21G29G18G22G03
  21884331.860   115002947.479 7  21884331.840    89612681.78447
  22887842.120   120276415.166 7  22887841.800    93721882.66046
  21731579.220   114200221.266 8  21731578.220    88987193.86247
  22772721.700   119671471.027 7  22772724.020    93250515.11247
  21341811.380   112152015.764 8  21341810.540    87391197.42547
  23834309.880   125250195.348 7  23834310.060    97597570.41446
  22813371.180   119885076.377 7  22813370.900    93416945.50046
  23882259.600   125502124.767 7  23882257.520    97793861.01146
  23762487.800   124872717.170 7  23762488.300    97303413.55445
 14  1  8  4 23 30.0000000  0  9G06G31G16G27G21G29G18G22G03
  21874066.960   114949005.011 7  21874066.960    89570648.70447
  22905326.480   120368296.303 7  22905326.160    93793478.33147
  21718187.300   114129845.925 8  21718186.260    88932355.93647
  22760320.740   119606303.798 7  22760323.040    93199735.48147
  21349156.540   112190614.864 8  21349155.640    87421274.65447
  23848719.640   125325918.680 7  23848719.700    97656575.59846
  22802335.300   119827082.851 7  22802335.140    93371755.75246
  23864840.560   125410586.934 7  23864838.300    97722532.83546
  23745684.340   124784413.164 7  23745684.560    97234605.24045
 14  1  8  4 24  0.0000000  0  9G06G31G16G27G21G29G18G22G03
  21863832.720   114895223.688 7  21863832.780    89528741.17947
  22922847.880   120460372.071 7  22922847.520    93865225.66646
  21704845.240   114059732.740 8  21704844.160    88877722.28547
  22747942.240   119541254.191 7  22747944.540    93149047.47647
  21356567.500   112229559.908 8  21356566.600    87451621.43747
  23863134.400   125401668.558 7  23863134.400    97715601.45046
  22791356.940   119769391.393 7  22791356.880    93326801.38546
  23847427.200   125319078.873 7  23847424.800    97651227.86546
  23728891.720   124696166.841 6  23728891.920    97165841.85345
 14  1  8  4 24 30.0000000  0  9G06G31G16G27G21G29G18G22G03
  21853629.100   114841603.613 7  21853629.240    89486959.29847
  22940405.720   120552639.377 7  22940405.340    93937122.26246
  21691553.320   113989883.781 8  21691552.440    88823294.53747
  22735586.200   119476322.390 7  22735588.400    93098451.28447
  21364043.960   112268848.876 8  21364043.040    87482236.21747
  23877554.220   125477444.930 7  23877554.220    97774647.95545
  22780436.620   119712004.682 7  22780436.480    93282084.46346
  23830020.060   125227603.622 7  23830017.760    97579948.46746
  23712110.220   124607978.906 6  23712110.220    97097124.02345
 14  1  8  4 25  0.0000000  0  9G06G31G16G27G21G29G18G22G03
  21843456.180   114788144.757 7  21843456.320    89445303.06047
  22957999.360   120645095.136 7  22957999.140    94009165.69046
  21678312.200   113920301.102 8  21678311.280    88769074.26047
  22723252.560   119411508.301 7  22723254.580    93047946.80147
  21371585.640   112308480.359 8  21371584.620    87513117.88947
  23891978.980   125553247.074 7  23891978.800    97833714.52846
  22769574.760   119654925.138 7  22769574.580    93237606.92246
  23812619.680   125136163.472 7  23812617.280    97508696.41646
  23695339.760   124519849.720 6  23695339.700    97028451.94845
 14  1  8  4 25 30.0000000  0  9G06G31G16G27G21G29G18G22G03
  21833314.360   114734849.601 7  21833314.660    89403774.38147
  22975628.780   120737738.952 7  22975628.740    94081355.66846
  21665122.520   113850988.671 8  21665121.520    88715064.57247
  22710941.760   119346814.258 7  22710943.660    92997535.86547
  21379192.700   112348455.175 8  21379191.520    87544267.09347
  23906409.060   125629077.517 6  23906408.860    97892803.13246
  22758772.280   119598157.397 7  22758772.000    93193372.32646
  23795226.900   125044763.633 7  23795224.340    97437475.76546
  23678580.960   124431782.262 6  23678580.920    96959827.94346
 14  1  8  4 26  0.0000000  0  9G06G31G16G27G21G29G18G22G03
  21823203.420   114681716.775 7  21823203.820    89362372.18547
  22993293.300   120830566.631 7  22993293.340    94153688.90846
  21651984.500   113781947.742 8  21651983.500    88661266.45147
  22698653.560   119282239.048 7  22698655.380    92947217.52547
  21386864.600   112388770.394 8  21386863.200    87575681.55247
  23920844.140   125704934.669 6  23920844.100    97951912.54146
  22748029.340   119541702.364 7  22748028.920    93149381.41446
  23777842.000   124953405.480 7  23777839.360    97366287.58146
  23661833.460   124343775.387 6  23661833.840    96891251.19445
 14  1  8  4 26 30.0000000  0  9G06G31G16G27G21G29G18G22G03
  21813122.960   114628743.587 7  21813123.360    89321094.39147
  23010991.800   120923572.143 7  23010991.640    94226160.71346
  21638898.080   113713178.143 8  21638897.080    88607679.75547
  22686387.420   119217780.018 7  22686389.220    92896989.72047
  21394600.420   112429421.456 8  21394598.780    87607357.71247
  23935283.820   125780816.015 6  23935283.680    98011040.84046
  22737345.800   119485559.691 7  22737345.280    93105633.88546
  23760464.960   124862089.089 6  23760462.440    97295131.97046
  23645097.200   124255826.667 6  23645097.480    96822719.74445
 14  1  8  4 27  0.0000000  0  9G06G31G16G27G21G29G18G22G03
  21803073.500   114575933.600 7  21803073.920    89279943.77247
  23028724.400   121016755.806 7  23028723.820    94298771.34246
  21625864.240   113644684.781 8  21625863.180    88554308.28947
  22674143.960   119153440.412 7  22674145.740    92846854.98047
  21402400.380   112470409.918 8  21402398.600    87639296.77247
  23949728.440   125856724.180 6  23949728.360    98070190.01846
  22726722.720   119429734.869 7  22726722.120    93062134.04646
  23743096.900   124770820.521 6  23743094.780    97224013.63846
  23628372.840   124167940.187 6  23628373.220    96754236.80545
 14  1  8  4 27 30.0000000  0  9G06G31G16G27G21G29G18G22G03
  21793054.740   114523284.944 7  21793055.160    89238918.84547
  23046489.980   121110113.104 7  23046489.060    94371517.27546
  21612883.000   113576468.104 8  21612881.940    88501152.44147
  22661922.920   119089218.550 7  22661924.660    92796811.99147
  21410263.860   112511732.409 8  21410262.020    87671496.11747
  23964177.880   125932657.634 6  23964177.940    98129358.91846
  22716160.240   119374228.504 7  22716159.740    93018882.34746
  23725738.200   124679600.428 7  23725736.280    97152933.04245
  23611660.040   124080114.695 6  23611660.500    96685801.38445
 14  1  8  4 28  0.0000000  0  9G06G31G16G27G21G29G18G22G03
  21783066.100   114470794.363 7  21783066.520    89198017.09847
  23064287.240   121203637.537 7  23064286.100    94444393.43946
  21599954.140   113508526.762 8  21599953.100    88448211.14247
  22649723.660   119025111.016 7  22649725.360    92746858.06347
  21418189.860   112553383.765 8  21418188.040    87703951.71947
  23978631.720   126008612.338 6  23978631.580    98188544.35845
  22705658.160   119319039.641 7  22705657.760    92975878.05646
  23708388.480   124588428.151 6  23708386.840    97081889.70746
  23594958.460   123992347.018 7  23594958.900    96617410.98646
 14  1  8  4 28 30.0000000  0  9G06G31G16G27G21G29G18G22G03
  21773108.720   114418467.613 7  21773109.040    89157243.01547
  23082116.600   121297331.806 7  23082115.460    94517401.95046
  21587079.260   113440868.619 8  21587078.220    88395490.51547
  22637547.280   118961123.518 7  22637548.840    92696997.67147
  21426179.140   112595368.056 8  21426177.420    87736666.74547
  23993090.720   126084593.900 6  23993090.300    98247750.71746
  22695217.880   119264175.917 7  22695217.520    92933127.11546
  23691049.620   124497312.168 7  23691048.160    97010890.24846
  23578268.900   123904642.936 7  23578269.440    96549070.13945
 14  1  8  4 29  0.0000000  0  9G06G31G16G27G21G29G18G22G03
  21763182.280   114366303.924 7  21763182.620    89116595.98047
  23099977.440   121391191.971 7  23099976.460    94590539.73246
  21574258.460   113373494.879 8  21574257.460    88342991.50347
  22625393.580   118897255.299 7  22625395.200    92647230.24647
  21434231.400   112637683.055 8  21434229.700    87769639.47847
  24007554.380   126160601.577 6  24007554.120    98306977.42546
  22684839.860   119209639.064 7  22684839.500    92890630.87746
  23673722.000   124406254.327 7  23673720.400    96939936.09746
  23561591.620   123817002.662 7  23561592.100    96480779.01746
 14  1  8  4 29 30.0000000  0  9G06G31G16G27G21G29G18G22G03
  21753286.760   114314302.636 7  21753287.120    89076075.50347
  23117869.200   121485214.511 7  23117868.340    94663804.03546
  21561492.200   113306407.541 8  21561491.160    88290715.65947
  22613262.460   118833505.754 7  22613264.120    92597555.27847
  21442345.960   112680325.679 8  21442344.340    87802867.48847
  24022022.800   126236634.323 6  24022022.900    98366223.68146
  22674524.300   119155430.554 7  22674524.020    92848390.49746
  23656405.840   124315256.504 7  23656404.160    96869028.72246
  23544926.460   123729426.148 7  23544926.900    96412537.59146
 14  1  8  4 30  0.0000000  0  9G06G31G16G27G21G29G18G22G03
  21743422.100   114262462.988 7  21743422.380    89035680.96647
  23135791.300   121579395.480 7  23135790.460    94737191.79146
  21548780.660   113239607.135 8  21548779.420    88238663.38947
  22601153.760   118769874.046 7  22601155.320    92547972.11646
  21450522.400   112723293.565 8  21450520.840    87836348.96047
  24036495.920   126312691.355 6  24036496.040    98425488.85046
  22664271.600   119101551.834 7  22664271.280    92806407.09246
  23639101.380   124224320.611 7  23639099.680    96798169.61046
  23528273.380   123641912.800 7  23528273.700    96344345.38246
 14  1  8  4 30 30.0000000  0  9G06G31G16G27G21G29G18G22G03
  21733588.220   114210785.043 7  21733588.400    88995412.44947
  23153743.000   121673731.783 7  23153742.100    94810700.58046
  21536124.060   113173096.143 8  21536122.720    88186836.65647
  22589067.380   118706360.084 7  22589068.980    92498480.73646
  21458760.520   112766585.118 8  21458758.920    87870082.64647
  24050973.660   126388772.064 6  24050973.680    98484772.49746
  22654081.980   119048004.936 7  22654081.640    92764682.26246
  23621809.200   124133449.308 7  23621807.440    96727360.78846
  23511632.340   123554462.777 7  23511632.360    96276202.53846
 14  1  8  4 31  0.0000000  0  9G06G31G16G27G21G29G18G22G03
  21723785.460   114159270.831 7  21723785.540    88955271.49747
  23171724.180   121768222.373 7  23171723.140    94884329.60346
  21523523.260   113106878.728 8  21523521.940    88135238.67547
  22577003.880   118642965.856 7  22577005.400    92449082.62847
  21467060.140   112810199.942 8  21467058.520    87904068.22247
  24065456.380   126464878.422 7  24065456.500    98544076.13846
  22643956.220   118994793.926 7  22643955.880    92723219.14246
  23604530.180   124042647.112 7  23604528.380    96656605.84646
  23495003.660   123467078.971 7  23495003.600    96208111.29546
 14  1  8  4 31 30.0000000  0  9G06G31G16G27G21G29G18G22G03
  21714013.220   114107917.377 7  21714013.280    88915255.82247
  23189733.480   121862861.127 7  23189732.440    94958074.05146
  21510978.000   113040953.415 8  21510976.760    88083868.30547
  22564962.620   118579688.343 7  22564963.940    92399775.47246
  21475420.580   112854134.324 8  21475418.920    87938302.81047
  24079943.560   126541007.160 7  24079943.560    98603397.19546
  22633894.160   118941918.053 7  22633893.900    92682017.17346
  23587264.220   123951913.632 7  23587262.420    96585904.45846
  23478387.020   123379758.293 7  23478387.020    96140069.19646
 14  1  8  4 32  0.0000000  0  9G06G31G16G27G21G29G18G22G03
  21704272.260   114056728.110 7  21704272.280    88875368.08047
  23207771.000   121957648.429 7  23207769.820    95031934.25746
  21498489.560   112975326.307 8  21498488.340    88032730.29047
  22552944.300   118516531.056 7  22552945.340    92350562.01946
  21483842.040   112898389.505 8  21483840.380    87972787.36947
  24094435.620   126617161.723 6  24094435.500    98662738.37246
  22623896.940   118889382.796 7  22623896.720    92641080.62046
  23570012.640   123861255.235 7  23570010.680    96515261.55346
  23461783.260   123292504.811 7  23461783.260    96072079.50546
 14  1  8  4 32 30.0000000  0  9G06G31G16G27G21G29G18G22G03
  21694562.380   114005702.502 8  21694562.460    88835607.87447
  23225835.940   122052580.729 7  23225834.860    95105907.47946
  21486058.100   112909998.670 8  21486056.920    87981825.64447
  22540948.560   118453493.440 7  22540949.520    92301441.81547
  21492324.080   112942963.218 8  21492322.440    88007520.13247
  24108932.300   126693341.213 6  24108932.140    98722098.98646
  22613964.880   118837190.033 7  22613964.720    92600410.94946
  23552775.740   123770673.802 7  23552773.620    96444678.63246
  23445192.300   123205318.602 7  23445192.240    96004142.24846
 14  1  8  4 33  0.0000000  0  9G06G31G16G27G21G29G18G22G03
  21684883.820   113954841.147 8  21684883.900    88795975.65147
  23243927.880   122147655.766 7  23243927.100    95179991.91846
  21473684.140   112844973.391 8  21473683.040    87931156.60447
  22528975.660   118390576.001 7  22528976.700    92252415.25147
  21500866.380   112987853.922 8  21500864.780    88042499.90847
  24123433.640   126769545.812 6  24123433.540    98781479.16246
  22604098.560   118785342.198 7  22604098.260    92560010.05746
  23535554.100   123680172.622 7  23535551.800    96374158.25746
  23428614.200   123118200.440 7  23428614.180    95936258.00346
 14  1  8  4 33 30.0000000  0  9G06G31G16G27G21G29G18G22G03
  21675236.440   113904143.631 8  21675236.520    88756471.09347
  23262046.140   122242869.791 7  23262045.860    95254184.64846
  21461367.960   112780251.896 8  21461366.980    87880724.27747
  22517025.640   118327778.301 7  22517026.900    92203482.00347
  21509468.540   113033059.566 8  21509467.120    88077725.08147
  24137939.620   126845775.298 6  24137939.520    98840878.72745
  22594298.240   118733841.003 7  22594297.880    92519879.25146
  23518348.020   123589753.953 7  23518345.800    96303702.17246
  23412048.940   123031150.359 7  23412049.200    95868426.79846
 14  1  8  4 34  0.0000000  0  9G06G31G16G27G21G29G18G22G03
  21665620.220   113853610.330 7  21665620.360    88717094.50147
  23280190.560   122338220.116 7  23280190.560    95328483.59246
  21449110.020   112715836.633 8  21449109.200    87830530.57947
  22505098.400   118265100.697 7  22505099.920    92154642.33447
  21518130.360   113078578.442 8  21518129.120    88113194.34347
  24152450.200   126922029.497 6  24152450.180    98900297.54446
  22584564.380   118682688.772 7  22584563.920    92480020.38646
  23501158.120   123499420.713 7  23501155.980    96233312.64346
  23395496.880   122944169.325 7  23395497.220    95800649.35845
 14  1  8  4 34 30.0000000  0  9G06G31G16G27G21G29G18G22G03
  21656034.960   113803239.667 8  21656035.160    88677844.64447
  23298360.280   122433701.990 7  23298360.240    95402885.05046
  21436910.380   112651727.355 8  21436909.620    87780575.31447
  22493193.740   118202541.431 7  22493195.340    92105894.86047
  21526851.140   113124407.031 8  21526850.040    88148904.93647
  24166965.120   126998306.473 6  24166965.340    98959734.12746
  22574896.940   118631886.103 7  22574896.480    92440433.89946
  23483984.620   123409173.971 7  23483982.600    96162990.52446
  23378957.780   122857255.928 7  23378958.060    95732924.66046
 14  1  8  4 35  0.0000000  0  9G06G31G16G27G21G29G18G22G03
  21646480.760   113753032.306 7  21646480.960    88638722.05447
  23316554.700   122529312.991 7  23316554.440    95477387.09646
  21424769.840   112587928.098 8  21424769.040    87730861.60547
  22481311.900   118140101.391 7  22481313.460    92057240.30447
  21535630.760   113170544.400 8  21535629.740    88184856.13347
  24181484.500   127074606.961 6  24181484.700    99019188.98645
  22565296.480   118581435.970 7  22565296.180    92401122.12446
  23466828.140   123319016.920 7  23466826.240    96092738.28946
  23362431.940   122770411.509 7  23362432.340    95665253.70246
 14  1  8  4 35 30.0000000  0  9G06G31G16G27G21G29G18G22G03
  21636958.000   113702990.177 7  21636958.180    88599728.18347
  23334773.520   122625051.994 7  23334772.960    95551988.91546
  21412689.000   112524442.343 8  21412688.120    87681392.19447
  22469453.040   118077782.265 7  22469454.600    92008679.95447
  21544469.200   113216990.787 8  21544468.280    88221048.12847
  24196008.800   127150932.696 6  24196008.900    99078663.54845
  22555763.800   118531341.956 7  22555763.680    92362087.84346
  23449689.620   123228954.298 7  23449687.880    96022559.61846
  23345919.500   122683638.020 6  23345920.020    95597638.02746
 14  1  8  4 36  0.0000000  0  9G06G31G16G27G21G29G18G22G03
  21627466.440   113653112.213 7  21627466.660    88560862.24947
  23353015.740   122720914.477 7  23353014.960    95626686.93346
  21400667.900   112461270.542 8  21400666.920    87632167.41447
  22457616.900   118015582.892 7  22457618.400    91960212.92947
  21553365.900   113263742.990 8  21553364.980    88257478.41747
  24210537.560   127227282.079 6  24210537.740    99138156.53546
  22546299.040   118481604.856 7  22546298.920    92323331.66546
  23432569.460   123138987.345 7  23432567.700    95952455.50146
  23329420.340   122596934.858 7  23329421.080    95530077.17646
 14  1  8  4 36 30.0000000  0  9G06G31G16G27G21G29G18G22G03
  21618006.180   113603398.138 8  21618006.320    88522124.00547
  23371280.860   122816897.787 7  23371279.840    95701479.11446
  21388706.840   112398414.771 8  21388705.800    87583188.88347
  22445803.600   117953503.064 7  22445804.940    91911839.05147
  21562320.420   113310799.158 8  21562319.580    88294145.55747
  24225070.900   127303654.692 6  24225071.260    99197667.60946
  22536902.560   118432226.414 7  22536902.340    92284854.97846
  23415467.880   123049118.408 7  23415466.120    95882427.77346
  23312934.520   122510302.304 6  23312935.540    95462571.28545
 14  1  8  4 37  0.0000000  0  9G06G31G16G27G21G29G18G22G03
  21608577.600   113553850.292 8  21608577.760    88483515.29647
  23389568.480   122913000.638 7  23389567.480    95776364.45546
  21376806.680   112335878.974 8  21376805.620    87534459.68647
  22434013.400   117891545.011 7  22434014.760    91863560.06747
  21571332.800   113358159.277 8  21571331.980    88331049.54547
  24239608.980   127380052.547 6  24239609.400    99257198.39146
  22527575.240   118383211.045 7  22527574.960    92246661.21146
  23398386.000   122959352.725 7  23398384.180    95812480.50646
  23296462.580   122423742.931 6  23296463.660    95395122.45346
 14  1  8  4 37 30.0000000  0  9G06G31G16G27G21G29G18G22G03
  21599180.240   113504466.522 7  21599180.360    88445034.44447
  23407877.800   123009218.127 7  23407877.160    95851339.11246
  21364967.560   112273663.902 8  21364966.520    87485980.41047
  22422245.880   117829706.707 7  22422247.380    91815374.39047
  21580402.260   113405819.448 8  21580401.440    88368187.33947
  24254151.500   127456473.578 6  24254151.940    99316747.21546
  22518317.060   118334558.747 7  22518316.680    92208750.32346
  23381323.900   122869690.819 7  23381321.940    95742614.08746
  23280004.380   122337255.381 6  23280005.420    95327729.59045
 14  1  8  4 38  0.0000000  0  9G06G31G16G27G21G29G18G22G03
  21589814.060   113455247.279 7  21589814.260    88406681.79647
  23426208.340   123105547.026 7  23426208.040    95926400.57146
  21353189.920   112211771.138 8  21353188.700    87437752.26747
  22410501.180   117767988.362 7  22410502.820    91767282.18447
  21589528.620   113453778.413 8  21589527.780    88405557.95747
  24268698.240   127532917.543 6  24268698.880    99376313.90146
  22509128.420   118286271.651 7  22509127.980    92171124.03046
  23364282.080   122780135.403 7  23364280.100    95672830.66746
  23263560.160   122250840.282 7  23263561.060    95260393.18246
 14  1  8  4 38 30.0000000  0  9G06G31G16G27G21G29G18G22G03
  21580479.560   113406194.970 7  21580479.960    88368459.23647
  23444560.160   123201986.941 7  23444559.900    96001548.56846
  21341474.440   112150205.573 8  21341473.160    87389779.10847
  22398779.780   117706392.499 7  22398781.460    91719285.42247
  21598711.980   113502036.757 8  21598710.980    88443161.87347
  24283249.720   127609387.172 6  24283250.600    99435900.57146
  22500010.220   118238354.219 7  22500009.620    92133785.79946
  23347261.580   122690691.804 7  23347259.500    95603134.36846
  23247130.340   122164500.917 7  23247131.220    95193115.75545
 14  1  8  4 39  0.0000000  0  9G06G31G16G27G21G29G18G22G03
  21571175.900   113357304.622 7  21571176.480    88330362.87547
  23462931.760   123298529.875 7  23462931.300    96076776.82946
  21329820.520   112088964.175 8  21329819.260    87342058.53647
  22387080.780   117644914.128 7  22387082.420    91671380.20647
  21607950.960   113550587.401 8  21607949.800    88480993.54647
  24297805.220   127685877.153 6  24297806.020    99495503.11746
  22490961.760   118190803.489 7  22490961.000    92096733.30946
  23330261.880   122601357.522 7  23330259.660    95533523.23146
  23230714.000   122078232.412 7  23230714.620    95125893.56645
 14  1  8  4 39 30.0000000  0  9G06G31G16G27G21G29G18G22G03
  21561904.180   113308581.877 7  21561904.900    88292397.10447
  23481323.440   123395178.088 7  23481322.780    96152087.08646
  21318229.660   112028054.373 8  21318228.520    87294596.36547
  22375405.220   117583558.631 7  22375406.820    91623570.73947
  21617246.160   113599433.739 8  21617244.940    88519055.62047
  24312365.300   127762392.538 6  24312366.220    99555125.50546
  22481984.260   118143626.445 7  22481983.500    92059971.98646
  23313284.480   122512140.594 7  23313282.200    95464003.55746
  23214312.380   121992040.443 7  23214312.660    95058730.98246
 14  1  8  4 40  0.0000000  0  9G06G31G16G27G21G29G18G22G03
  21552664.060   113260024.877 7  21552664.820    88254560.49047
  23499734.340   123491926.804 7  23499733.440    96227475.68646
  21306702.060   111967476.775 8  21306700.900    87247393.04047
  22363752.740   117522324.169 7  22363754.360    91575855.58747
  21626597.040   113648572.509 8  21626595.780    88557345.56247
  24326929.840   127838931.354 6  24326931.060    99614766.08845
  22473077.880   118096823.575 7  22473077.100    92023502.24446
  23296329.480   122423041.733 7  23296327.200    95394575.88346
  23197925.120   121905923.507 7  23197925.200    94991626.87645
 14  1  8  4 40 30.0000000  0  9G06G31G16G27G21G29G18G22G03
  21543455.500   113211633.257 8  21543456.240    88216852.75747
  23518163.560   123588772.447 7  23518162.420    96302939.80046
  21295238.000   111907232.691 8  21295236.800    87200449.59047
  22352123.140   117461210.503 7  22352124.900    91528234.56147
  21636003.040   113698001.031 8  21636001.740    88595861.29347
  24341499.020   127915492.875 6  24341500.300    99674424.37946
  22464243.040   118050396.396 7  22464242.220    91987325.22946
  23279397.400   122334063.436 7  23279395.160    95325242.15346
  23181552.080   121819882.278 7  23181552.000    94924581.77746
 14  1  8  4 41  0.0000000  0  9G06G31G16G27G21G29G18G22G03
  21534278.240   113163405.892 7  21534278.920    88179272.99847
  23536610.420   123685710.838 7  23536609.120    96378476.21746
  21283837.540   111847322.935 8  21283836.400    87153766.67347
  22340516.340   117400216.326 7  22340518.220    91480706.65347
  21645463.620   113747716.664 8  21645462.320    88634600.74247
  24356072.440   127992076.073 6  24356073.660    99734099.55346
  22455479.800   118004345.393 7  22455478.920    91951441.33746
  23262488.600   122245207.242 7  23262486.320    95256003.56346
  23165193.320   121733916.017 7  23165193.040    94857595.10746
 14  1  8  4 41 30.0000000  0  9G06G31G16G27G21G29G18G22G03
  21525132.640   113115345.124 7  21525133.260    88141823.04747
  23555074.560   123782741.239 7  23555073.340    96454084.31646
  21272501.500   111787751.575 8  21272500.400    87107347.44147
  22328932.720   117339344.042 7  22328934.620    91433273.70347
  21654978.860   113797719.664 8  21654977.600    88673564.11447
  24370650.520   128068682.960 6  24370651.580    99793793.22345
  22446789.000   117958675.036 7  22446788.120    91915854.06246
  23245604.020   122156478.030 7  23245601.700    95186863.94046
  23148849.260   121648027.344 7  23148848.920    94790668.87746
 14  1  8  4 42  0.0000000  0  9G06G31G16G27G21G29G18G22G03
  21516018.840   113067451.485 8  21516019.360    88104503.34747
  23573555.560   123879861.055 7  23573554.520    96529762.08046
  21261230.400   111728521.607 8  21261229.280    87061194.22847
  22317372.420   117278594.066 7  22317374.220    91385936.07847
  21664548.480   113848008.394 8  21664547.200    88712750.13147
  24385233.140   128145313.724 6  24385233.940    99853505.49945
  22438171.100   117913387.450 7  22438170.160    91880565.05646
  23228744.220   122067878.781 7  23228741.740    95117825.55846
  23132520.100   121562217.129 7  23132519.820    94723803.79446
 14  1  8  4 42 30.0000000  0  9G06G31G16G27G21G29G18G22G03
  21506937.100   113019726.467 8  21506937.460    88067315.04147
  23592053.300   123977068.263 7  23592052.420    96605507.96946
  21250024.960   111669636.231 8  21250023.820    87015309.51847
  22305835.540   117217967.852 7  22305837.340    91338694.88047
  21674172.400   113898582.421 8  21674171.080    88752158.46947
  24399820.380   128221969.450 6  24399820.900    99913237.22645
  22429626.580   117868485.671 7  22429625.640    91845576.67146
  23211909.780   121979413.730 7  23211907.500    95048891.77246
  23116206.220   121476487.219 7  23116205.960    94657001.24846
 14  1  8  4 43  0.0000000  0  9G06G31G16G27G21G29G18G22G03
  21497887.160   112972168.997 8  21497887.480    88030257.28347
  23610567.100   124074359.020 7  23610566.360    96681318.90346
  21238885.200   111611096.605 8  21238884.080    86969694.23147
  22294322.140   117157464.377 7  22294323.820    91291549.31947
  21683850.100   113949439.225 8  21683848.800    88791787.14947
  24414412.080   128298649.206 6  24414412.680    99972987.63945
  22421155.620   117823970.783 7  22421154.800    91810889.76046
  23195101.180   121891084.332 7  23195099.040    94980063.66846
  23099907.400   121390837.025 7  23099907.300    94590260.85846
 14  1  8  4 43 30.0000000  0  9G06G31G16G27G21G29G18G22G03
  21488868.660   112924776.744 8  21488869.020    87993328.25547
  23629095.920   124171727.875 7  23629095.020    96757190.73646
  21227811.040   111552901.635 8  21227809.920    86924347.50147
  22282831.560   117097081.168 7  22282833.240    91244497.49147
  21693580.620   114000574.136 8  21693579.440    88831632.53247
  24429007.720   128375350.188 6  24429008.400   100032754.59945
  22412758.120   117779842.051 7  22412757.460    91776503.74946
  23178318.500   121802890.604 7  23178316.240    94911341.29146
  23083623.540   121305264.826 7  23083623.420    94523581.21446
 14  1  8  4 44  0.0000000  0  9G06G31G16G27G21G29G18G22G03
  21479882.460   112877553.881 8  21479882.820    87956531.22147
  23647639.740   124269175.637 7  23647638.720    96833124.04546
  21216803.780   111495058.322 8  21216802.700    86879274.80047
  22271364.520   117036822.294 7  22271366.300    91197542.54647
  21703364.540   114051989.353 8  21703363.460    88871696.34047
  24443608.060   128452076.225 6  24443608.860   100092541.07946
  22404435.140   117736105.271 7  22404434.620    91742423.16446
  23161563.000   121714839.400 7  23161560.480    94842729.95146
  23067355.420   121219775.139 7  23067355.180    94456965.89646
 14  1  8  4 44 30.0000000  0  9G06G31G16G27G21G29G18G22G03
  21470927.680   112830495.961 8  21470928.000    87919862.70747
  23666197.120   124366694.948 7  23666196.080    96909113.08646
  21205862.980   111437563.809 8  21205861.820    86834473.87747
  22259920.360   116976683.308 7  22259922.180    91150680.99547
  21713200.620   114103678.250 8  21713199.540    88911973.39847
  24458212.520   128528822.792 6  24458213.140   100152343.54745
  22396186.260   117692757.700 7  22396185.920    91708645.84846
  23144834.200   121626929.065 7  23144831.640    94774228.40346
  23051102.320   121134363.928 7  23051101.820    94390411.69846
 14  1  8  4 45  0.0000000  0  9G06G31G16G27G21G29G18G22G03
  21462005.320   112783608.056 8  21462005.520    87883326.67247
  23684768.400   124464287.781 6  23684767.360    96985159.45146
  21194989.800   111380424.892 8  21194988.620    86789950.04947
  22248500.000   116916669.350 7  22248501.880    91103916.88247
  21723089.420   114155644.355 8  21723088.360    88952466.46147
  24472821.780   128605594.724 6  24472822.240   100212165.79945
  22388012.800   117649806.209 7  22388012.640    91675177.16446
  23128133.660   121539167.248 7  23128131.140    94705842.58046
  23034865.120   121049036.948 7  23034864.700    94323923.15646
 14  1  8  4 45 30.0000000  0  9G06G31G16G27G21G29G18G22G03
  21453114.820   112736887.546 8  21453114.920    87846921.08147
  23703352.480   124561948.103 7  23703351.460    97061258.40246
  21184184.160   111323640.763 8  21184183.000    86745702.67547
  22237103.060   116856777.719 7  22237104.800    91057248.07447
  21733030.100   114207882.653 8  21733028.960    88993171.62147
  24487435.340   128682389.232 6  24487435.760   100272005.63946
  22379914.660   117607250.086 7  22379914.520    91642016.56946
  23111461.360   121451553.665 7  23111458.900    94637572.26046
  23018643.500   120963791.615 7  23018643.240    94257498.21946
 14  1  8  4 46  0.0000000  0  9G06G31G16G27G21G29G18G22G03
  21444256.400   112690336.324 8  21444256.560    87810647.40447
  23721949.200   124659674.774 7  23721948.260    97137409.07246
  21173446.720   111267215.497 8  21173445.680    86701734.94447
  22225729.720   116797010.193 7  22225731.220    91010675.97247
  21743022.700   114260393.437 8  21743021.360    89034089.12247
  24502053.420   128759207.814 6  24502054.100   100331864.24346
  22371892.440   117565092.735 7  22371892.180    91609166.70646
  23094818.080   121364092.736 7  23094815.660    94569420.90446
  23002437.840   120878630.265 6  23002437.740    94191138.74246
 14  1  8  4 46 30.0000000  0  9G06G31G16G27G21G29G18G22G03
  21435430.320   112643955.300 8  21435430.540    87774506.35047
  23740557.960   124757465.534 7  23740557.360    97213609.64246
  21162778.180   111211152.146 8  21162777.180    86658049.21647
  22214380.260   116737367.677 7  22214381.460    90964201.30647
  21753066.860   114313175.497 8  21753065.400    89075218.00047
  24516676.260   128836050.991 6  24516676.980   100391742.03745
  22363946.580   117523336.563 7  22363946.180    91576629.43946
  23078204.560   121276787.865 7  23078201.960    94501391.13546
  22986248.200   120793554.507 6  22986248.480    94124845.94645
